[{"Type":"on-farm market","ModifyDate":"Apr 20th, 2015","Image":"default-onfarmmarket-4-3.jpg","ListingID":"701246","Name":"Karen's Kountry Store","Description":null,"ContactName":"South Mountain Creamery\/Emily Moore","ContactEmail":"emily.moore@smcdairy.com","ContactPhone":"(301)371-8565 x 5324","Website":"www.southmountaincreamery.com","Facebook":"www.facebook.com\/smcdairy","Twitter":"www.twitter.com\/southmtcreamery","Instagram":null,"Pinterest":null,"Youtube":null,"Blog":null,"Address":"8305 Bolivar Road, Middletown, Maryland 21769","State":"Maryland","City":"Middletown","Street":"8305 Bolivar Road","Zip":"21769","Longitude":"-77.602960","Latitude":"39.4585804","Dates":null,"Products":""},{"Type":"on-farm market","ModifyDate":"Apr 9th, 2016","Image":"default-onfarmmarket-4-3.jpg","ListingID":"701325","Name":"Rock Hill Orchard","Description":null,"ContactName":"Mary Fendrick","ContactEmail":"Info@rockhillorchard.com","ContactPhone":"240-207-3732","Website":"http:\/\/www.rockhillorchard.com","Facebook":"https:\/\/www.facebook.com\/rockhillorchard\/?fref=ts","Twitter":"@rockhillorchard","Instagram":null,"Pinterest":null,"Youtube":null,"Blog":null,"Address":"28600 Ridge Rd, Mount Airy, Maryland 21771","State":"Maryland","City":"Mount Airy","Street":"28600 Ridge Rd","Zip":"21771","Longitude":"-77.194802","Latitude":"39.327127","Dates":null,"Products":""},{"Type":"on-farm market","ModifyDate":"Aug 13th, 2014","Image":"default-onfarmmarket-4-3.jpg","ListingID":"700835","Name":"Evermore Farm","Description":null,"ContactName":"Ginger Myers","ContactEmail":"ginger@evermorefarm.com","ContactPhone":"443-398-6548","Website":"www.evermorefarm.com","Facebook":"www.facebook\/evermorefarm","Twitter":"https:\/\/www.twitter.com\/evermorefarm","Instagram":null,"Pinterest":null,"Youtube":null,"Blog":null,"Address":"150 Rockland Road, Westminster, Maryland 21158","State":"Maryland","City":"Westminster","Street":"150 Rockland Road","Zip":"21158","Longitude":"-77.048689","Latitude":"39.579598","Dates":null,"Products":""},{"Type":"on-farm market","ModifyDate":"Aug 14th, 2014","Image":"default-onfarmmarket-4-3.jpg","ListingID":"700840","Name":"Nick's Organic Farm-Potomac","Description":null,"ContactName":"Nick Maravell","ContactEmail":"nickmaravell@comcast.net","ContactPhone":"(301) 983-2167","Website":"www.nicksorganicfarm.com","Facebook":null,"Twitter":null,"Instagram":null,"Pinterest":null,"Youtube":null,"Blog":null,"Address":"8565 Horseshoe Lane, Potomac, Maryland 20854","State":"Maryland","City":"Potomac","Street":"8565 Horseshoe Lane","Zip":"20854","Longitude":"-77.217849","Latitude":"38.9966381","Dates":null,"Products":""},{"Type":"on-farm market","ModifyDate":"Aug 14th, 2014","Image":"default-onfarmmarket-4-3.jpg","ListingID":"700841","Name":"Nick's Organic Farm-Buckeystown","Description":null,"ContactName":"Nick Maravell","ContactEmail":"nickmaravell@comcast.net","ContactPhone":"(301) 983-2167","Website":"www.nicksorganicfarm.com","Facebook":null,"Twitter":null,"Instagram":null,"Pinterest":null,"Youtube":null,"Blog":null,"Address":"2733 Buckeystown Pike, Adamstown, Maryland 21710","State":"Maryland","City":"Adamstown","Street":"2733 Buckeystown Pike","Zip":"21710","Longitude":"-77.442373","Latitude":"39.310287","Dates":null,"Products":""},{"Type":"on-farm market","ModifyDate":"Aug 25th, 2020","Image":"default-onfarmmarket-4-3.jpg","ListingID":"701553","Name":"Ana-Gail Farms LLC","Description":null,"ContactName":"Mandy Legg","ContactEmail":"mandy@anagailfarms.com","ContactPhone":"410-490-2305","Website":"www.anagailfarms.com","Facebook":"@anagailfarms","Twitter":null,"Instagram":null,"Pinterest":null,"Youtube":null,"Blog":null,"Address":"1217 Perrys Corner Rd, Grasonville, Maryland 21638","State":"Maryland","City":"Grasonville","Street":"1217 Perrys Corner Rd","Zip":"21638","Longitude":"-76.193302","Latitude":"38.935374","Dates":null,"Products":""},{"Type":"on-farm market","ModifyDate":"Aug 8th, 2014","Image":"default-onfarmmarket-4-3.jpg","ListingID":"700153","Name":"Cultivale Farm","Description":null,"ContactName":"Brad Humbert","ContactEmail":"brad@cultivale.com","ContactPhone":"410-596-1276","Website":"www.cultivale.com","Facebook":"https:\/\/www.facebook.com\/cultivale","Twitter":null,"Instagram":null,"Pinterest":null,"Youtube":null,"Blog":null,"Address":"717 MULLER RD, WESTMINSTER, Maryland 21157","State":"Maryland","City":"WESTMINSTER","Street":"717 MULLER RD","Zip":"21157","Longitude":"-77.022237","Latitude":"39.475424","Dates":null,"Products":""},{"Type":"on-farm market","ModifyDate":"Feb 2nd, 2015","Image":"default-onfarmmarket-4-3.jpg","ListingID":"701203","Name":"Jehovah Jireh Farm","Description":null,"ContactName":"Myron Horst","ContactEmail":"mhorst@jehovahjirehfarm.com","ContactPhone":"3018746181","Website":"www.Jehovahjirehfarm.com","Facebook":null,"Twitter":null,"Instagram":null,"Pinterest":null,"Youtube":null,"Blog":null,"Address":"7033 Ed Sears Rd, Dickerson, Maryland 20842","State":"Maryland","City":"Dickerson","Street":"7033 Ed Sears Rd","Zip":"20842","Longitude":"-77.418607","Latitude":"39.260721","Dates":null,"Products":""},{"Type":"on-farm market","ModifyDate":"Jan 14th, 2019","Image":"default-onfarmmarket-4-3.jpg","ListingID":"701467","Name":"Shimar Farms","Description":null,"ContactName":"Gary Pilchard","ContactEmail":"Pilchardgp@aol.com","ContactPhone":"443-880-8936","Website":null,"Facebook":"Shi-Mar Farms","Twitter":null,"Instagram":null,"Pinterest":null,"Youtube":null,"Blog":null,"Address":"3017 Klej Grange Rd, Pocomoke City, Maryland 21851","State":"Maryland","City":"Pocomoke City","Street":"3017 Klej Grange Rd","Zip":"21851","Longitude":"-75.456314","Latitude":"38.097410","Dates":null,"Products":""},{"Type":"on-farm market","ModifyDate":"Jul 25th, 2014","Image":"default-onfarmmarket-4-3.jpg","ListingID":"700393","Name":"Wagon Wheel Ranch","Description":null,"ContactName":"Brian Schiner","ContactEmail":"bschiner@aol.com","ContactPhone":"443-271-6850","Website":"www.wagonwheelranch.org","Facebook":null,"Twitter":null,"Instagram":null,"Pinterest":null,"Youtube":null,"Blog":null,"Address":"661 west watersville rd, mount airy, Maryland 21771","State":"Maryland","City":"mount airy","Street":"661 west watersville rd","Zip":"21771","Longitude":"-77.113815","Latitude":"39.3590151","Dates":null,"Products":""},{"Type":"on-farm market","ModifyDate":"Jul 26th, 2014","Image":"default-onfarmmarket-4-3.jpg","ListingID":"700026","Name":"Tag Along Alpacas, LLC","Description":null,"ContactName":"Tracy Abram","ContactEmail":"tagalongalpacas@yahoo.com","ContactPhone":"410-778-5224","Website":"www.tagalongalpacas.com","Facebook":"https:\/\/www.facebook.com\/tag.alpacas","Twitter":null,"Instagram":null,"Pinterest":null,"Youtube":null,"Blog":null,"Address":"8139 Broadneck Road, Chestertown, Maryland 21620","State":"Maryland","City":"Chestertown","Street":"8139 Broadneck Road","Zip":"21620","Longitude":"-76.125663","Latitude":"39.200861","Dates":null,"Products":""},{"Type":"on-farm market","ModifyDate":"Jul 27th, 2014","Image":"default-onfarmmarket-4-3.jpg","ListingID":"700038","Name":"Shaw Orchards","Description":null,"ContactName":"Barron Shaw","ContactEmail":"info@shaworchards.com","ContactPhone":"717-382-8879","Website":"www.shaworchards.com","Facebook":"https:\/\/www.facebook.com\/shaworchards","Twitter":null,"Instagram":null,"Pinterest":null,"Youtube":null,"Blog":"www.shaworchards.com\/blog","Address":"5594 Norrisville Rd, White Hall, Maryland 21161","State":"Maryland","City":"White Hall","Street":"5594 Norrisville Rd","Zip":"21161","Longitude":"-76.547311","Latitude":"39.721081","Dates":null,"Products":""},{"Type":"on-farm market","ModifyDate":"Jul 28th, 2014","Image":"default-onfarmmarket-4-3.jpg","ListingID":"700068","Name":"Willow Oak Flower & Herb Farm","Description":null,"ContactName":"Heather Carr","ContactEmail":"contact@willowoakherbs.com","ContactPhone":"410-551-2237","Website":"www.willowoakherbs.com","Facebook":"https:\/\/www.facebook.com\/pages\/Willow-Oak-flower-and-Herb-Farm\/240128883193?v=info","Twitter":null,"Instagram":null,"Pinterest":null,"Youtube":null,"Blog":null,"Address":"8109 Telegraph Rd, Severn, Maryland 21144","State":"Maryland","City":"Severn","Street":"8109 Telegraph Rd","Zip":"21144","Longitude":"-76.691217","Latitude":"39.112864","Dates":null,"Products":""},{"Type":"on-farm market","ModifyDate":"Jul 30th, 2014","Image":"default-onfarmmarket-4-3.jpg","ListingID":"700132","Name":"Habanera Farm, LLC","Description":null,"ContactName":"Chris Himmel","ContactEmail":"Habanerafarm@habanerafarm.com","ContactPhone":"410-873-2953","Website":"http:\/\/www.habanerafarm.com\/","Facebook":"https:\/\/www.facebook.com\/habanerafarm","Twitter":null,"Instagram":null,"Pinterest":null,"Youtube":null,"Blog":null,"Address":"2916 Whitehaven Road, Tyaskin, Maryland 21865","State":"Maryland","City":"Tyaskin","Street":"2916 Whitehaven Road","Zip":"21865","Longitude":"-75.795105","Latitude":"38.2744420","Dates":null,"Products":""},{"Type":"on-farm market","ModifyDate":"Jul 6th, 2017","Image":"default-onfarmmarket-4-3.jpg","ListingID":"701396","Name":"Unity Church Hill","Description":null,"ContactName":"Michael Jensen","ContactEmail":"michael@unitylandscape.com","ContactPhone":"410-556-6010","Website":"http:\/\/unitynursery.com\/","Facebook":"https:\/\/www.facebook.com\/unitychurchhill.nursery","Twitter":null,"Instagram":null,"Pinterest":null,"Youtube":null,"Blog":"http:\/\/www.unitychurchhillnursery.com\/blog\/","Address":"3621 Church Hill Road, Church Hill, MD 21623, Church Hill, Maryland 21623","State":"Maryland","City":"Church Hill","Street":"3621 Church Hill Road, Church Hill, MD 21623","Zip":"21623","Longitude":"-76.007155","Latitude":"39.1262217","Dates":null,"Products":""},{"Type":"on-farm market","ModifyDate":"Jun 14th, 2015","Image":"default-onfarmmarket-4-3.jpg","ListingID":"701271","Name":"Chase's Produce","Description":null,"ContactName":"Margaret Chase","ContactEmail":"chasemr@yahoo.com","ContactPhone":"443-883-6425","Website":null,"Facebook":null,"Twitter":null,"Instagram":null,"Pinterest":null,"Youtube":null,"Blog":null,"Address":"2857  Davidsonville Rd, Davidsonville, Maryland 21035","State":"Maryland","City":"Davidsonville","Street":"2857  Davidsonville Rd","Zip":"21035","Longitude":"0.437050","Latitude":"0.289763","Dates":null,"Products":""},{"Type":"on-farm market","ModifyDate":"Mar 17th, 2016","Image":"default-onfarmmarket-4-3.jpg","ListingID":"701320","Name":"Citizens of Earth","Description":null,"ContactName":"Michael Sheehan","ContactEmail":"citizens@thecitizensofearth.org","ContactPhone":"2404829109","Website":"thecitizensofearth.org","Facebook":"https:\/\/www.facebook.com\/Citizens-of-Earth-466859626793595\/","Twitter":null,"Instagram":null,"Pinterest":null,"Youtube":null,"Blog":null,"Address":"12600 Piedmont Road , Clarksburg, Maryland 20871","State":"Maryland","City":"Clarksburg","Street":"12600 Piedmont Road","Zip":"20871","Longitude":"-77.260997","Latitude":"39.2434310","Dates":null,"Products":""},{"Type":"on-farm market","ModifyDate":"Mar 19th, 2015","Image":"default-onfarmmarket-4-3.jpg","ListingID":"701127","Name":"Cabin Creek Heritage Farm","Description":null,"ContactName":"Amanda Hill Kauffmann","ContactEmail":"amanda@cabincreekheritagefarm.com","ContactPhone":"301-430-0170","Website":"www.cabincreekheritagefarm.com","Facebook":"www.facebook.com\/cabincreekheritagefarm","Twitter":"twitter.com   @PasturedFarmer","Instagram":null,"Pinterest":null,"Youtube":null,"Blog":null,"Address":"18235 Clagett Landing Road, Upper Marlboro, Maryland 20774","State":"Maryland","City":"Upper Marlboro","Street":"18235 Clagett Landing Road","Zip":"20774","Longitude":"-76.687062","Latitude":"38.873444","Dates":null,"Products":""},{"Type":"on-farm market","ModifyDate":"Mar 19th, 2015","Image":"default-onfarmmarket-4-3.jpg","ListingID":"701165","Name":"A. H. Herb'n Craft Farm","Description":null,"ContactName":"Fran Kisser","ContactEmail":"frankisser@gmail.com","ContactPhone":"4107259163","Website":null,"Facebook":null,"Twitter":null,"Instagram":null,"Pinterest":null,"Youtube":null,"Blog":null,"Address":"13433 Ocean Gateway (US Route 50), Wye Mills, Maryland 21679","State":"Maryland","City":"Wye Mills","Street":"13433 Ocean Gateway (US Route 50)","Zip":"21679","Longitude":"-76.062360","Latitude":"38.936137","Dates":null,"Products":""},{"Type":"on-farm market","ModifyDate":"Mar 20th, 2015","Image":"default-onfarmmarket-4-3.jpg","ListingID":"700980","Name":"Columbine Manor","Description":null,"ContactName":"Columbine Manor","ContactEmail":"columbinemanor@myactv.net","ContactPhone":"301-223-1156","Website":"cm-longhornbeef.com","Facebook":null,"Twitter":null,"Instagram":null,"Pinterest":null,"Youtube":null,"Blog":null,"Address":"16290 Spielman Road, Williamsport , Maryland 21795","State":"Maryland","City":"Williamsport","Street":"16290 Spielman Road","Zip":"21795","Longitude":"-77.808900","Latitude":"39.5638270","Dates":null,"Products":""},{"Type":"on-farm market","ModifyDate":"Mar 23rd, 2015","Image":"default-onfarmmarket-4-3.jpg","ListingID":"700299","Name":"Whitmore Farm","Description":null,"ContactName":"Will Morrow","ContactEmail":"info@whitmorefarm.com","ContactPhone":null,"Website":"www.whitmorefarm.com","Facebook":null,"Twitter":null,"Instagram":null,"Pinterest":null,"Youtube":null,"Blog":null,"Address":"10720 Dern Road, Emmitsburg, Maryland 21727","State":"Maryland","City":"Emmitsburg","Street":"10720 Dern Road","Zip":"21727","Longitude":"-77.291925","Latitude":"39.6551050","Dates":null,"Products":""},{"Type":"on-farm market","ModifyDate":"Mar 24th, 2015","Image":"default-onfarmmarket-4-3.jpg","ListingID":"700349","Name":"Gaver Farm, LLC","Description":null,"ContactName":"Lisa Gaver","ContactEmail":"GaverFarm@gmail.com","ContactPhone":"301-865-3515","Website":"www.gaverfarm.com","Facebook":"www.facebook.com\/gaverfarm","Twitter":null,"Instagram":null,"Pinterest":null,"Youtube":null,"Blog":null,"Address":"5501 Detrick Road, Mt. Airy, Maryland 21771","State":"Maryland","City":"Mt. Airy","Street":"5501 Detrick Road","Zip":"21771","Longitude":"-77.240356","Latitude":"39.382212","Dates":null,"Products":""},{"Type":"on-farm market","ModifyDate":"Mar 24th, 2015","Image":"default-onfarmmarket-4-3.jpg","ListingID":"701232","Name":"Hilton's Farm & Garden","Description":null,"ContactName":"Robert & Tarra Hilton","ContactEmail":"agttlp@aol.com","ContactPhone":"301-704-2418","Website":null,"Facebook":"www.facebook.com\/HiltonsFarmandGarden","Twitter":null,"Instagram":null,"Pinterest":null,"Youtube":null,"Blog":null,"Address":"24801 Burnt Hill Road, Clarksburg, Maryland 20871","State":"Maryland","City":"Clarksburg","Street":"24801 Burnt Hill Road","Zip":"20871","Longitude":"-77.257396","Latitude":"39.264681","Dates":null,"Products":""},{"Type":"on-farm market","ModifyDate":"Mar 25th, 2015","Image":"default-onfarmmarket-4-3.jpg","ListingID":"701147","Name":"Clark's Elioak Farm","Description":null,"ContactName":"Nora Crist","ContactEmail":"clarksbeef@gmail.com","ContactPhone":"410-440-5080","Website":"http:\/\/clarklandfarm.com\/","Facebook":"https:\/\/www.facebook.com\/ClarksProduce","Twitter":null,"Instagram":null,"Pinterest":null,"Youtube":null,"Blog":null,"Address":"10500 Clarksville Pike, Ellicott CIty, Maryland 21042","State":"Maryland","City":"Ellicott CIty","Street":"10500 Clarksville Pike","Zip":"21042","Longitude":"-76.876279","Latitude":"39.235883","Dates":null,"Products":""},{"Type":"on-farm market","ModifyDate":"Mar 26th, 2015","Image":"default-onfarmmarket-4-3.jpg","ListingID":"701049","Name":"Baugher's Orchard & Farm","Description":null,"ContactName":"Dottie Dunn","ContactEmail":"dottie@baughers.com","ContactPhone":"410-848-5541","Website":"www.baughers.com","Facebook":"baughers","Twitter":null,"Instagram":null,"Pinterest":null,"Youtube":null,"Blog":null,"Address":"1015 Baugher Road, Westminster, Maryland 21158","State":"Maryland","City":"Westminster","Street":"1015 Baugher Road","Zip":"21158","Longitude":"-77.050202","Latitude":"39.6020820","Dates":null,"Products":""},{"Type":"on-farm market","ModifyDate":"Mar 31st, 2015","Image":"default-onfarmmarket-4-3.jpg","ListingID":"700820","Name":"Accokeek Foundation - Ecosystem Farm Market","Description":null,"ContactName":"Holli Elliott","ContactEmail":"helliott@accokeek.org","ContactPhone":"301-283-2113","Website":"www.accokeekfoundation.org","Facebook":"www.facebook.com\/accokeekfoundation","Twitter":"twitter.com\/Accokeek","Instagram":null,"Pinterest":null,"Youtube":null,"Blog":null,"Address":"3400 Bryan Point Road, Accokeek, Maryland 20607","State":"Maryland","City":"Accokeek","Street":"3400 Bryan Point Road","Zip":"20607","Longitude":"-77.060180","Latitude":"38.691496","Dates":null,"Products":""},{"Type":"on-farm market","ModifyDate":"May 4th, 2016","Image":"default-onfarmmarket-4-3.jpg","ListingID":"701333","Name":"Butler's Orchard","Description":null,"ContactName":"Tyler Butler","ContactEmail":"info@BultersOrchard.com","ContactPhone":"3014280444","Website":"http:\/\/www.butlersorchard.com\/","Facebook":"https:\/\/www.facebook.com\/ButlersOrchard1","Twitter":"https:\/\/twitter.com\/ButlersOrchard","Instagram":null,"Pinterest":null,"Youtube":null,"Blog":null,"Address":"22222 Davis Mill Road, Germantown, Maryland 20876","State":"Maryland","City":"Germantown","Street":"22222 Davis Mill Road","Zip":"20876","Longitude":"-77.223226","Latitude":"39.221380","Dates":null,"Products":""},{"Type":"on-farm market","ModifyDate":"May 9th, 2015","Image":"default-onfarmmarket-4-3.jpg","ListingID":"700018","Name":"Thorne Farm","Description":null,"ContactName":"Greg Thorne","ContactEmail":"thornefarm@yahoo.com","ContactPhone":"443-386-0244","Website":"http:\/\/www.thornefarm.com","Facebook":"https:\/\/www.facebook.com\/thornefarm","Twitter":null,"Instagram":null,"Pinterest":null,"Youtube":null,"Blog":null,"Address":"1130 Martin Drive, Westminster, Maryland 21157","State":"Maryland","City":"Westminster","Street":"1130 Martin Drive","Zip":"21157","Longitude":"-76.956602","Latitude":"39.598136","Dates":null,"Products":""},{"Type":"on-farm market","ModifyDate":"Sep 16th, 2014","Image":"default-onfarmmarket-4-3.jpg","ListingID":"700245","Name":"Pop's Old Place","Description":null,"ContactName":"Darlene Goehringer","ContactEmail":"PopsOldPlace@gmail.com","ContactPhone":"410-924-1646","Website":"www.PopsOldPlace.com","Facebook":"Pop\\'s Old Place","Twitter":null,"Instagram":null,"Pinterest":null,"Youtube":null,"Blog":null,"Address":"4657 Skinners Run Road, Hurlock, Maryland 21643","State":"Maryland","City":"Hurlock","Street":"4657 Skinners Run Road","Zip":"21643","Longitude":"-75.857703","Latitude":"38.6853330","Dates":null,"Products":""},{"Type":"on-farm market","ModifyDate":"Sep 22nd, 2014","Image":"default-onfarmmarket-4-3.jpg","ListingID":"701091","Name":"Whitelock Community Farm","Description":null,"ContactName":"Alison Worman","ContactEmail":"farmer@whitelockfarm.org","ContactPhone":"4102056572","Website":"www.whitelockfarm.org","Facebook":null,"Twitter":null,"Instagram":null,"Pinterest":null,"Youtube":null,"Blog":null,"Address":"930 Whitelock Street, Baltimore, Maryland 21217","State":"Maryland","City":"Baltimore","Street":"930 Whitelock Street","Zip":"21217","Longitude":"-76.634006","Latitude":"39.314492","Dates":null,"Products":""},{"Type":"on-farm market","ModifyDate":"Sep 4th, 2021","Image":"default-onfarmmarket-4-3.jpg","ListingID":"701613","Name":"Quarter Acre Farm","Description":null,"ContactName":"Andrea Davis-Cetina","ContactEmail":"quarteracre.sonoma@gmail.com","ContactPhone":"4155333106","Website":"https:\/\/quarteracrefarmsonoma.com\/","Facebook":"https:\/\/www.facebook.com\/quarterAfarm","Twitter":null,"Instagram":null,"Pinterest":null,"Youtube":null,"Blog":null,"Address":"100 North Harrison Street, Easton, Maryland 21601","State":"Maryland","City":"Easton","Street":"100 North Harrison Street","Zip":"21601","Longitude":"-76.075492","Latitude":"38.776542","Dates":null,"Products":""}]