[{"Type":"on-farm market","ModifyDate":null,"Image":"default-onfarmmarket-4-3.jpg","ListingID":"701968","Name":"Albuna Plant Farm","Description":null,"ContactName":null,"ContactEmail":null,"ContactPhone":null,"Website":null,"Facebook":null,"Twitter":null,"Instagram":null,"Pinterest":null,"Youtube":null,"Blog":null,"Address":"343 E County Rd 16, Tiffin, OH 44883, USA","State":"Ohio","City":"Tiffin","Street":"343 East County Road 16","Zip":"44883","Longitude":"-83.164248","Latitude":"41.066714","Dates":null,"Products":""},{"Type":"on-farm market","ModifyDate":"Apr 21st, 2016","Image":"default-onfarmmarket-4-3.jpg","ListingID":"701329","Name":"From The Water's Edge","Description":null,"ContactName":"Carol Cunkle","ContactEmail":"cunkle.carol@gmail.com","ContactPhone":"330-670-0796","Website":null,"Facebook":null,"Twitter":null,"Instagram":null,"Pinterest":null,"Youtube":null,"Blog":null,"Address":"798 N. Medina Line Road, Granger Township, Ohio 44256","State":"Ohio","City":"Granger Township","Street":"798 N. Medina Line Road","Zip":"44256","Longitude":"-81.713905","Latitude":"41.162239","Dates":null,"Products":""},{"Type":"on-farm market","ModifyDate":"Apr 24th, 2019","Image":"default-onfarmmarket-4-3.jpg","ListingID":"701479","Name":"R Farm of Northwest Ohio, LLC","Description":null,"ContactName":"MELISSA RUPP","ContactEmail":"mrsmrupp@gmail.com","ContactPhone":"4195536366","Website":"www.rfarmnwo.com","Facebook":"facebook.com\/rfarmnwo","Twitter":null,"Instagram":null,"Pinterest":null,"Youtube":null,"Blog":null,"Address":"5561 CR 1950, Stryker, Ohio 43557","State":"Ohio","City":"Stryker","Street":"5561 CR 1950","Zip":"43557","Longitude":"-84.460299","Latitude":"41.493370","Dates":null,"Products":""},{"Type":"on-farm market","ModifyDate":"Apr 2nd, 2018","Image":"default-onfarmmarket-4-3.jpg","ListingID":"701446","Name":"Schaefers Farm Market","Description":null,"ContactName":"Elizabeth Schaefer","ContactEmail":"schaeferscsa@gmail.com","ContactPhone":"513-726-5307","Website":"www.schaefersfarmmarket.com","Facebook":"https:\/\/www.facebook.com\/SchaefersCSA\/","Twitter":null,"Instagram":null,"Pinterest":null,"Youtube":null,"Blog":null,"Address":"5024 Jacksonburg Road, Trenton, Ohio 45067","State":"Ohio","City":"Trenton","Street":"5024 Jacksonburg Road","Zip":"45067","Longitude":"-84.501404","Latitude":"39.514640","Dates":null,"Products":""},{"Type":"on-farm market","ModifyDate":"Aug 10th, 2014","Image":"default-onfarmmarket-4-3.jpg","ListingID":"700826","Name":"Thurmans' Farm Market","Description":null,"ContactName":"Randy Thurman","ContactEmail":"Randy.thurman7@gmail.com","ContactPhone":"4192602744","Website":"Thurmansfarmmarket.com","Facebook":"https:\/\/www.facebook.com\/pages\/Thurmans-Farm-Market\/133871850093087","Twitter":null,"Instagram":null,"Pinterest":null,"Youtube":null,"Blog":null,"Address":"22867 Kellogg Road, Grand Rapids, Ohio 43522","State":"Ohio","City":"Grand Rapids","Street":"22867 Kellogg Road","Zip":"43522","Longitude":"-83.842096","Latitude":"41.415294","Dates":null,"Products":""},{"Type":"on-farm market","ModifyDate":"Aug 12th, 2014","Image":"default-onfarmmarket-4-3.jpg","ListingID":"700184","Name":"Amalfi Gardens LLC","Description":null,"ContactName":"Alex Restaino","ContactEmail":"amalfigardens@gmail.com","ContactPhone":"330-554-8858","Website":null,"Facebook":"https:\/\/www.facebook.com\/AmalfiGardens","Twitter":null,"Instagram":null,"Pinterest":null,"Youtube":null,"Blog":null,"Address":"82nd & Kinsman rd., Cleveland, Ohio 44104","State":"Ohio","City":"Cleveland","Street":"82nd & Kinsman rd.","Zip":"44104","Longitude":"-81.630177","Latitude":"41.475637","Dates":null,"Products":""},{"Type":"on-farm market","ModifyDate":"Aug 13th, 2014","Image":"default-onfarmmarket-4-3.jpg","ListingID":"700141","Name":"Folsom & Pine Farm","Description":null,"ContactName":"Lori Fry","ContactEmail":"hello@folsomandpine.com","ContactPhone":"614-385-4080","Website":"www.folsomandpine.com","Facebook":"https:\/\/www.facebook.com\/folsomandpine","Twitter":"https:\/\/www.twitter.com\/FolsomPineFarm","Instagram":null,"Pinterest":null,"Youtube":null,"Blog":null,"Address":"5959 Lambert Road, Orient, Ohio 43146","State":"Ohio","City":"Orient","Street":"5959 Lambert Road","Zip":"43146","Longitude":"-83.162686","Latitude":"39.844156","Dates":null,"Products":""},{"Type":"on-farm market","ModifyDate":"Aug 13th, 2014","Image":"default-onfarmmarket-4-3.jpg","ListingID":"700208","Name":"Tim's Turkey's\/Stein Farm LLC.","Description":null,"ContactName":"Timothy Stein","ContactEmail":"timstein1@outlook.com","ContactPhone":"330-606-3799","Website":"www.timsturkeys.com","Facebook":null,"Twitter":null,"Instagram":null,"Pinterest":null,"Youtube":null,"Blog":null,"Address":"3600 Allard rd., Medina, Ohio 44256","State":"Ohio","City":"Medina","Street":"3600 Allard rd.","Zip":"44256","Longitude":"-81.695708","Latitude":"41.1779940","Dates":null,"Products":""},{"Type":"on-farm market","ModifyDate":"Aug 13th, 2014","Image":"default-onfarmmarket-4-3.jpg","ListingID":"700486","Name":"Zim's Raspberry Patch","Description":null,"ContactName":"Susan Zimmerman","ContactEmail":"dtzimm@frontier.com","ContactPhone":"740-544-6012","Website":null,"Facebook":"Susan Gates Zimmerman","Twitter":null,"Instagram":null,"Pinterest":null,"Youtube":null,"Blog":null,"Address":"17125 State Route 152, Toronto, Ohio 43964","State":"Ohio","City":"Toronto","Street":"17125 State Route 152","Zip":"43964","Longitude":"-80.657942","Latitude":"40.504650","Dates":null,"Products":""},{"Type":"on-farm market","ModifyDate":"Aug 13th, 2014","Image":"default-onfarmmarket-4-3.jpg","ListingID":"700743","Name":"Carlton Farm Produce","Description":null,"ContactName":"Phil Carlton","ContactEmail":"info@carltonfarmproduce.com","ContactPhone":"330-274-2387","Website":"www.carltonfarmproduce.com","Facebook":"https:\/\/www.facebook.com\/CarltonFarmProduce","Twitter":"https:\/\/www.twitter.com\/carltonfarmprod","Instagram":null,"Pinterest":null,"Youtube":null,"Blog":null,"Address":"3486 Pioneer Tr., Mantua, Ohio 44255","State":"Ohio","City":"Mantua","Street":"3486 Pioneer Tr.","Zip":"44255","Longitude":"-81.267049","Latitude":"41.292584","Dates":null,"Products":""},{"Type":"on-farm market","ModifyDate":"Aug 13th, 2014","Image":"default-onfarmmarket-4-3.jpg","ListingID":"700777","Name":"The Gold Family Farm","Description":null,"ContactName":"Julie Garner","ContactEmail":"goldfarm1937@gmail.com","ContactPhone":"740-517-5012","Website":null,"Facebook":"https:\/\/www.facebook.com\/pages\/The-Gold-Family-Farm\/210127155664647","Twitter":null,"Instagram":null,"Pinterest":null,"Youtube":null,"Blog":null,"Address":"4799 Fisher Road, Athens, Ohio 45701","State":"Ohio","City":"Athens","Street":"4799 Fisher Road","Zip":"45701","Longitude":"-82.143053","Latitude":"39.268587","Dates":null,"Products":""},{"Type":"on-farm market","ModifyDate":"Aug 16th, 2017","Image":"default-onfarmmarket-4-3.jpg","ListingID":"701424","Name":"Weymouth Farms & Orchard, Winery","Description":null,"ContactName":"Paul O\\'Neill","ContactEmail":"paulxoneill@gmail.com","ContactPhone":"2165349600","Website":"www.weymouthfarms.com","Facebook":"https:\/\/www.facebook.com\/weymouthfarms\/","Twitter":null,"Instagram":null,"Pinterest":null,"Youtube":null,"Blog":null,"Address":"2398 Weymouth Road, Hinckley, Ohio 44233","State":"Ohio","City":"Hinckley","Street":"2398 Weymouth Road","Zip":"44233","Longitude":"-81.759425","Latitude":"41.211152","Dates":null,"Products":""},{"Type":"on-farm market","ModifyDate":"Aug 19th, 2014","Image":"default-onfarmmarket-4-3.jpg","ListingID":"700848","Name":"White House Fruit  Farm","Description":null,"ContactName":"White House Fruit Farm","ContactEmail":"whitehousefruitfarm@gmail.com","ContactPhone":"330-533-4161","Website":"www.whitehousefruitfarm.com","Facebook":"https:\/\/www.facebook.com\/whitehousefruitfarm","Twitter":null,"Instagram":null,"Pinterest":null,"Youtube":null,"Blog":null,"Address":"9249 Youngstown Salem Rd, Canfield, Ohio 44406","State":"Ohio","City":"Canfield","Street":"9249 Youngstown Salem Rd","Zip":"44406","Longitude":"-80.806746","Latitude":"40.9841580","Dates":null,"Products":""},{"Type":"on-farm market","ModifyDate":"Aug 20th, 2014","Image":"default-onfarmmarket-4-3.jpg","ListingID":"700850","Name":"Lawrence Orchards","Description":null,"ContactName":"Lawrence Orchards","ContactEmail":"george@lawrenceorchards.com","ContactPhone":"740-389-3019","Website":"www.lawrenceorchards.com","Facebook":"https:\/\/www.facebook.com\/LawrenceOrchards?ref=hl","Twitter":null,"Instagram":null,"Pinterest":null,"Youtube":null,"Blog":null,"Address":"2634 Smeltzer Rd, Marion, Ohio 43302","State":"Ohio","City":"Marion","Street":"2634 Smeltzer Rd","Zip":"43302","Longitude":"-83.136091","Latitude":"40.537152","Dates":null,"Products":""},{"Type":"on-farm market","ModifyDate":"Aug 20th, 2014","Image":"default-onfarmmarket-4-3.jpg","ListingID":"700853","Name":"BaaLiss Grass Farm","Description":null,"ContactName":"Deborah Mattix","ContactEmail":"dsm203@hotmail.com","ContactPhone":"419-768-3050","Website":"","Facebook":"www.facebook.com\/baalissgrass.farm","Twitter":null,"Instagram":null,"Pinterest":null,"Youtube":null,"Blog":null,"Address":"7285 County Road 183, Fredericktown, Ohio 43019","State":"Ohio","City":"Fredericktown","Street":"7285 County Road 183","Zip":"43019","Longitude":"-82.672361","Latitude":"40.432817","Dates":null,"Products":""},{"Type":"on-farm market","ModifyDate":"Aug 21st, 2014","Image":"default-onfarmmarket-4-3.jpg","ListingID":"700857","Name":"Hembree Hollow Farm","Description":null,"ContactName":null,"ContactEmail":null,"ContactPhone":null,"Website":null,"Facebook":null,"Twitter":null,"Instagram":null,"Pinterest":null,"Youtube":null,"Blog":null,"Address":"14811 Wollett Rd., Nelsonville, Ohio 45764","State":"Ohio","City":"Nelsonville","Street":"14811 Wollett Rd.","Zip":"45764","Longitude":"-82.276488","Latitude":"39.423439","Dates":null,"Products":""},{"Type":"on-farm market","ModifyDate":"Aug 21st, 2014","Image":"default-onfarmmarket-4-3.jpg","ListingID":"700858","Name":"Davidson Produce & Cattle Farm Llc","Description":null,"ContactName":"Rodney Davidson","ContactEmail":"davidsonpcf@davidsonproduceandcattlefarm.com","ContactPhone":"740-349-2782","Website":"www.davidsonproduceandcattlefarm.com","Facebook":null,"Twitter":null,"Instagram":null,"Pinterest":null,"Youtube":null,"Blog":null,"Address":"3033 Dayton Rd NE, Newark, Ohio 43055","State":"Ohio","City":"Newark","Street":"3033 Dayton Rd NE","Zip":"43055","Longitude":"-82.355769","Latitude":"40.092689","Dates":null,"Products":""},{"Type":"on-farm market","ModifyDate":"Aug 21st, 2014","Image":"default-onfarmmarket-4-3.jpg","ListingID":"700868","Name":"Lobdell Family Farm","Description":null,"ContactName":"Marietta Lobdell","ContactEmail":"lobdellfamilyfarm@yahoo.com","ContactPhone":"216-288-0851","Website":null,"Facebook":null,"Twitter":null,"Instagram":null,"Pinterest":null,"Youtube":null,"Blog":null,"Address":"6179 Newton Falls Rd., Ravenna, Ohio 44266","State":"Ohio","City":"Ravenna","Street":"6179 Newton Falls Rd.","Zip":"44266","Longitude":"-81.170132","Latitude":"41.163216","Dates":null,"Products":""},{"Type":"on-farm market","ModifyDate":"Aug 22nd, 2014","Image":"default-onfarmmarket-4-3.jpg","ListingID":"700886","Name":"Louden Family Orchard","Description":null,"ContactName":"Philip Louden","ContactEmail":"orchard@ctcn.net","ContactPhone":"9376534558","Website":null,"Facebook":null,"Twitter":null,"Instagram":null,"Pinterest":null,"Youtube":null,"Blog":null,"Address":"576 North State Route 560, Urbana, Ohio 43078","State":"Ohio","City":"Urbana","Street":"576 North State Route 560","Zip":"43078","Longitude":"-83.838212","Latitude":"40.119300","Dates":null,"Products":""},{"Type":"on-farm market","ModifyDate":"Aug 24th, 2014","Image":"default-onfarmmarket-4-3.jpg","ListingID":"700910","Name":"Brookside Farm","Description":null,"ContactName":"Alfred Coe","ContactEmail":"coebere@aol.com","ContactPhone":"937-372-2531","Website":null,"Facebook":"Brookside Farm","Twitter":null,"Instagram":null,"Pinterest":null,"Youtube":null,"Blog":null,"Address":"2626 Hussey Rd., Xenia, Ohio 45385","State":"Ohio","City":"Xenia","Street":"2626 Hussey Rd.","Zip":"45385","Longitude":"-83.942201","Latitude":"39.6834","Dates":null,"Products":""},{"Type":"on-farm market","ModifyDate":"Aug 24th, 2014","Image":"default-onfarmmarket-4-3.jpg","ListingID":"700912","Name":"Messuri Family Farm LLC","Description":null,"ContactName":"Michael Messuri","ContactEmail":"michael@messurifamilyfarm.com","ContactPhone":"9376681441","Website":"http:\/\/www.messurifamilyfarm.com","Facebook":"https:\/\/www.facebook.com\/pages\/Messuri-Family-Farm\/262765327140695?ref=hl","Twitter":"https:\/\/twitter.com\/MessuriFmlyFarm","Instagram":null,"Pinterest":null,"Youtube":null,"Blog":null,"Address":"260 Baker Road, Clarksville, Ohio 45113","State":"Ohio","City":"Clarksville","Street":"260 Baker Road","Zip":"45113","Longitude":"-83.940476","Latitude":"39.3764880","Dates":null,"Products":""},{"Type":"on-farm market","ModifyDate":"Aug 25th, 2014","Image":"default-onfarmmarket-4-3.jpg","ListingID":"700922","Name":"Turner Farm Inc.","Description":null,"ContactName":"Turner Farm Inc.","ContactEmail":"turnerfarm@zoomtown.com","ContactPhone":"513 561 7400","Website":"http:\/\/www.turnerfarm.org\/","Facebook":"https:\/\/www.facebook.com\/pages\/Turner-Farm\/455826481129640","Twitter":null,"Instagram":null,"Pinterest":null,"Youtube":null,"Blog":null,"Address":"7400 Given Road, Cincinnati , Ohio 45243","State":"Ohio","City":"Cincinnati","Street":"7400 Given Road","Zip":"45243","Longitude":"-84.320358","Latitude":"39.190080","Dates":null,"Products":""},{"Type":"on-farm market","ModifyDate":"Aug 25th, 2014","Image":"default-onfarmmarket-4-3.jpg","ListingID":"700928","Name":"Breezy Hill Farm","Description":null,"ContactName":"Mindy Bartholomae","ContactEmail":"mindy.breezyhillfarm@gmail.com","ContactPhone":"2164073822","Website":"www.breezyhillfarmohio.com","Facebook":"https:\/\/www.facebook.com\/pages\/Breezy-Hill-Farm-Homeworth-Ohio\/184191254939126","Twitter":null,"Instagram":null,"Pinterest":null,"Youtube":null,"Blog":null,"Address":"23342 Bowman Rd., Homeworth, Ohio 44634","State":"Ohio","City":"Homeworth","Street":"23342 Bowman Rd.","Zip":"44634","Longitude":"-81.061620","Latitude":"40.8431293","Dates":null,"Products":""},{"Type":"on-farm market","ModifyDate":"Aug 28th, 2014","Image":"default-onfarmmarket-4-3.jpg","ListingID":"700677","Name":"Malabar Peach Orchard","Description":null,"ContactName":null,"ContactEmail":"malabaracres@hotmail.com","ContactPhone":null,"Website":"ohiopeaches.com","Facebook":null,"Twitter":null,"Instagram":null,"Pinterest":null,"Youtube":null,"Blog":null,"Address":"P.O. Box 7, Jeromesville, Ohio 44840","State":"Ohio","City":"Jeromesville","Street":"P.O. Box 7","Zip":"44840","Longitude":"-82.155647","Latitude":"40.821676","Dates":null,"Products":""},{"Type":"on-farm market","ModifyDate":"Aug 29th, 2014","Image":"default-onfarmmarket-4-3.jpg","ListingID":"700983","Name":"Out on  a Limb Farm","Description":null,"ContactName":"Andrea Gillis","ContactEmail":"agillis2010@yahoo.com","ContactPhone":"330-205-6752","Website":null,"Facebook":null,"Twitter":null,"Instagram":null,"Pinterest":null,"Youtube":null,"Blog":null,"Address":"8913 Mapleton St SE, East Canton, Ohio 44730","State":"Ohio","City":"East Canton","Street":"8913 Mapleton St SE","Zip":"44730","Longitude":"-81.236584","Latitude":"40.751443","Dates":null,"Products":""},{"Type":"on-farm market","ModifyDate":"Aug 6th, 2020","Image":"default-onfarmmarket-4-3.jpg","ListingID":"701546","Name":"Arrowhead Orchard LLC","Description":null,"ContactName":"Joyce, Angie","ContactEmail":"info@arrowheadorchard.com","ContactPhone":"3308622733","Website":"https:\/\/www.arrowheadorchard.com\/","Facebook":"https:\/\/www.facebook.com\/ArrowheadOrchard\/","Twitter":null,"Instagram":null,"Pinterest":null,"Youtube":null,"Blog":null,"Address":"11724 Lisbon St SE, Paris , Ohio 44669","State":"Ohio","City":"Paris","Street":"11724 Lisbon St SE","Zip":"44669","Longitude":"-81.182497","Latitude":"40.799762","Dates":null,"Products":""},{"Type":"on-farm market","ModifyDate":"Aug 7th, 2017","Image":"default-onfarmmarket-4-3.jpg","ListingID":"701421","Name":"Family Roots Farm","Description":null,"ContactName":"Jennifer Sharpnack","ContactEmail":"Familyrootsfarm@yahoo.com","ContactPhone":"330-329-2880","Website":"www.familyrootsfarm.com","Facebook":"RodSharpnack.FamilyRootsFarm","Twitter":null,"Instagram":null,"Pinterest":null,"Youtube":null,"Blog":null,"Address":"2175 W. 130th Street, Hinckley , Ohio 44233","State":"Ohio","City":"Hinckley","Street":"2175 W. 130th Street","Zip":"44233","Longitude":"-81.784668","Latitude":"41.216353","Dates":null,"Products":""},{"Type":"on-farm market","ModifyDate":"Dec 4th, 2014","Image":"default-onfarmmarket-4-3.jpg","ListingID":"701179","Name":"4R Angus Farm","Description":null,"ContactName":"Debbie Rardin","ContactEmail":"mom3941@yahoo.com","ContactPhone":"740-398-8621","Website":"4RAngusFarm.weebly.com","Facebook":"4R Angus Farm","Twitter":null,"Instagram":null,"Pinterest":null,"Youtube":null,"Blog":null,"Address":"8259 Keys Road, Mount Vernon, Ohio 43050","State":"Ohio","City":"Mount Vernon","Street":"8259 Keys Road","Zip":"43050","Longitude":"-82.562010","Latitude":"40.3586810","Dates":null,"Products":""},{"Type":"on-farm market","ModifyDate":"Feb 15th, 2015","Image":"default-onfarmmarket-4-3.jpg","ListingID":"700004","Name":"Wishwell Farms","Description":null,"ContactName":"Jason Wish","ContactEmail":"info@wishwellfarms.com","ContactPhone":"937-592-2173","Website":"wishwellfarms.com","Facebook":"https:\/\/www.facebook.com\/WishwellFarms","Twitter":"twitter.com\/wishwellfarms","Instagram":null,"Pinterest":null,"Youtube":null,"Blog":"www.wishwellfarms.com\/blog","Address":"3381 US 68 N, BELLEFONTAINE, Ohio 43311","State":"Ohio","City":"BELLEFONTAINE","Street":"3381 US 68 N","Zip":"43311","Longitude":"-83.745878","Latitude":"40.409166","Dates":null,"Products":""},{"Type":"on-farm market","ModifyDate":"Feb 21st, 2018","Image":"default-onfarmmarket-4-3.jpg","ListingID":"701443","Name":"Double 8 Cattle Company","Description":null,"ContactName":"Jeremy Freer","ContactEmail":"jfreer@double8cattle.com","ContactPhone":"7405078775","Website":"www.double8cattle.com","Facebook":"https:\/\/www.facebook.com\/double8cattle\/","Twitter":null,"Instagram":null,"Pinterest":null,"Youtube":null,"Blog":null,"Address":"11275 Lovers Lane, Mount Vernon, Ohio 43050","State":"Ohio","City":"Mount Vernon","Street":"11275 Lovers Lane","Zip":"43050","Longitude":"-82.531854","Latitude":"40.402862","Dates":null,"Products":""},{"Type":"on-farm market","ModifyDate":"Jan 16th, 2017","Image":"default-onfarmmarket-4-3.jpg","ListingID":"700186","Name":"Adams Greenhouse & Produce LLC","Description":null,"ContactName":"Kenny Adams","ContactEmail":"kenny@adamsgreenhouse.com","ContactPhone":"937-416-5533","Website":"www.adamsgreenhouse.com","Facebook":"https:\/\/www.facebook.com\/adamsgreenhouse","Twitter":null,"Instagram":null,"Pinterest":null,"Youtube":null,"Blog":null,"Address":"6373 W. US RT 36, Covington, Ohio 45318","State":"Ohio","City":"Covington","Street":"6373 W. US RT 36","Zip":"45318","Longitude":"-84.324411","Latitude":"40.127688","Dates":null,"Products":""},{"Type":"on-farm market","ModifyDate":"Jan 2nd, 2015","Image":"default-onfarmmarket-4-3.jpg","ListingID":"700193","Name":"Way Farms","Description":null,"ContactName":"Cameron Way","ContactEmail":"wayfarms@yahoo.com","ContactPhone":"740-222-0179","Website":"www.way-farms.com","Facebook":"www.facebook.com\/wayfarm","Twitter":null,"Instagram":null,"Pinterest":null,"Youtube":null,"Blog":null,"Address":"13 Denver Road, Waverly, Ohio 45690","State":"Ohio","City":"Waverly","Street":"13 Denver Road","Zip":"45690","Longitude":"-82.982336","Latitude":"39.138281","Dates":null,"Products":""},{"Type":"on-farm market","ModifyDate":"Jan 5th, 2017","Image":"default-onfarmmarket-4-3.jpg","ListingID":"701382","Name":"W Bench Farms, LLC","Description":null,"ContactName":"Shawn Woods","ContactEmail":"wbenchfarms@gmail.com","ContactPhone":"325-721-9968","Website":"www.wbenchfarms.com","Facebook":"https:\/\/www.facebook.com\/W-Bench-Farms-LLC-262282387063\/","Twitter":null,"Instagram":null,"Pinterest":null,"Youtube":null,"Blog":null,"Address":"14950 State Route 45, Lisbon, Ohio 44432","State":"Ohio","City":"Lisbon","Street":"14950 State Route 45","Zip":"44432","Longitude":"-80.698246","Latitude":"40.685548","Dates":null,"Products":""},{"Type":"on-farm market","ModifyDate":"Jul 16th, 2016","Image":"default-onfarmmarket-4-3.jpg","ListingID":"701360","Name":"Goodell Family Farm","Description":null,"ContactName":"Nathan Goodell","ContactEmail":"maple@goodellfamilyfarm.com","ContactPhone":"330-322-3725","Website":"www.goodellfamilyfarm.com","Facebook":"https:\/\/facebook.com\/goodellfamilyfarm","Twitter":null,"Instagram":null,"Pinterest":null,"Youtube":null,"Blog":null,"Address":"10220 Peck Rd, Mantua, Ohio 44255","State":"Ohio","City":"Mantua","Street":"10220 Peck Rd","Zip":"44255","Longitude":"-81.208733","Latitude":"41.2694840","Dates":null,"Products":""},{"Type":"on-farm market","ModifyDate":"Jul 25th, 2018","Image":"default-onfarmmarket-4-3.jpg","ListingID":"701458","Name":"The Stem Shire","Description":null,"ContactName":"Terrie Godfrey","ContactEmail":"Terrie@stemshire.com","ContactPhone":"4195541069","Website":"Www.stemshire.com","Facebook":"The stemshire","Twitter":null,"Instagram":null,"Pinterest":null,"Youtube":null,"Blog":null,"Address":"10915 Main Road, Berlin Heights, Ohio 44814","State":"Ohio","City":"Berlin Heights","Street":"10915 Main Road","Zip":"44814","Longitude":"-82.427689","Latitude":"41.3286520","Dates":null,"Products":""},{"Type":"on-farm market","ModifyDate":"Jul 26th, 2014","Image":"default-onfarmmarket-4-3.jpg","ListingID":"700045","Name":"Root Down Acres, LLC","Description":null,"ContactName":"Missy Kroninger","ContactEmail":"info@rootdownacres.com","ContactPhone":"937-505-0732","Website":"www.RootDownAcres.com","Facebook":"https:\/\/www.facebook.com\/rootdownacres","Twitter":"https:\/\/www.twitter.com\/rootdownacres","Instagram":null,"Pinterest":null,"Youtube":null,"Blog":"http:\/\/www.rootdownacres.com\/farm-blog\/","Address":"3336 Columbus Rd., Springfield, Ohio 45503","State":"Ohio","City":"Springfield","Street":"3336 Columbus Rd.","Zip":"45503","Longitude":"-83.748269","Latitude":"39.939077","Dates":null,"Products":""},{"Type":"on-farm market","ModifyDate":"Jul 26th, 2014","Image":"default-onfarmmarket-4-3.jpg","ListingID":"700190","Name":"Marian Kay Berry Farm","Description":null,"ContactName":"Marian Buchanan","ContactEmail":"mkberryfarm@gmail.com","ContactPhone":"440-822-5257","Website":"https:\/\/www.mkberryfarm.com","Facebook":"https:\/\/www.facebook.com\/MarianKayBerryFarm","Twitter":null,"Instagram":null,"Pinterest":null,"Youtube":null,"Blog":null,"Address":"8876 Congress Rd Lodi, OH 44254, Lodi, Ohio 44254","State":"Ohio","City":"Lodi","Street":"8876 Congress Rd Lodi, OH 44254","Zip":"44254","Longitude":"-82.054524","Latitude":"41.028575","Dates":null,"Products":""},{"Type":"on-farm market","ModifyDate":"Jul 26th, 2014","Image":"default-onfarmmarket-4-3.jpg","ListingID":"700231","Name":"Ridgeview Farm","Description":null,"ContactName":"Sharon Grover","ContactEmail":"sharon@ridgeviewfarm.com","ContactPhone":"440-693-4000","Website":"www.ridgeviewfarm.com","Facebook":"https:\/\/www.facebook.com\/pages\/Ridgeview-Farm-and-Tours\/118515271492395","Twitter":null,"Instagram":null,"Pinterest":null,"Youtube":null,"Blog":null,"Address":"5488 Kinsman Rd (SR 87), Middlefield, Ohio 44062","State":"Ohio","City":"Middlefield","Street":"5488 Kinsman Rd (SR 87)","Zip":"44062","Longitude":"-80.995559","Latitude":"41.458943","Dates":null,"Products":""},{"Type":"on-farm market","ModifyDate":"Jul 26th, 2014","Image":"default-onfarmmarket-4-3.jpg","ListingID":"700384","Name":"Voytko Berry Farm","Description":null,"ContactName":"charles voytko","ContactEmail":"chuck@voytkofarms.com","ContactPhone":"440-543-8586","Website":"voytkofarms.com","Facebook":null,"Twitter":null,"Instagram":null,"Pinterest":null,"Youtube":null,"Blog":null,"Address":"11391 Franks Rd, Auburn Twp, Ohio 44023","State":"Ohio","City":"Auburn Twp","Street":"11391 Franks Rd","Zip":"44023","Longitude":"-81.231662","Latitude":"41.421487","Dates":null,"Products":""},{"Type":"on-farm market","ModifyDate":"Jul 26th, 2014","Image":"default-onfarmmarket-4-3.jpg","ListingID":"700442","Name":"Vest Berries and Produce","Description":null,"ContactName":"Richard Vest","ContactEmail":"vestberries@yahoo.com","ContactPhone":"740-541-1169","Website":"www.vestberries.com","Facebook":"https:\/\/www.facebook.com\/pages\/Vest-Berries\/162080763828140","Twitter":null,"Instagram":null,"Pinterest":null,"Youtube":null,"Blog":null,"Address":"18170 Mush Run Road, Stewart, Ohio 45778","State":"Ohio","City":"Stewart","Street":"18170 Mush Run Road","Zip":"45778","Longitude":"-81.947508","Latitude":"39.3380933","Dates":null,"Products":""},{"Type":"on-farm market","ModifyDate":"Jul 26th, 2014","Image":"default-onfarmmarket-4-3.jpg","ListingID":"700462","Name":"Greener Pasture Farm","Description":null,"ContactName":"Darcy Klier","ContactEmail":"thekliers@ncwcom.com","ContactPhone":"440-6474402","Website":null,"Facebook":"Greener Pasture Farm","Twitter":null,"Instagram":null,"Pinterest":null,"Youtube":null,"Blog":null,"Address":"18456 Pitts Rd, Wellington, Ohio 44090","State":"Ohio","City":"Wellington","Street":"18456 Pitts Rd","Zip":"44090","Longitude":"-82.241906","Latitude":"41.2160269","Dates":null,"Products":""},{"Type":"on-farm market","ModifyDate":"Jul 26th, 2014","Image":"default-onfarmmarket-4-3.jpg","ListingID":"700524","Name":"Heavenly Hill Farm","Description":null,"ContactName":"Cindy Ellis","ContactEmail":"cellis2928@gmail.com","ContactPhone":"440-237-8708","Website":null,"Facebook":null,"Twitter":null,"Instagram":null,"Pinterest":null,"Youtube":null,"Blog":null,"Address":"18375 State Rd, North Royalton, Ohio 44133","State":"Ohio","City":"North Royalton","Street":"18375 State Rd","Zip":"44133","Longitude":"-81.716075","Latitude":"41.2879379","Dates":null,"Products":""},{"Type":"on-farm market","ModifyDate":"Jul 27th, 2014","Image":"default-onfarmmarket-4-3.jpg","ListingID":"700005","Name":"Wild Hare Natural Farm","Description":null,"ContactName":"Billie Setzekorn","ContactEmail":"info@whnf.biz","ContactPhone":"937-776-2493","Website":"www.whnf.biz","Facebook":"https:\/\/www.facebook.com\/WildHareNaturalFarm","Twitter":null,"Instagram":null,"Pinterest":null,"Youtube":null,"Blog":null,"Address":"110 E. Yellow Springs Fairfield Rd., Yellow Springs, Ohio 45387","State":"Ohio","City":"Yellow Springs","Street":"110 E. Yellow Springs Fairfield Rd.","Zip":"45387","Longitude":"-83.919405","Latitude":"39.8137320","Dates":null,"Products":""},{"Type":"on-farm market","ModifyDate":"Jul 28th, 2014","Image":"default-onfarmmarket-4-3.jpg","ListingID":"700060","Name":"Polecat Pines Mushroom Farm, LLC","Description":null,"ContactName":"Ricky Bruckner","ContactEmail":"polecatpines@windstream.net","ContactPhone":"330-221-6621","Website":"www.polecatpines.com","Facebook":"https:\/\/www.facebook.com\/PolecatPinesMushroomFarm","Twitter":null,"Instagram":null,"Pinterest":null,"Youtube":null,"Blog":null,"Address":"6167 Winchell Rd., Hiram, Ohio 44234","State":"Ohio","City":"Hiram","Street":"6167 Winchell Rd.","Zip":"44234","Longitude":"-81.169391","Latitude":"41.343496","Dates":null,"Products":""},{"Type":"on-farm market","ModifyDate":"Jul 28th, 2014","Image":"default-onfarmmarket-4-3.jpg","ListingID":"700120","Name":"Jaybird Farms","Description":null,"ContactName":"Vivian Pfankuch","ContactEmail":"vivian@jaybirdfarms.com","ContactPhone":"937-442-4800","Website":"www.jaybirdfarms.com","Facebook":"https:\/\/www.facebook.com\/JaybirdFarms","Twitter":null,"Instagram":null,"Pinterest":null,"Youtube":null,"Blog":null,"Address":"2091 State Route 321, Sardinia , Ohio 45171","State":"Ohio","City":"Sardinia","Street":"2091 State Route 321","Zip":"45171","Longitude":"-83.792210","Latitude":"39.062666","Dates":null,"Products":""},{"Type":"on-farm market","ModifyDate":"Jul 28th, 2014","Image":"default-onfarmmarket-4-3.jpg","ListingID":"700689","Name":"Meiring Farm","Description":null,"ContactName":"Meiring Farm","ContactEmail":"Leanne.meiring@gmail.com","ContactPhone":"419-877-5802","Website":null,"Facebook":null,"Twitter":null,"Instagram":null,"Pinterest":null,"Youtube":null,"Blog":null,"Address":"11610 Waterville-swanton, Whitehouse, Ohio 43571","State":"Ohio","City":"Whitehouse","Street":"11610 Waterville-swanton","Zip":"43571","Longitude":"-83.820351","Latitude":"41.526752","Dates":null,"Products":""},{"Type":"on-farm market","ModifyDate":"Jul 29th, 2014","Image":"default-onfarmmarket-4-3.jpg","ListingID":"700617","Name":"Northridge Blueberries LLC","Description":null,"ContactName":"Julie Richards","ContactEmail":"northridgeblueberries@gmail.com","ContactPhone":"330-592-6574","Website":"www.northridgeblueberries.com","Facebook":"https:\/\/facebook.com\/NorthridgeBlueberries","Twitter":null,"Instagram":null,"Pinterest":null,"Youtube":null,"Blog":null,"Address":"497 West Main Road, Conneaut, Ohio 44030","State":"Ohio","City":"Conneaut","Street":"497 West Main Road","Zip":"44030","Longitude":"-80.613060","Latitude":"41.927312","Dates":null,"Products":""},{"Type":"on-farm market","ModifyDate":"Jul 29th, 2014","Image":"default-onfarmmarket-4-3.jpg","ListingID":"700753","Name":"Hirsch Fruit Farm","Description":null,"ContactName":"Steve Hirsch","ContactEmail":"hirschfruit@horizonview.net","ContactPhone":"740-775-7055","Website":"www.hirschfruitfarm.com","Facebook":"https:\/\/www.facebook.com\/hirschfruitfarm","Twitter":null,"Instagram":null,"Pinterest":null,"Youtube":null,"Blog":null,"Address":"12846 State Route 772, Chillicothe, Ohio 45601","State":"Ohio","City":"Chillicothe","Street":"12846 State Route 772","Zip":"45601","Longitude":"-83.013285","Latitude":"39.301476","Dates":null,"Products":""},{"Type":"on-farm market","ModifyDate":"Jul 30th, 2014","Image":"default-onfarmmarket-4-3.jpg","ListingID":"700123","Name":"Honeyrun Farm","Description":null,"ContactName":"Isaac and Jayne Barnes","ContactEmail":"info@honeyrunfarm.com","ContactPhone":null,"Website":"www.honeyrunfarm.com","Facebook":"https:\/\/www.facebook.com\/honeyrunfarm","Twitter":null,"Instagram":null,"Pinterest":null,"Youtube":null,"Blog":"www.honeyrunfarm.blogspot.com","Address":"9642 Randle Road, Williamsport, Ohio 43164","State":"Ohio","City":"Williamsport","Street":"9642 Randle Road","Zip":"43164","Longitude":"-83.129594","Latitude":"39.6525000","Dates":null,"Products":""},{"Type":"on-farm market","ModifyDate":"Jul 30th, 2014","Image":"default-onfarmmarket-4-3.jpg","ListingID":"700183","Name":"Angry Hippie Farms, LLC","Description":null,"ContactName":"Robert Dorsten","ContactEmail":"info@angryhippiefarms.com","ContactPhone":"937-506-0487","Website":"http:\/\/www.angryhippiefarms.com","Facebook":"https:\/\/www.facebook.com\/AngryHippieFarms","Twitter":null,"Instagram":null,"Pinterest":null,"Youtube":null,"Blog":null,"Address":"6615 Peters Rd, Tipp City, Ohio 45371","State":"Ohio","City":"Tipp City","Street":"6615 Peters Rd","Zip":"45371","Longitude":"-84.225463","Latitude":"39.94265","Dates":null,"Products":""},{"Type":"on-farm market","ModifyDate":"Jul 31st, 2014","Image":"default-onfarmmarket-4-3.jpg","ListingID":"700610","Name":"The Orchard & Company, LLC","Description":null,"ContactName":"Kacie Winn-Skelley","ContactEmail":"orchardandcompany@yahoo.com","ContactPhone":"614-873-0510","Website":"www.theorchardandcompany.com","Facebook":null,"Twitter":null,"Instagram":null,"Pinterest":null,"Youtube":null,"Blog":null,"Address":"7255 US highway 42 , Plain City, Ohio 43064","State":"Ohio","City":"Plain City","Street":"7255 US highway 42","Zip":"43064","Longitude":"-83.295379","Latitude":"40.047682","Dates":null,"Products":""},{"Type":"on-farm market","ModifyDate":"Jul 6th, 2017","Image":"default-onfarmmarket-4-3.jpg","ListingID":"700838","Name":"Boulder Belt Eco-Farm","Description":null,"ContactName":"Lucy Owsley","ContactEmail":"boulderbelt@embarqmail.com","ContactPhone":"9374569724","Website":"http:\/\/www.boulderbelt.com","Facebook":"https:\/\/www.facebook.com\/boulderbeltfarm","Twitter":null,"Instagram":null,"Pinterest":null,"Youtube":null,"Blog":null,"Address":"3257 US 127 N, Eaton , Ohio 45320","State":"Ohio","City":"Eaton","Street":"3257 US 127 N","Zip":"45320","Longitude":"-84.631422","Latitude":"39.791734","Dates":null,"Products":""},{"Type":"on-farm market","ModifyDate":"Jun 12th, 2015","Image":"default-onfarmmarket-4-3.jpg","ListingID":"701270","Name":"Blueberry Valley","Description":null,"ContactName":"Daniel Huggett","ContactEmail":"blueberry-valley@columbusblueberry.com","ContactPhone":"7409838873","Website":"www.columbusblueberry.com","Facebook":"Blueberry Valley","Twitter":null,"Instagram":null,"Pinterest":null,"Youtube":null,"Blog":null,"Address":"14337 US Highway 23, South Bloomfield, Ohio 43103","State":"Ohio","City":"South Bloomfield","Street":"14337 US Highway 23","Zip":"43103","Longitude":"-82.987563","Latitude":"39.724435","Dates":null,"Products":""},{"Type":"on-farm market","ModifyDate":"Mar 16th, 2018","Image":"default-onfarmmarket-4-3.jpg","ListingID":"701445","Name":"Granny B Farms LLC","Description":null,"ContactName":"Michael Schafer","ContactEmail":"sales@grannybfarm.com","ContactPhone":"740-507-9348","Website":"www.grannybfarm.com","Facebook":"www.facebook.com\/grannybfarms\/","Twitter":null,"Instagram":null,"Pinterest":null,"Youtube":null,"Blog":null,"Address":"7201 Tucker Road, Centerburg, Ohio 43011","State":"Ohio","City":"Centerburg","Street":"7201 Tucker Road","Zip":"43011","Longitude":"-82.608500","Latitude":"40.346711","Dates":null,"Products":""},{"Type":"on-farm market","ModifyDate":"Mar 19th, 2015","Image":"default-onfarmmarket-4-3.jpg","ListingID":"700685","Name":"Rainbow Farms","Description":null,"ContactName":"Larry and Tina Klco","ContactEmail":"lkrainbowfarms@hotmail.com","ContactPhone":"440-259-4924","Website":"www.rainbowfarmsonline.com","Facebook":"www.facebook.com\/rainbowfarmsohio","Twitter":null,"Instagram":null,"Pinterest":null,"Youtube":null,"Blog":null,"Address":"2464 Townline Road, Madison, Ohio 44057","State":"Ohio","City":"Madison","Street":"2464 Townline Road","Zip":"44057","Longitude":"-81.104680","Latitude":"41.800121","Dates":null,"Products":""},{"Type":"on-farm market","ModifyDate":"Mar 23rd, 2015","Image":"default-onfarmmarket-4-3.jpg","ListingID":"700511","Name":"Bonnybrook Farms","Description":null,"ContactName":"Bonnie Mercuri","ContactEmail":"contactus@bonnybrookfarms.com","ContactPhone":"937-289-2500","Website":"www.BonnybrookFarms.com","Facebook":"www.Facebook\/BonnybrookFarms","Twitter":null,"Instagram":null,"Pinterest":null,"Youtube":null,"Blog":null,"Address":"3779 State Route 132, Clarksville, Ohio 45113","State":"Ohio","City":"Clarksville","Street":"3779 State Route 132","Zip":"45113","Longitude":"-84.019575","Latitude":"39.367811","Dates":null,"Products":""},{"Type":"on-farm market","ModifyDate":"Mar 7th, 2018","Image":"default-onfarmmarket-4-3.jpg","ListingID":"700041","Name":"Schacht Farm Market","Description":null,"ContactName":"Lisa Schacht","ContactEmail":"schachtfarm@gmail.com","ContactPhone":"614-837-4663","Website":"mylocalfarm.us","Facebook":"https:\/\/www.facebook.com\/SchachtFarmMarket","Twitter":"https:\/\/www.twitter.com\/farm_market","Instagram":null,"Pinterest":null,"Youtube":null,"Blog":null,"Address":"5950 Shannon Rd, Canal Winchester, Ohio 43110","State":"Ohio","City":"Canal Winchester","Street":"5950 Shannon Rd","Zip":"43110","Longitude":"-82.831925","Latitude":"39.893120","Dates":null,"Products":""},{"Type":"on-farm market","ModifyDate":"Mar 8th, 2015","Image":"default-onfarmmarket-4-3.jpg","ListingID":"701221","Name":"Sirna's Farm & Market","Description":null,"ContactName":"Kaitlyn Sirna","ContactEmail":"info@sirnasfarm.com","ContactPhone":"440-834-0696","Website":"www.sirnasfarm.com","Facebook":"www.facebook.com\/sirnasfarm.oh","Twitter":null,"Instagram":null,"Pinterest":null,"Youtube":null,"Blog":null,"Address":"19009 Ravenna Rd | State Route 44, Auburn Twp., Ohio 44023","State":"Ohio","City":"Auburn Twp.","Street":"19009 Ravenna Rd | State Route 44","Zip":"44023","Longitude":"-81.219517","Latitude":"41.352165","Dates":null,"Products":""},{"Type":"on-farm market","ModifyDate":"Mar 8th, 2015","Image":"default-onfarmmarket-4-3.jpg","ListingID":"701222","Name":"Good Earth","Description":null,"ContactName":"Jeanette Toms","ContactEmail":"goodearthfarm@hotmail.com","ContactPhone":"216-288-0170","Website":null,"Facebook":null,"Twitter":null,"Instagram":null,"Pinterest":null,"Youtube":null,"Blog":null,"Address":"9600 Madison Avenue, Cleveland , Ohio 44102","State":"Ohio","City":"Cleveland","Street":"9600 Madison Avenue","Zip":"44102","Longitude":"-81.749955","Latitude":"41.477146","Dates":null,"Products":""},{"Type":"on-farm market","ModifyDate":"Mar 8th, 2017","Image":"default-onfarmmarket-4-3.jpg","ListingID":"701394","Name":"Eshleman Fruit Farm","Description":null,"ContactName":"Laura Eshleman","ContactEmail":"EshlemanFarms@gmail.com","ContactPhone":"3022425723","Website":"www.EshlemanFruitFarm.com","Facebook":"https:\/\/www.facebook.com\/Eshleman-Fruit-Farm-314477007606\/?rf=157614694313691","Twitter":null,"Instagram":null,"Pinterest":null,"Youtube":null,"Blog":null,"Address":"753 E Maple St, Clyde, Ohio 43410","State":"Ohio","City":"Clyde","Street":"753 E Maple St","Zip":"43410","Longitude":"-82.957049","Latitude":"41.3179418","Dates":null,"Products":""},{"Type":"on-farm market","ModifyDate":"Mar 9th, 2015","Image":"default-onfarmmarket-4-3.jpg","ListingID":"700296","Name":"Blue Ribbon Farm","Description":null,"ContactName":"John and Sandy Abell","ContactEmail":"jabellfarm@yahoo.com","ContactPhone":"937-466-9202","Website":null,"Facebook":null,"Twitter":null,"Instagram":null,"Pinterest":null,"Youtube":null,"Blog":null,"Address":"5459 Blue Ribbon Rd, Hillsboro, Ohio 45133","State":"Ohio","City":"Hillsboro","Street":"5459 Blue Ribbon Rd","Zip":"45133","Longitude":"-83.476781","Latitude":"39.1619920","Dates":null,"Products":""},{"Type":"on-farm market","ModifyDate":"May 15th, 2015","Image":"default-onfarmmarket-4-3.jpg","ListingID":"701258","Name":"Ka-La Healing Garden Center","Description":null,"ContactName":"Tanya Holmes","ContactEmail":"kalahealinggardencenter@yahoo.com","ContactPhone":"216 224-9397","Website":"http:\/\/ka-lahealinggardencenter.webs.com","Facebook":"Ka-La Healing Garden Resource Center LLC","Twitter":null,"Instagram":null,"Pinterest":null,"Youtube":null,"Blog":null,"Address":"2251 EAST 73 rd ,Street, Cleveland , Ohio 44103","State":"Ohio","City":"Cleveland","Street":"2251 EAST 73 rd ,Street","Zip":"44103","Longitude":"-81.638091","Latitude":"41.4965696","Dates":null,"Products":""},{"Type":"on-farm market","ModifyDate":"May 16th, 2020","Image":"default-onfarmmarket-4-3.jpg","ListingID":"701522","Name":"Hartman Heimstytte","Description":null,"ContactName":"Lori Hartman","ContactEmail":"Hartmanheimstytte@yahoo.com","ContactPhone":"9373712977","Website":"Www.hartmanheimstytte.com","Facebook":"Www.facebook.com\/hartmanheimstytte","Twitter":null,"Instagram":null,"Pinterest":null,"Youtube":null,"Blog":null,"Address":"7293 Phillipsburg Union Rd, Brookville, Ohio 45309","State":"Ohio","City":"Brookville","Street":"7293 Phillipsburg Union Rd","Zip":"45309","Longitude":"-84.393040","Latitude":"39.905200","Dates":null,"Products":""},{"Type":"on-farm market","ModifyDate":"May 19th, 2015","Image":"default-onfarmmarket-4-3.jpg","ListingID":"701263","Name":"Maple Valley Sugarbush","Description":null,"ContactName":"Dave, Donna, & Nick Divoky","ContactEmail":"maplevalley@windstream.net","ContactPhone":"440-286-7275","Website":"www.maplevalleysugarbush.com","Facebook":"https:\/\/www.facebook.com\/pages\/Maple-Valley-Sugarbush-Farm\/141855572516431?ref=hl","Twitter":null,"Instagram":null,"Pinterest":null,"Youtube":null,"Blog":null,"Address":"13262 Chardon Windsor Rd., Chardon, Ohio 44024","State":"Ohio","City":"Chardon","Street":"13262 Chardon Windsor Rd.","Zip":"44024","Longitude":"-81.164714","Latitude":"41.5773560","Dates":null,"Products":""},{"Type":"on-farm market","ModifyDate":"May 1st, 2015","Image":"default-onfarmmarket-4-3.jpg","ListingID":"701250","Name":"Cook's Garden","Description":null,"ContactName":"Zella F. Cook","ContactEmail":"cooksgarden@gmail.com","ContactPhone":"937-248-1536","Website":"http:\/\/cooksgardennewlebanon.com","Facebook":"https:\/\/www.facebook.com\/cooksgardennewlebanon","Twitter":null,"Instagram":null,"Pinterest":null,"Youtube":null,"Blog":null,"Address":"989 N. Clayton Rd, New Lebanon, Ohio 45345","State":"Ohio","City":"New Lebanon","Street":"989 N. Clayton Rd","Zip":"45345","Longitude":"-84.395473","Latitude":"39.7597210","Dates":null,"Products":""},{"Type":"on-farm market","ModifyDate":"May 24th, 2017","Image":"default-onfarmmarket-4-3.jpg","ListingID":"701411","Name":"Rax and Trax Farms LLC","Description":null,"ContactName":"Michael Gotshall","ContactEmail":"raxandtrax330@gmail.com","ContactPhone":"330-760-3955","Website":"www.raxandtraxfarms.com","Facebook":null,"Twitter":null,"Instagram":null,"Pinterest":null,"Youtube":null,"Blog":null,"Address":"7271 Pearl Rd SE, Amsterdam, Ohio 43903","State":"Ohio","City":"Amsterdam","Street":"7271 Pearl Rd SE","Zip":"43903","Longitude":"-80.939846","Latitude":"40.5013874","Dates":null,"Products":""},{"Type":"on-farm market","ModifyDate":"May 2nd, 2019","Image":"default-onfarmmarket-4-3.jpg","ListingID":"701480","Name":"Purple Skies Homestead","Description":null,"ContactName":"Visar Duane","ContactEmail":"purpleskieshomestead@gmail.com","ContactPhone":"440-628-1393","Website":"http:\/\/www.purpleslieshomestead.com","Facebook":"purpleskieshomestead@gmail.com","Twitter":null,"Instagram":null,"Pinterest":null,"Youtube":null,"Blog":null,"Address":"18802 State Road, North Royalton, Ohio 44133","State":"Ohio","City":"North Royalton","Street":"18802 State Road","Zip":"44133","Longitude":"-81.724295","Latitude":"41.281938","Dates":null,"Products":""},{"Type":"on-farm market","ModifyDate":"May 9th, 2017","Image":"default-onfarmmarket-4-3.jpg","ListingID":"701407","Name":"Jacobs Heritage Farm","Description":null,"ContactName":"Jennifer LittleBear","ContactEmail":"info@jacobsheritagefarm.com","ContactPhone":"3306718219","Website":"www.JacobsHeritageFarm.com","Facebook":"facebook.com\/jacobsheritagefarm","Twitter":null,"Instagram":null,"Pinterest":null,"Youtube":null,"Blog":null,"Address":"2196 Jacoby Road, Copley, Ohio 44321","State":"Ohio","City":"Copley","Street":"2196 Jacoby Road","Zip":"44321","Longitude":"-81.532148","Latitude":"41.1259834","Dates":null,"Products":""},{"Type":"on-farm market","ModifyDate":"May 9th, 2019","Image":"default-onfarmmarket-4-3.jpg","ListingID":"701481","Name":"Triple C Farm","Description":null,"ContactName":"Bill Cusano","ContactEmail":null,"ContactPhone":"440-812-4430","Website":null,"Facebook":"SEARCH @TRIPLE C FARM MARKET","Twitter":null,"Instagram":null,"Pinterest":null,"Youtube":null,"Blog":null,"Address":"4603 State Route 193, Kingsville, Ohio 44048","State":"Ohio","City":"Kingsville","Street":"4603 State Route 193","Zip":"44048","Longitude":"-80.666608","Latitude":"41.855468","Dates":null,"Products":""},{"Type":"on-farm market","ModifyDate":"Nov 11th, 2014","Image":"default-onfarmmarket-4-3.jpg","ListingID":"701169","Name":"Lane's Farm Market and Orchard, LLC","Description":null,"ContactName":"Ted and Najet Lane","ContactEmail":"NgLa7@suddenlink.net","ContactPhone":"740-374-3161","Website":"http:\/\/www.lanesfarmmarket.com\/","Facebook":null,"Twitter":null,"Instagram":null,"Pinterest":null,"Youtube":null,"Blog":null,"Address":"20620 St. Rt. 676, Marietta, Ohio 45750","State":"Ohio","City":"Marietta","Street":"20620 St. Rt. 676","Zip":"45750","Longitude":"-81.518072","Latitude":"39.436996","Dates":null,"Products":""},{"Type":"on-farm market","ModifyDate":"Nov 14th, 2017","Image":"default-onfarmmarket-4-3.jpg","ListingID":"701433","Name":"Glass Rooster Cannery","Description":null,"ContactName":"Jeannie Seabrook","ContactEmail":"jeannie@glassroostercannery.com","ContactPhone":"6144992958","Website":"www.glassroostercannery.com","Facebook":"www.facebook.com\/glassroostercannery","Twitter":"@glassrooster","Instagram":null,"Pinterest":null,"Youtube":null,"Blog":null,"Address":"1673 South State Route 605, Sunbury, Ohio 43074","State":"Ohio","City":"Sunbury","Street":"1673 South State Route 605","Zip":"43074","Longitude":"-82.804485","Latitude":"40.194321","Dates":null,"Products":""},{"Type":"on-farm market","ModifyDate":"Nov 24th, 2020","Image":"default-onfarmmarket-4-3.jpg","ListingID":"701566","Name":"P. Moore Acres","Description":null,"ContactName":"Matthew Moore","ContactEmail":"Pmooreacres@gmail.com","ContactPhone":"4403219727","Website":null,"Facebook":"https:\/\/www.facebook.com\/Pmooreacres\/","Twitter":null,"Instagram":null,"Pinterest":null,"Youtube":null,"Blog":null,"Address":"6275 Thompson Clark, Bristolville, Ohio 44402","State":"Ohio","City":"Bristolville","Street":"6275 Thompson Clark","Zip":"44402","Longitude":"-80.835575","Latitude":"41.388323","Dates":null,"Products":""},{"Type":"on-farm market","ModifyDate":"Nov 28th, 2020","Image":"default-onfarmmarket-4-3.jpg","ListingID":"701568","Name":"Hilltop Harvest Farm Self Serve Market","Description":null,"ContactName":"Thomas Brown","ContactEmail":"hilltopharvestfarm@live.com","ContactPhone":"4195162538","Website":"hilltopharvestfarm@live.com","Facebook":"www.facebook.com\/hilltop-harvest-farm","Twitter":null,"Instagram":null,"Pinterest":null,"Youtube":null,"Blog":null,"Address":"16618 US 33, Wapakoneta, Ohio 45895","State":"Ohio","City":"Wapakoneta","Street":"16618 US 33","Zip":"45895","Longitude":"-84.134697","Latitude":"40.555814","Dates":null,"Products":""},{"Type":"on-farm market","ModifyDate":"Oct 17th, 2014","Image":"default-onfarmmarket-4-3.jpg","ListingID":"701143","Name":"Quarry Hill Orchards","Description":null,"ContactName":"Ben Gammie","ContactEmail":"info@qhofruit.com","ContactPhone":"419-588-2858","Website":"http:\/\/quarryhillorchards.com\/","Facebook":"https:\/\/www.facebook.com\/pages\/Quarry-Hill-Orchards\/538012959591189","Twitter":null,"Instagram":null,"Pinterest":null,"Youtube":null,"Blog":"http:\/\/quarryhillorchards.com\/our-story\/blog\/","Address":"8403 Mason Road, Berlin Heights, Ohio 44814","State":"Ohio","City":"Berlin Heights","Street":"8403 Mason Road","Zip":"44814","Longitude":"-82.473395","Latitude":"41.337620","Dates":null,"Products":""},{"Type":"on-farm market","ModifyDate":"Oct 21st, 2014","Image":"default-onfarmmarket-4-3.jpg","ListingID":"701146","Name":"Hayhurst Farm","Description":null,"ContactName":"Ronald Hayhurst","ContactEmail":"sbakerbunch@netzero.net","ContactPhone":"419-930-8576","Website":null,"Facebook":null,"Twitter":null,"Instagram":null,"Pinterest":null,"Youtube":null,"Blog":null,"Address":"13521 S. Dixie Hwy., Bowling Green, Ohio 43402","State":"Ohio","City":"Bowling Green","Street":"13521 S. Dixie Hwy.","Zip":"43402","Longitude":"-83.652856","Latitude":"41.350138","Dates":null,"Products":""},{"Type":"on-farm market","ModifyDate":"Oct 25th, 2015","Image":"default-onfarmmarket-4-3.jpg","ListingID":"700388","Name":"Windy Hill Apple Farm","Description":null,"ContactName":"Charles Fritsch","ContactEmail":"charliefritsch@gmail.com","ContactPhone":"740-587-3632","Website":"www.charliesapples.com","Facebook":null,"Twitter":null,"Instagram":null,"Pinterest":null,"Youtube":null,"Blog":null,"Address":"1740 Sportsman Club Road, Newark, Ohio 43055","State":"Ohio","City":"Newark","Street":"1740 Sportsman Club Road","Zip":"43055","Longitude":"-82.531771","Latitude":"40.1554270","Dates":null,"Products":""},{"Type":"on-farm market","ModifyDate":"Oct 3rd, 2014","Image":"default-onfarmmarket-4-3.jpg","ListingID":"701118","Name":"Schmidt Family Farms","Description":null,"ContactName":"Susan Schmidt","ContactEmail":"susanschmidt@rocketmail.com","ContactPhone":"330-239-2325","Website":"Schmidt Family Farms.org","Facebook":"Schmidt family Farms","Twitter":null,"Instagram":null,"Pinterest":null,"Youtube":null,"Blog":null,"Address":"4282 State Road, Medina, Ohio 44256","State":"Ohio","City":"Medina","Street":"4282 State Road","Zip":"44256","Longitude":"-81.707272","Latitude":"41.1587370","Dates":null,"Products":""},{"Type":"on-farm market","ModifyDate":"Oct 8th, 2014","Image":"default-onfarmmarket-4-3.jpg","ListingID":"700007","Name":"Whispering Pines Farm","Description":null,"ContactName":"Tom Westendorf","ContactEmail":"whisperingpinesfarmohio@gmail.com","ContactPhone":"937-429-3792","Website":null,"Facebook":"https:\/\/www.facebook.com\/WhisperingPinesFarm","Twitter":null,"Instagram":null,"Pinterest":null,"Youtube":null,"Blog":null,"Address":"4169 Swigart Road, Kettering, Ohio 45440","State":"Ohio","City":"Kettering","Street":"4169 Swigart Road","Zip":"45440","Longitude":"-84.101116","Latitude":"39.674614","Dates":null,"Products":""},{"Type":"on-farm market","ModifyDate":"Sep 12th, 2014","Image":"default-onfarmmarket-4-3.jpg","ListingID":"701057","Name":"Foster's Farmhouse LLC","Description":null,"ContactName":"Sara Moore","ContactEmail":"moorevols@gmail.com","ContactPhone":"9373505901","Website":"www.fostersfarmhouse.com","Facebook":null,"Twitter":null,"Instagram":null,"Pinterest":null,"Youtube":null,"Blog":null,"Address":"9791 Paragon Rd, Centerville (Montgomery County), Ohio 45458","State":"Ohio","City":"Centerville (Montgomery County)","Street":"9791 Paragon Rd","Zip":"45458","Longitude":"-84.185969","Latitude":"39.601443","Dates":null,"Products":""},{"Type":"on-farm market","ModifyDate":"Sep 16th, 2014","Image":"default-onfarmmarket-4-3.jpg","ListingID":"700519","Name":"Ruffwing Farms","Description":null,"ContactName":null,"ContactEmail":"Cindysioux1987@aim.com","ContactPhone":"740-536-7853","Website":"www.ruffwingfarms.com","Facebook":null,"Twitter":null,"Instagram":null,"Pinterest":null,"Youtube":null,"Blog":null,"Address":"2942 Elder Road Ne, Lancaster, Ohio 43130","State":"Ohio","City":"Lancaster","Street":"2942 Elder Road Ne","Zip":"43130","Longitude":"-82.489922","Latitude":"39.763103","Dates":null,"Products":""},{"Type":"on-farm market","ModifyDate":"Sep 16th, 2014","Image":"default-onfarmmarket-4-3.jpg","ListingID":"700693","Name":"Kriegs Strawberry Farm Market","Description":null,"ContactName":"Marsha Krieg","ContactEmail":"Kriegberries@hotmail.com","ContactPhone":"440-988-9228","Website":null,"Facebook":"Marsha Krieg","Twitter":null,"Instagram":null,"Pinterest":null,"Youtube":null,"Blog":null,"Address":"3175 North Ridge Road, Vermilion, Ohio 44089","State":"Ohio","City":"Vermilion","Street":"3175 North Ridge Road","Zip":"44089","Longitude":"-82.306465","Latitude":"41.383635","Dates":null,"Products":""},{"Type":"on-farm market","ModifyDate":"Sep 18th, 2014","Image":"default-onfarmmarket-4-3.jpg","ListingID":"701086","Name":"Dandelion Lane Farm","Description":null,"ContactName":"Dandelion Lane Farm","ContactEmail":"info@dandelionlanefarm.com","ContactPhone":"7022191208","Website":"www.DandelionLaneFarm.com","Facebook":"https:\/\/www.facebook.com\/pages\/Dandelion-Lane-Farm","Twitter":null,"Instagram":null,"Pinterest":null,"Youtube":null,"Blog":null,"Address":"40949 State Route 558, Leetonia, Ohio 44431","State":"Ohio","City":"Leetonia","Street":"40949 State Route 558","Zip":"44431","Longitude":"-80.727259","Latitude":"40.839863","Dates":null,"Products":""},{"Type":"on-farm market","ModifyDate":"Sep 21st, 2014","Image":"default-onfarmmarket-4-3.jpg","ListingID":"700338","Name":"Hetrick Honey Bees","Description":null,"ContactName":"Laura Hetrick","ContactEmail":"hetrickhoneybees@gmail.com","ContactPhone":"419-966-1139","Website":"www.hetrickhoneybees.com","Facebook":null,"Twitter":null,"Instagram":null,"Pinterest":null,"Youtube":null,"Blog":null,"Address":"9105 Township Road N2, Napoleon, Ohio 43545","State":"Ohio","City":"Napoleon","Street":"9105 Township Road N2","Zip":"43545","Longitude":"-84.039941","Latitude":"41.363336","Dates":null,"Products":""},{"Type":"on-farm market","ModifyDate":"Sep 23rd, 2014","Image":"default-onfarmmarket-4-3.jpg","ListingID":"700605","Name":"Link Farms","Description":null,"ContactName":"Michael Link","ContactEmail":"Ozzyrule92@aol.com","ContactPhone":"419-202-7230","Website":null,"Facebook":null,"Twitter":null,"Instagram":null,"Pinterest":null,"Youtube":null,"Blog":null,"Address":"3602 Lima-Sandusky Rd, Sandusky, Ohio 44870","State":"Ohio","City":"Sandusky","Street":"3602 Lima-Sandusky Rd","Zip":"44870","Longitude":"-82.826537","Latitude":"41.436443","Dates":null,"Products":""},{"Type":"on-farm market","ModifyDate":"Sep 28th, 2014","Image":"default-onfarmmarket-4-3.jpg","ListingID":"701089","Name":"Bucher Family Farm","Description":null,"ContactName":"Kathy Dollman","ContactEmail":"kathydollman@dollmantech.com","ContactPhone":"419-877-0755","Website":null,"Facebook":null,"Twitter":null,"Instagram":null,"Pinterest":null,"Youtube":null,"Blog":null,"Address":"5702 Eber Rd., Whitehouse, Ohio 43571","State":"Ohio","City":"Whitehouse","Street":"5702 Eber Rd.","Zip":"43571","Longitude":"-83.786230","Latitude":"41.536222","Dates":null,"Products":""},{"Type":"on-farm market","ModifyDate":"Sep 30th, 2014","Image":"default-onfarmmarket-4-3.jpg","ListingID":"700510","Name":"Covered Bridge Farms\/Shimandle Grapes","Description":null,"ContactName":"Ronald Taylor","ContactEmail":"coveredbridgefarms@att.net","ContactPhone":"440-466-8982","Website":"www.facebook.com\/CoveredBridgeFarms","Facebook":null,"Twitter":null,"Instagram":null,"Pinterest":null,"Youtube":null,"Blog":null,"Address":"1517 Lafevre Road, Geneva, Ohio 44041","State":"Ohio","City":"Geneva","Street":"1517 Lafevre Road","Zip":"44041","Longitude":"-80.958817","Latitude":"41.765378","Dates":null,"Products":""},{"Type":"on-farm market","ModifyDate":"Sep 30th, 2014","Image":"default-onfarmmarket-4-3.jpg","ListingID":"700572","Name":"Folck Family Farm","Description":null,"ContactName":"Bob Folck","ContactEmail":"robertfolck@yahoo.com","ContactPhone":"937-828-0233","Website":"folckfamilyfarm.net","Facebook":"folckfamilyfarm","Twitter":null,"Instagram":null,"Pinterest":null,"Youtube":null,"Blog":null,"Address":"6843 State Route 54, Mechanicsburg, Ohio 43044","State":"Ohio","City":"Mechanicsburg","Street":"6843 State Route 54","Zip":"43044","Longitude":"-83.636557","Latitude":"40.0222168","Dates":null,"Products":""},{"Type":"on-farm market","ModifyDate":"Sep 8th, 2014","Image":"default-onfarmmarket-4-3.jpg","ListingID":"701034","Name":"Rufener Hilltop Farms","Description":null,"ContactName":"Lana Rufener","ContactEmail":null,"ContactPhone":"330-628-1082","Website":"rufeners.com","Facebook":null,"Twitter":null,"Instagram":null,"Pinterest":null,"Youtube":null,"Blog":null,"Address":"1022 State Route 43, Mogadore, Ohio 44260","State":"Ohio","City":"Mogadore","Street":"1022 State Route 43","Zip":"44260","Longitude":"-81.347054","Latitude":"41.017294","Dates":null,"Products":""}]