Type,ModifyDate,Image,ListingID,Name,Description,ContactName,ContactEmail,ContactPhone,Website,Facebook,Twitter,Instagram,Pinterest,Youtube,Blog,Address,State,City,Street,Zip,Longitude,Latitude,Dates,Products
on-farm market,"Aug 1st, 2014",default-onfarmmarket-4-3.jpg,700057,Purity Seeds,,Wanda Bethke,puritysd@itctel.com,605-532-7333,www.purityseedsUSA.com,https://www.facebook.com/purityseeds,,,,,,"41247 178th St, Raymond, South Dakota 57258",South Dakota,Raymond,41247 178th St,57258,-97.964041,44.828767,,
on-farm market,"Dec 19th, 2016",default-onfarmmarket-4-3.jpg,701379,"Sunset Gardens, LLC",,Beverly Lamers,sunsetgardens2013@gmail.com,605-742-4174,,,,,,,,"12871 467th Ave, Browns  Valley, South Dakota 56219",South Dakota,Browns  Valley,12871 467th Ave,56219,-96.861851,45.518557,,
on-farm market,"Jan 31st, 2020",default-onfarmmarket-4-3.jpg,701500,Haroldson Farms,,Kyle Haroldson,kyle@haroldsonfarms.com,832-942-2820,https://hardsonfarms.com/,https://www.facebook.com/HaroldsonFarms/,,,,,,"20044 464th Ave., Bruce, South Dakota 57220",South Dakota,Bruce,20044 464th Ave.,57220,-96.889634,44.437716,,
on-farm market,"Jul 26th, 2014",default-onfarmmarket-4-3.jpg,700479,Springerridge,,Terry Lehmkuhl,springerridge@yahoo.com,605-769-0269,www.facebook.com/Springerridge%20Barnyard%20Products,https://www.facebook.com/pages/Springerridge-Barnyard-Products/139944099427072,,,,,www.countrymarketpierre.com,"8 Miles SW, Gettysburg, South Dakota 57442",South Dakota,Gettysburg,8 Miles SW,57442,-100.02100,44.940829,,
on-farm market,"Jul 4th, 2018",default-onfarmmarket-4-3.jpg,701455,"Better Roots Farm, LLC",,Vaughn Reints,contactus@betterrootsfarm.com,6053605792,www.betterrootsfarm.com,https://www.facebook.com/betterrootsfarm/,,,,,,"41885 130th St., Pierpont, South Dakota 57468",South Dakota,Pierpont,41885 130th St.,57468,-97.840340,45.500131,,
on-farm market,"Nov 27th, 2014",default-onfarmmarket-4-3.jpg,700448,Ufford Hills Pumpkin Patch and Corn Maze,,Alex Ufford,uffordhills@hotmail.com,605-677-8775,uffordhills.net,Uffordhills,,,,,,"3691 East Main Street, Vermillion, South Dakota 57069",South Dakota,Vermillion,3691 East Main Street,57069,-96.877792,42.779161,,
on-farm market,"Oct 28th, 2016",default-onfarmmarket-4-3.jpg,701374,Fruit of the Coop,,Stephanie Peterson,s.peterson@fruitofthecoop.com,605-366-1219,www.fruitofthecoop.com,www.facebook.com/fruitofthecoop,,,,,,"8700 E Sunset Circle, Brandon, South Dakota 57005",South Dakota,Brandon,8700 E Sunset Circle,57005,-96.618427,43.578181,,
on-farm market,"Sep 16th, 2014",default-onfarmmarket-4-3.jpg,700432,Berrybrook Organics & U-Pick,,Sherilyn Ortman,sherilynortman@gmail.com,605-925-7038,www.berrybrookorganics.com,https://www.facebook.com/pages/Berrybrook-Organics/576031785742694,,,,,,"44578 280th Street, Marion, South Dakota 57043",South Dakota,Marion,44578 280th Street,57043,-97.284107,43.3287083,,
