[{"Type":"on-farm market","ModifyDate":"Aug 1st, 2014","Image":"default-onfarmmarket-4-3.jpg","ListingID":"700057","Name":"Purity Seeds","Description":null,"ContactName":"Wanda Bethke","ContactEmail":"puritysd@itctel.com","ContactPhone":"605-532-7333","Website":"www.purityseedsUSA.com","Facebook":"https:\/\/www.facebook.com\/purityseeds","Twitter":null,"Instagram":null,"Pinterest":null,"Youtube":null,"Blog":null,"Address":"41247 178th St, Raymond, South Dakota 57258","State":"South Dakota","City":"Raymond","Street":"41247 178th St","Zip":"57258","Longitude":"-97.964041","Latitude":"44.828767","Dates":null,"Products":""},{"Type":"on-farm market","ModifyDate":"Dec 19th, 2016","Image":"default-onfarmmarket-4-3.jpg","ListingID":"701379","Name":"Sunset Gardens, LLC","Description":null,"ContactName":"Beverly Lamers","ContactEmail":"sunsetgardens2013@gmail.com","ContactPhone":"605-742-4174","Website":null,"Facebook":null,"Twitter":null,"Instagram":null,"Pinterest":null,"Youtube":null,"Blog":null,"Address":"12871 467th Ave, Browns  Valley, South Dakota 56219","State":"South Dakota","City":"Browns  Valley","Street":"12871 467th Ave","Zip":"56219","Longitude":"-96.861851","Latitude":"45.518557","Dates":null,"Products":""},{"Type":"on-farm market","ModifyDate":"Jan 31st, 2020","Image":"default-onfarmmarket-4-3.jpg","ListingID":"701500","Name":"Haroldson Farms","Description":null,"ContactName":"Kyle Haroldson","ContactEmail":"kyle@haroldsonfarms.com","ContactPhone":"832-942-2820","Website":"https:\/\/hardsonfarms.com\/","Facebook":"https:\/\/www.facebook.com\/HaroldsonFarms\/","Twitter":null,"Instagram":null,"Pinterest":null,"Youtube":null,"Blog":null,"Address":"20044 464th Ave., Bruce, South Dakota 57220","State":"South Dakota","City":"Bruce","Street":"20044 464th Ave.","Zip":"57220","Longitude":"-96.889634","Latitude":"44.437716","Dates":null,"Products":""},{"Type":"on-farm market","ModifyDate":"Jul 26th, 2014","Image":"default-onfarmmarket-4-3.jpg","ListingID":"700479","Name":"Springerridge","Description":null,"ContactName":"Terry Lehmkuhl","ContactEmail":"springerridge@yahoo.com","ContactPhone":"605-769-0269","Website":"www.facebook.com\/Springerridge%20Barnyard%20Products","Facebook":"https:\/\/www.facebook.com\/pages\/Springerridge-Barnyard-Products\/139944099427072","Twitter":null,"Instagram":null,"Pinterest":null,"Youtube":null,"Blog":"www.countrymarketpierre.com","Address":"8 Miles SW, Gettysburg, South Dakota 57442","State":"South Dakota","City":"Gettysburg","Street":"8 Miles SW","Zip":"57442","Longitude":"-100.02100","Latitude":"44.940829","Dates":null,"Products":""},{"Type":"on-farm market","ModifyDate":"Jul 4th, 2018","Image":"default-onfarmmarket-4-3.jpg","ListingID":"701455","Name":"Better Roots Farm, LLC","Description":null,"ContactName":"Vaughn Reints","ContactEmail":"contactus@betterrootsfarm.com","ContactPhone":"6053605792","Website":"www.betterrootsfarm.com","Facebook":"https:\/\/www.facebook.com\/betterrootsfarm\/","Twitter":null,"Instagram":null,"Pinterest":null,"Youtube":null,"Blog":null,"Address":"41885 130th St., Pierpont, South Dakota 57468","State":"South Dakota","City":"Pierpont","Street":"41885 130th St.","Zip":"57468","Longitude":"-97.840340","Latitude":"45.500131","Dates":null,"Products":""},{"Type":"on-farm market","ModifyDate":"Nov 27th, 2014","Image":"default-onfarmmarket-4-3.jpg","ListingID":"700448","Name":"Ufford Hills Pumpkin Patch and Corn Maze","Description":null,"ContactName":"Alex Ufford","ContactEmail":"uffordhills@hotmail.com","ContactPhone":"605-677-8775","Website":"uffordhills.net","Facebook":"Uffordhills","Twitter":null,"Instagram":null,"Pinterest":null,"Youtube":null,"Blog":null,"Address":"3691 East Main Street, Vermillion, South Dakota 57069","State":"South Dakota","City":"Vermillion","Street":"3691 East Main Street","Zip":"57069","Longitude":"-96.877792","Latitude":"42.779161","Dates":null,"Products":""},{"Type":"on-farm market","ModifyDate":"Oct 28th, 2016","Image":"default-onfarmmarket-4-3.jpg","ListingID":"701374","Name":"Fruit of the Coop","Description":null,"ContactName":"Stephanie Peterson","ContactEmail":"s.peterson@fruitofthecoop.com","ContactPhone":"605-366-1219","Website":"www.fruitofthecoop.com","Facebook":"www.facebook.com\/fruitofthecoop","Twitter":null,"Instagram":null,"Pinterest":null,"Youtube":null,"Blog":null,"Address":"8700 E Sunset Circle, Brandon, South Dakota 57005","State":"South Dakota","City":"Brandon","Street":"8700 E Sunset Circle","Zip":"57005","Longitude":"-96.618427","Latitude":"43.578181","Dates":null,"Products":""},{"Type":"on-farm market","ModifyDate":"Sep 16th, 2014","Image":"default-onfarmmarket-4-3.jpg","ListingID":"700432","Name":"Berrybrook Organics & U-Pick","Description":null,"ContactName":"Sherilyn Ortman","ContactEmail":"sherilynortman@gmail.com","ContactPhone":"605-925-7038","Website":"www.berrybrookorganics.com","Facebook":"https:\/\/www.facebook.com\/pages\/Berrybrook-Organics\/576031785742694","Twitter":null,"Instagram":null,"Pinterest":null,"Youtube":null,"Blog":null,"Address":"44578 280th Street, Marion, South Dakota 57043","State":"South Dakota","City":"Marion","Street":"44578 280th Street","Zip":"57043","Longitude":"-97.284107","Latitude":"43.3287083","Dates":null,"Products":""}]