[{"Type":"on-farm market","ModifyDate":"Apr 12th, 2022","Image":"default-onfarmmarket-4-3.jpg","ListingID":"701532","Name":"Momma G Farms","Description":"Momma G Farms is a 501c3 not for profit farm that is dedicated to educating the community how to grow and use nutrient dense plants that can improve their health and their food security.","ContactName":"Melissa Goltermann","ContactEmail":"MOMMAGFARMS@GMAIL.COM","ContactPhone":"3523570427","Website":"www.mommagfarms.org","Facebook":"https:\/\/www.facebook.com\/mommagfarm","Twitter":"","Instagram":"https:\/\/www.instagram.com\/mommagfarms","Pinterest":"","Youtube":"","Blog":"","Address":"36815 LESLYE LN, EUSTIS, Florida 32736","State":"Florida","City":"EUSTIS","Street":"36815 LESLYE LN","Zip":"32736","Longitude":"-81.529005","Latitude":"28.884393","Dates":null,"Products":""},{"Type":"on-farm market","ModifyDate":"Apr 16th, 2019","Image":"default-onfarmmarket-4-3.jpg","ListingID":"701477","Name":"Heirloom Country Farms","Description":null,"ContactName":"Katharine Lune","ContactEmail":"heirloomcountryfarms@yahoo.com","ContactPhone":"352-307-7364","Website":"www.heirloomcountryfarms.com","Facebook":"Heirloom Countryfarms","Twitter":"Heirloom Cntry Farms","Instagram":null,"Pinterest":null,"Youtube":null,"Blog":null,"Address":"15880 SE 36th Ave, Summerfield, Florida 34491","State":"Florida","City":"Summerfield","Street":"15880 SE 36th Ave","Zip":"34491","Longitude":"-82.089987","Latitude":"28.991447","Dates":null,"Products":""},{"Type":"on-farm market","ModifyDate":"Apr 19th, 2017","Image":"default-onfarmmarket-4-3.jpg","ListingID":"701403","Name":"Gray's and Danny's Meat Plant","Description":null,"ContactName":"Rosie Garcia","ContactEmail":"gdmeatplant@gmail.com","ContactPhone":"7863671877","Website":"http:\/\/www.GDMeatPlant.com\/","Facebook":"www.Facebook.com\/GDMeatPlant","Twitter":null,"Instagram":null,"Pinterest":null,"Youtube":null,"Blog":null,"Address":"29513 US Highway 27th Moore Haven, FL, Moore Haven , Florida 33471","State":"Florida","City":"Moore Haven","Street":"29513 US Highway 27th Moore Haven, FL","Zip":"33471","Longitude":"-81.082060","Latitude":"26.7822802","Dates":null,"Products":""},{"Type":"on-farm market","ModifyDate":"Apr 27th, 2017","Image":"default-onfarmmarket-4-3.jpg","ListingID":"701404","Name":"Wingspread Farm","Description":null,"ContactName":"andrea schielka","ContactEmail":"andreaschielka@gmail.com","ContactPhone":"8133234944","Website":"https:\/\/wingspread.farm\/farmstand\/","Facebook":"https:\/\/www.facebook.com\/WingspreadFarm-739542422837766\/","Twitter":null,"Instagram":null,"Pinterest":null,"Youtube":null,"Blog":"https:\/\/wingspread.farm\/blog\/","Address":"3003 Pearson Road, Valrico, Florida 33596","State":"Florida","City":"Valrico","Street":"3003 Pearson Road","Zip":"33596","Longitude":"-82.226861","Latitude":"27.9007480","Dates":null,"Products":""},{"Type":"on-farm market","ModifyDate":"Apr 27th, 2022","Image":"onfarmmarket_700625_13410_20220427192656.png","ListingID":"700625","Name":"Rooney's Front Porch Farm","Description":"Rooney\\'s Front Porch Farm\\'s season is June to mid July.  We offer U-Pick blueberries, blackberries and sunflowers.  There is ample parking and a clean restroom.  Fun for the whole family.  Check our website for lots of pictures.","ContactName":"Scott & Billie Rooney","ContactEmail":"billie.rooney@gmail.com","ContactPhone":"386-590-9053","Website":"https:\/\/www.rooneyfarm.com","Facebook":"https:\/\/www.facebook.com\/rooneysfarm","Twitter":"","Instagram":"","Pinterest":"","Youtube":"","Blog":"","Address":"8611 47th Drive, Live Oak, Florida 32060","State":"Florida","City":"Live Oak","Street":"8611 47th Drive","Zip":"32060","Longitude":"-82.843306","Latitude":"30.294693","Dates":null,"Products":""},{"Type":"on-farm market","ModifyDate":"Apr 8th, 2015","Image":"default-onfarmmarket-4-3.jpg","ListingID":"700491","Name":"D&K Upick Blueberries","Description":null,"ContactName":"DkBlueberries","ContactEmail":"dkblueberries@hotmail.com","ContactPhone":"813-802-0406","Website":null,"Facebook":null,"Twitter":null,"Instagram":null,"Pinterest":null,"Youtube":null,"Blog":null,"Address":"1615 U.s. Highway 92 East, Seffner, Florida 33584","State":"Florida","City":"Seffner","Street":"1615 U.s. Highway 92 East","Zip":"33584","Longitude":"-82.255264","Latitude":"28.013423","Dates":null,"Products":""},{"Type":"on-farm market","ModifyDate":"Aug 13th, 2014","Image":"default-onfarmmarket-4-3.jpg","ListingID":"700484","Name":"Carlton Myers Nursery and Orchard","Description":null,"ContactName":"Carlton Myers","ContactEmail":"ecarltonm@gmail.com","ContactPhone":"352-463-6602","Website":null,"Facebook":"https:\/\/www.facebook.com\/carltonmyerspersimmon","Twitter":null,"Instagram":null,"Pinterest":null,"Youtube":null,"Blog":null,"Address":"14451 NE County Road 339, Trenton, Florida 32693","State":"Florida","City":"Trenton","Street":"14451 NE County Road 339","Zip":"32693","Longitude":"-82.750581","Latitude":"29.5425110","Dates":null,"Products":""},{"Type":"on-farm market","ModifyDate":"Aug 13th, 2014","Image":"default-onfarmmarket-4-3.jpg","ListingID":"700662","Name":"Rebman Farms Llc.","Description":null,"ContactName":"Mark Rebman","ContactEmail":"merker95@yahoo.com","ContactPhone":"813-928-6953","Website":"Merker95@yahoo.com","Facebook":null,"Twitter":null,"Instagram":null,"Pinterest":null,"Youtube":null,"Blog":null,"Address":"3604 Barjar Place, Plant City, Florida 33565","State":"Florida","City":"Plant City","Street":"3604 Barjar Place","Zip":"33565","Longitude":"-82.208963","Latitude":"28.0531100","Dates":null,"Products":""},{"Type":"on-farm market","ModifyDate":"Aug 13th, 2014","Image":"default-onfarmmarket-4-3.jpg","ListingID":"700759","Name":"Heart of Christmas Farms LLC","Description":null,"ContactName":"Richard Kann","ContactEmail":"heartofchristmasfarms@gmail.com","ContactPhone":"407-512-2004","Website":"www.hocfarms.com","Facebook":"www.facebook.com\/hocfarms","Twitter":null,"Instagram":null,"Pinterest":null,"Youtube":null,"Blog":"http:\/\/hocf.blogspot.com\/","Address":"21310 Fort Christmas Rd, Christmas, Florida 32709","State":"Florida","City":"Christmas","Street":"21310 Fort Christmas Rd","Zip":"32709","Longitude":"-81.057472","Latitude":"28.574788","Dates":null,"Products":""},{"Type":"on-farm market","ModifyDate":"Aug 14th, 2014","Image":"default-onfarmmarket-4-3.jpg","ListingID":"700085","Name":"Aquaponic Lynx LLC","Description":null,"ContactName":"Aleece Landis","ContactEmail":"tclynx@aquaponiclynx.com","ContactPhone":"407-342-8515","Website":"http:\/\/www.aquaponiclynx.com\/","Facebook":"https:\/\/www.facebook.com\/pages\/Aquaponic-Lynx-LLC\/120267698035287?ref=hl","Twitter":null,"Instagram":null,"Pinterest":null,"Youtube":null,"Blog":null,"Address":"8748 Guava St, Yalaha, Florida 34797","State":"Florida","City":"Yalaha","Street":"8748 Guava St","Zip":"34797","Longitude":"-81.807912","Latitude":"28.737419","Dates":null,"Products":""},{"Type":"on-farm market","ModifyDate":"Aug 1st, 2014","Image":"default-onfarmmarket-4-3.jpg","ListingID":"700084","Name":"Beasley Farm of Brooksville","Description":null,"ContactName":"Joann Beasley","ContactEmail":"beas9781@bellsouth.net","ContactPhone":"352-799-6752","Website":"beasleyfarmbrooksville.blogspot.com or Beasley Farm facebook","Facebook":"https:\/\/www.facebook.com\/pages\/Beasley-Farms\/246402592050005?fref=ts","Twitter":null,"Instagram":null,"Pinterest":null,"Youtube":null,"Blog":"beasleyfarmbrooksville.blogspot.com","Address":"10137 Preston Rd. just off Mondon Hill Road, Brooksville, Florida 34601","State":"Florida","City":"Brooksville","Street":"10137 Preston Rd. just off Mondon Hill Road","Zip":"34601","Longitude":"-82.338054","Latitude":"28.5530743","Dates":null,"Products":""},{"Type":"on-farm market","ModifyDate":"Aug 21st, 2014","Image":"default-onfarmmarket-4-3.jpg","ListingID":"700866","Name":"Jonesville Persimmons","Description":null,"ContactName":"ken hawes","ContactEmail":"cementdust@gmail.com","ContactPhone":"3524723928","Website":null,"Facebook":null,"Twitter":null,"Instagram":null,"Pinterest":null,"Youtube":null,"Blog":null,"Address":"17010 West Newberry Road, Newberry, Florida 32669","State":"Florida","City":"Newberry","Street":"17010 West Newberry Road","Zip":"32669","Longitude":"-82.524445","Latitude":"29.6545260","Dates":null,"Products":""},{"Type":"on-farm market","ModifyDate":"Aug 22nd, 2014","Image":"default-onfarmmarket-4-3.jpg","ListingID":"700877","Name":"Liberty Farms of Florida","Description":null,"ContactName":"Madison","ContactEmail":"ultrafresh@libertyfarms.info","ContactPhone":"3213455813","Website":"http:\/\/libertyfarms.info\/home","Facebook":"https:\/\/www.facebook.com\/libertyfarmsflorida","Twitter":null,"Instagram":null,"Pinterest":null,"Youtube":null,"Blog":null,"Address":"4540 Corey Road, Grant-Valkaria, Florida 32950","State":"Florida","City":"Grant-Valkaria","Street":"4540 Corey Road","Zip":"32950","Longitude":"-80.590126","Latitude":"27.9454762","Dates":null,"Products":""},{"Type":"on-farm market","ModifyDate":"Aug 22nd, 2014","Image":"default-onfarmmarket-4-3.jpg","ListingID":"700884","Name":"South Moon Farms","Description":null,"ContactName":"Daniel Anson","ContactEmail":"southmoonfarmsfl@gmail.com","ContactPhone":"352-466-0105","Website":"http:\/\/upickblueberriesgainesville.com","Facebook":"https:\/\/www.facebook.com\/SouthMoonFarms","Twitter":null,"Instagram":null,"Pinterest":null,"Youtube":null,"Blog":null,"Address":"15912 S County Road 325, Hawthorne, Florida 32640","State":"Florida","City":"Hawthorne","Street":"15912 S County Road 325","Zip":"32640","Longitude":"-82.167327","Latitude":"29.4863878","Dates":null,"Products":""},{"Type":"on-farm market","ModifyDate":"Aug 24th, 2014","Image":"default-onfarmmarket-4-3.jpg","ListingID":"700913","Name":"Hancock Groves","Description":null,"ContactName":"Joseph Hancock","ContactEmail":"jhan105127@aol.com","ContactPhone":"352-588-3801","Website":null,"Facebook":null,"Twitter":null,"Instagram":null,"Pinterest":null,"Youtube":null,"Blog":null,"Address":"31107 Blanton Road, Dade CIty, Florida 33523","State":"Florida","City":"Dade CIty","Street":"31107 Blanton Road","Zip":"33523","Longitude":"-82.302178","Latitude":"28.420417","Dates":null,"Products":""},{"Type":"on-farm market","ModifyDate":"Aug 26th, 2014","Image":"default-onfarmmarket-4-3.jpg","ListingID":"700944","Name":"Bender's Tropical Grove","Description":null,"ContactName":"Michael Bender","ContactEmail":"bendersgrove@aol.com","ContactPhone":"954-471-0763","Website":"Bendersgrove.com","Facebook":"https:\/\/www.facebook.com\/pages\/Benders-Tropical-Grove\/119092214773666","Twitter":"https:\/\/www.twitter.com\/bendersgrove","Instagram":null,"Pinterest":null,"Youtube":null,"Blog":null,"Address":"14800 sw 31st ct, Davie , Florida 33331","State":"Florida","City":"Davie","Street":"14800 sw 31st ct","Zip":"33331","Longitude":"-80.346566","Latitude":"26.081398","Dates":null,"Products":""},{"Type":"on-farm market","ModifyDate":"Aug 26th, 2014","Image":"default-onfarmmarket-4-3.jpg","ListingID":"700947","Name":"The Farmers Market at Flamingo Road Nursery","Description":null,"ContactName":"James Dezell","ContactEmail":"dfloridafresh@aol.com","ContactPhone":"954-235-9397","Website":"www.flamingoroadnursery.com","Facebook":"https:\/\/www.facebook.com\/FlamingoRoadNursery","Twitter":null,"Instagram":null,"Pinterest":null,"Youtube":null,"Blog":null,"Address":"1655 Flamingo Road, Davie, Florida 33325","State":"Florida","City":"Davie","Street":"1655 Flamingo Road","Zip":"33325","Longitude":"-80.315158","Latitude":"26.0989820","Dates":null,"Products":""},{"Type":"on-farm market","ModifyDate":"Aug 28th, 2014","Image":"default-onfarmmarket-4-3.jpg","ListingID":"700974","Name":"Hiamonee Farms","Description":null,"ContactName":"Clarke Parker","ContactEmail":"parker0800@embarqmail.com","ContactPhone":"850-893-7099","Website":null,"Facebook":"https:\/\/www.facebook.com\/pages\/Hiamonee-Farms\/172018742823967?ref=bookmarks","Twitter":null,"Instagram":null,"Pinterest":null,"Youtube":null,"Blog":null,"Address":"13170 N. Meridian Rd., Tallahassee , Florida 32312","State":"Florida","City":"Tallahassee","Street":"13170 N. Meridian Rd.","Zip":"32312","Longitude":"-84.282286","Latitude":"30.640816","Dates":null,"Products":""},{"Type":"on-farm market","ModifyDate":"Aug 31st, 2014","Image":"default-onfarmmarket-4-3.jpg","ListingID":"700665","Name":"Meadors Blueberry Farm","Description":null,"ContactName":"Valarie Meadors","ContactEmail":"meadorsblueberryfarm@gmail.com","ContactPhone":"407-383-6639","Website":null,"Facebook":"www.facebook.com\/MeadorsBlueberryFarm","Twitter":null,"Instagram":null,"Pinterest":null,"Youtube":null,"Blog":null,"Address":"3685 Orlando Avenue, Mims, Florida 32754","State":"Florida","City":"Mims","Street":"3685 Orlando Avenue","Zip":"32754","Longitude":"-80.85993","Latitude":"28.715838","Dates":null,"Products":""},{"Type":"on-farm market","ModifyDate":"Aug 3rd, 2014","Image":"default-onfarmmarket-4-3.jpg","ListingID":"700230","Name":"Shockley Springs Blueberry Farm","Description":null,"ContactName":"Mark Davis","ContactEmail":"shockleysprings@gmail.com","ContactPhone":"850-902-0160","Website":"http:\/\/shockleysprings.com","Facebook":"https:\/\/www.facebook.com\/pages\/Shockley-Springs-Nursery\/83091184375?ref=hl&ref_type=bookmark","Twitter":null,"Instagram":null,"Pinterest":null,"Youtube":null,"Blog":null,"Address":"7097 Old River Road, Baker, Florida 32531","State":"Florida","City":"Baker","Street":"7097 Old River Road","Zip":"32531","Longitude":"-86.597905","Latitude":"30.888099","Dates":null,"Products":""},{"Type":"on-farm market","ModifyDate":"Aug 7th, 2014","Image":"default-onfarmmarket-4-3.jpg","ListingID":"700065","Name":"Persimmony Snickets, LLC.","Description":null,"ContactName":"Nicole Paquette","ContactEmail":"persimmonysnickets@gmail.com","ContactPhone":"863-531-5142","Website":"www.persimmonysnickets.com","Facebook":"https:\/\/www.facebook.com\/PersimmonySnicketsFarm","Twitter":"https:\/\/www.twitter.com\/PSnickets","Instagram":null,"Pinterest":null,"Youtube":null,"Blog":null,"Address":"102 Palm Beach St, Lake Placid, Florida 33852","State":"Florida","City":"Lake Placid","Street":"102 Palm Beach St","Zip":"33852","Longitude":"-81.315715","Latitude":"27.2238330","Dates":null,"Products":""},{"Type":"on-farm market","ModifyDate":"Aug 9th, 2015","Image":"default-onfarmmarket-4-3.jpg","ListingID":"701294","Name":"Criswell Farms","Description":null,"ContactName":"Kevin Quigley","ContactEmail":"kevin@criswellfarm.com","ContactPhone":"954-667-7611","Website":null,"Facebook":"https:\/\/www.facebook.com\/pages\/Criswell-Farms-LLC\/1375826332671388?fref=ts","Twitter":null,"Instagram":null,"Pinterest":null,"Youtube":null,"Blog":null,"Address":"24 NW 6th Avenue, Fort Lauderdale, Florida 33311","State":"Florida","City":"Fort Lauderdale","Street":"24 NW 6th Avenue","Zip":"33311","Longitude":"-80.149529","Latitude":"26.1225240","Dates":null,"Products":""},{"Type":"on-farm market","ModifyDate":"Dec 1st, 2014","Image":"default-onfarmmarket-4-3.jpg","ListingID":"701175","Name":"Ridge Island Groves, Inc.","Description":null,"ContactName":"Chad Ritch","ContactEmail":"chad@ridgeislandgroves.com","ContactPhone":"863422033","Website":"http:\/\/www.ridgeislandgroves.com","Facebook":"https:\/\/www.facebook.com\/RidgeIslandGroves","Twitter":null,"Instagram":null,"Pinterest":null,"Youtube":null,"Blog":null,"Address":"6000 Polk City Road, Haines City, Florida 33844","State":"Florida","City":"Haines City","Street":"6000 Polk City Road","Zip":"33844","Longitude":"-81.677643","Latitude":"28.158483","Dates":null,"Products":""},{"Type":"on-farm market","ModifyDate":"Dec 29th, 2019","Image":"default-onfarmmarket-4-3.jpg","ListingID":"701495","Name":"Eden Gardens Jax","Description":null,"ContactName":"Tim Lovelace","ContactEmail":"Info@glodev.org","ContactPhone":"904-333-2080","Website":"Https:\/\/edengardensjax.org","Facebook":"Http:\/\/Facebook.com\/edengardensjax","Twitter":null,"Instagram":null,"Pinterest":null,"Youtube":null,"Blog":null,"Address":"9179 Garden St, Jacksonville , Florida 32219","State":"Florida","City":"Jacksonville","Street":"9179 Garden St","Zip":"32219","Longitude":"-81.811935","Latitude":"30.408552","Dates":null,"Products":""},{"Type":"on-farm market","ModifyDate":"Feb 10th, 2021","Image":"default-onfarmmarket-4-3.jpg","ListingID":"701582","Name":"Redland Forest Farm","Description":null,"ContactName":"Enrique Delgado","ContactEmail":"enrique@public.farm","ContactPhone":"305-397-9082","Website":null,"Facebook":null,"Twitter":null,"Instagram":null,"Pinterest":null,"Youtube":null,"Blog":null,"Address":"18575 SW 280th Street, Homestead, Florida 33031","State":"Florida","City":"Homestead","Street":"18575 SW 280th Street","Zip":"33031","Longitude":"-80.493758","Latitude":"25.506419","Dates":null,"Products":""},{"Type":"on-farm market","ModifyDate":"Feb 21st, 2016","Image":"default-onfarmmarket-4-3.jpg","ListingID":"701266","Name":"The Flyin D Ranch","Description":null,"ContactName":"Randy and Tracey Duncan","ContactEmail":"Flyindranch@wildblue.net","ContactPhone":"903 456 3546 or 850 ","Website":"TheFlyinDRanch.com","Facebook":null,"Twitter":null,"Instagram":null,"Pinterest":null,"Youtube":null,"Blog":null,"Address":"4166 Millside Road, Laurel Hill , Florida 32567","State":"Florida","City":"Laurel Hill","Street":"4166 Millside Road","Zip":"32567","Longitude":"-86.455150","Latitude":"30.929088","Dates":null,"Products":""},{"Type":"on-farm market","ModifyDate":"Feb 21st, 2018","Image":"default-onfarmmarket-4-3.jpg","ListingID":"701442","Name":"Southern Hill Farms, Inc.","Description":null,"ContactName":"Brooke Hill","ContactEmail":"brooke@southernhillfarms.com","ContactPhone":"407-986-5806","Website":"https:\/\/southernhillfarms.com","Facebook":"www.facebook.com\/southernhillfarms","Twitter":"www.twitter.com\/shfblueberries","Instagram":null,"Pinterest":null,"Youtube":null,"Blog":"https:\/\/southernhillfarms.com\/blog","Address":"16651 Schofield Road, Clermont, Florida 34714","State":"Florida","City":"Clermont","Street":"16651 Schofield Road","Zip":"34714","Longitude":"-81.679880","Latitude":"28.4488130","Dates":null,"Products":""},{"Type":"on-farm market","ModifyDate":"Feb 3rd, 2021","Image":"default-onfarmmarket-4-3.jpg","ListingID":"701579","Name":"The Villages Grown Retail Store","Description":null,"ContactName":"Tracey Herrera","ContactEmail":"tracey.herrera@thevillagesgrown.com","ContactPhone":"352-775-7866","Website":"www.TheVillagesGrown.com","Facebook":null,"Twitter":null,"Instagram":null,"Pinterest":null,"Youtube":null,"Blog":null,"Address":"2666 West Torch Lake Dr, The Villages, Florida 32163","State":"Florida","City":"The Villages","Street":"2666 West Torch Lake Dr","Zip":"32163","Longitude":"-82.080985","Latitude":"28.7047131","Dates":null,"Products":""},{"Type":"on-farm market","ModifyDate":"Jan 27th, 2015","Image":"default-onfarmmarket-4-3.jpg","ListingID":"700488","Name":"Bellablue Berry Farm","Description":null,"ContactName":"Doug Melcher","ContactEmail":"doug.bellablueberryfarm@gmail.com","ContactPhone":"727-364-4899","Website":"www.bellablueberryfarm.com","Facebook":"BellaBlue Berry Farm","Twitter":null,"Instagram":null,"Pinterest":null,"Youtube":null,"Blog":null,"Address":"43405 State Road 64 East, Myakka Head, Florida 34251","State":"Florida","City":"Myakka Head","Street":"43405 State Road 64 East","Zip":"34251","Longitude":"-82.096539","Latitude":"27.459539","Dates":null,"Products":""},{"Type":"on-farm market","ModifyDate":"Jan 28th, 2019","Image":"default-onfarmmarket-4-3.jpg","ListingID":"701469","Name":"Sustainable Seasons Farm","Description":null,"ContactName":"Patrick Humphrey","ContactEmail":"patrickhumphrey94@gmail.com","ContactPhone":"7276430511","Website":"www.sustainableseasons.com","Facebook":null,"Twitter":null,"Instagram":null,"Pinterest":null,"Youtube":null,"Blog":null,"Address":", Lake Wales, Florida 33898","State":"Florida","City":"Lake Wales","Street":null,"Zip":"33898","Longitude":"-81.596409","Latitude":"27.924955","Dates":null,"Products":""},{"Type":"on-farm market","ModifyDate":"Jul 26th, 2014","Image":"default-onfarmmarket-4-3.jpg","ListingID":"700315","Name":"Laughing Chicken Farm","Description":null,"ContactName":"Bill and Robin Popp","ContactEmail":"info@laughingchickenfarm.com","ContactPhone":"352-472-1315","Website":"www.laughingchickenfarm.com","Facebook":"https:\/\/www.facebook.com\/pages\/Laughing-Chicken-Farm\/108558185834354","Twitter":null,"Instagram":null,"Pinterest":null,"Youtube":null,"Blog":null,"Address":"2397 SE 37th Avenue, Trenton, Florida 32693","State":"Florida","City":"Trenton","Street":"2397 SE 37th Avenue","Zip":"32693","Longitude":"-82.745686","Latitude":"29.703875","Dates":null,"Products":""},{"Type":"on-farm market","ModifyDate":"Jul 26th, 2014","Image":"default-onfarmmarket-4-3.jpg","ListingID":"700490","Name":"Loftus Family Farm","Description":null,"ContactName":"Loftus Family Farm","ContactEmail":"donloftus@yahoo.com","ContactPhone":"352-214-1028","Website":"www.loftusfamilyfarm.com\/","Facebook":null,"Twitter":null,"Instagram":null,"Pinterest":null,"Youtube":null,"Blog":null,"Address":"15585 NW 29 Street, Gainesville, Florida 32609","State":"Florida","City":"Gainesville","Street":"15585 NW 29 Street","Zip":"32609","Longitude":"-82.367138","Latitude":"29.7986300","Dates":null,"Products":""},{"Type":"on-farm market","ModifyDate":"Jul 26th, 2014","Image":"default-onfarmmarket-4-3.jpg","ListingID":"700521","Name":"LE Farms LLC","Description":null,"ContactName":"David English","ContactEmail":"chestnutsrus@yahoo.com","ContactPhone":"850 566 7092","Website":"www.chestnutsrus.com","Facebook":null,"Twitter":null,"Instagram":null,"Pinterest":null,"Youtube":null,"Blog":null,"Address":"2763 Caniehead Rd, Campbellton, Florida 32416","State":"Florida","City":"Campbellton","Street":"2763 Caniehead Rd","Zip":"32416","Longitude":"-85.365221","Latitude":"30.9599602","Dates":null,"Products":""},{"Type":"on-farm market","ModifyDate":"Jul 26th, 2014","Image":"default-onfarmmarket-4-3.jpg","ListingID":"700562","Name":"Bramble Bush Farm","Description":null,"ContactName":null,"ContactEmail":"sandyhillfarm@gmail.com","ContactPhone":"352-799-5973","Website":null,"Facebook":null,"Twitter":null,"Instagram":null,"Pinterest":null,"Youtube":null,"Blog":null,"Address":"27400 Old Trilby Road, Brooksville, Florida 34602","State":"Florida","City":"Brooksville","Street":"27400 Old Trilby Road","Zip":"34602","Longitude":"-82.282849","Latitude":"28.5061180","Dates":null,"Products":""},{"Type":"on-farm market","ModifyDate":"Jul 26th, 2014","Image":"default-onfarmmarket-4-3.jpg","ListingID":"700582","Name":"Genes Patch","Description":null,"ContactName":"Rick Meredith","ContactEmail":"R_Meredith29@yahoo.com","ContactPhone":"813-527-6324","Website":null,"Facebook":null,"Twitter":null,"Instagram":null,"Pinterest":null,"Youtube":null,"Blog":null,"Address":"6381 Tulip Drive, Wesley Chapel, Florida 33544","State":"Florida","City":"Wesley Chapel","Street":"6381 Tulip Drive","Zip":"33544","Longitude":"-82.382689","Latitude":"28.2494100","Dates":null,"Products":""},{"Type":"on-farm market","ModifyDate":"Jul 26th, 2014","Image":"default-onfarmmarket-4-3.jpg","ListingID":"700681","Name":"Cypress Cattle and Produce","Description":null,"ContactName":null,"ContactEmail":"luke@cypresscattle.com","ContactPhone":"850-685-5890","Website":"www.cypresscattle.com","Facebook":null,"Twitter":null,"Instagram":null,"Pinterest":null,"Youtube":null,"Blog":null,"Address":"2980 R.M. Ward Road, Ponce De Leon, Florida 32455","State":"Florida","City":"Ponce De Leon","Street":"2980 R.M. Ward Road","Zip":"32455","Longitude":"-85.875196","Latitude":"30.703488","Dates":null,"Products":""},{"Type":"on-farm market","ModifyDate":"Jul 26th, 2014","Image":"default-onfarmmarket-4-3.jpg","ListingID":"700712","Name":"High Springs Orchard Bakery LLC","Description":null,"ContactName":"Jenny Franklin","ContactEmail":"jenny@highspringsorchard.com","ContactPhone":"352 222 1343","Website":"www.highspringsorchard.com","Facebook":"https:\/\/www.facebook.com\/pages\/High-Springs-Orchard-Bakery\/147947418567459","Twitter":null,"Instagram":null,"Pinterest":null,"Youtube":null,"Blog":null,"Address":"10804 Nw Sr 45, High Springs, Florida 32643","State":"Florida","City":"High Springs","Street":"10804 Nw Sr 45","Zip":"32643","Longitude":"-82.610296","Latitude":"29.7548850","Dates":null,"Products":""},{"Type":"on-farm market","ModifyDate":"Jul 27th, 2014","Image":"default-onfarmmarket-4-3.jpg","ListingID":"700022","Name":"The Farm","Description":null,"ContactName":"Stacie Blank","ContactEmail":"ffproduce@hotmail.com","ContactPhone":null,"Website":"thefarm-estero .com","Facebook":"https:\/\/www.facebook.com\/TheFarmEstero","Twitter":null,"Instagram":null,"Pinterest":null,"Youtube":null,"Blog":null,"Address":"9050 Corkscrew Road, Estero, Florida 33928","State":"Florida","City":"Estero","Street":"9050 Corkscrew Road","Zip":"33928","Longitude":"-81.804158","Latitude":"26.4303040","Dates":null,"Products":""},{"Type":"on-farm market","ModifyDate":"Jul 27th, 2014","Image":"default-onfarmmarket-4-3.jpg","ListingID":"700075","Name":"Pine Island Botanicals, Inc","Description":null,"ContactName":"Michael Wallace","ContactEmail":"info@pineislandbotanicals.com","ContactPhone":"239-222-9494","Website":"http:\/\/www.pineislandbotanicals.com","Facebook":"https:\/\/www.facebook.com\/pages\/Pine-Island-Botanicals\/306895999417914?fref=ts","Twitter":null,"Instagram":null,"Pinterest":null,"Youtube":null,"Blog":null,"Address":"12571 Aubrey Ln, Bokeelia, Florida 33922","State":"Florida","City":"Bokeelia","Street":"12571 Aubrey Ln","Zip":"33922","Longitude":"-82.122561","Latitude":"26.6449070","Dates":null,"Products":""},{"Type":"on-farm market","ModifyDate":"Jul 27th, 2014","Image":"default-onfarmmarket-4-3.jpg","ListingID":"700087","Name":"Osceola Organic Farm","Description":null,"ContactName":"Kevin O\\'Dare","ContactEmail":"kevin@osceolaorganicfarm.com","ContactPhone":"772-567-1530","Website":"osceolaorganicfarm.com","Facebook":"https:\/\/www.facebook.com\/osceolaorganicfarm","Twitter":null,"Instagram":null,"Pinterest":null,"Youtube":null,"Blog":"kevin.osceolaorganicfarm.com","Address":"6980 33rd street, Vero Beach, Florida 32966","State":"Florida","City":"Vero Beach","Street":"6980 33rd street","Zip":"32966","Longitude":"-80.470328","Latitude":"27.653808","Dates":null,"Products":""},{"Type":"on-farm market","ModifyDate":"Jul 27th, 2014","Image":"default-onfarmmarket-4-3.jpg","ListingID":"700213","Name":"Hydro Harvest Farms","Description":null,"ContactName":"John Lawson","ContactEmail":"terrie@hydroharvestfarms.com","ContactPhone":"813-645-6574","Website":"http:\/\/www.hydroharvestfarms.com\/","Facebook":"https:\/\/www.facebook.com\/hydroharvestfarms","Twitter":null,"Instagram":null,"Pinterest":null,"Youtube":null,"Blog":null,"Address":"1101 Shell Point Rd East, Ruskin, Florida 33570","State":"Florida","City":"Ruskin","Street":"1101 Shell Point Rd East","Zip":"33570","Longitude":"-82.420079","Latitude":"27.7205480","Dates":null,"Products":""},{"Type":"on-farm market","ModifyDate":"Jul 27th, 2014","Image":"default-onfarmmarket-4-3.jpg","ListingID":"700273","Name":"Goat First Network:Mahan Farms Enterperises","Description":null,"ContactName":"Uford Madden","ContactEmail":"maddenua@embarqmail.com","ContactPhone":"850-907-9781","Website":"goatfirstnetwork.com","Facebook":null,"Twitter":null,"Instagram":null,"Pinterest":null,"Youtube":null,"Blog":null,"Address":"16824 Mahan Drive, Tallahassee, Florida 32309","State":"Florida","City":"Tallahassee","Street":"16824 Mahan Drive","Zip":"32309","Longitude":"-83.995597","Latitude":"30.528972","Dates":null,"Products":""},{"Type":"on-farm market","ModifyDate":"Jul 27th, 2014","Image":"default-onfarmmarket-4-3.jpg","ListingID":"700600","Name":"Pattys Patch Blueberry Upick","Description":null,"ContactName":"Patricia Mudge","ContactEmail":"pattyspatchblues@gmail.com","ContactPhone":"863-675-1105","Website":"www.pattyspatch.com","Facebook":"https:\/\/www.facebook.com\/PattysPatchBlueberryUPick","Twitter":null,"Instagram":null,"Pinterest":null,"Youtube":null,"Blog":null,"Address":"1320 Hog Wallow Lane SW, Labelle, Florida 33935","State":"Florida","City":"Labelle","Street":"1320 Hog Wallow Lane SW","Zip":"33935","Longitude":"-81.471965","Latitude":"26.821593","Dates":null,"Products":""},{"Type":"on-farm market","ModifyDate":"Jul 27th, 2014","Image":"default-onfarmmarket-4-3.jpg","ListingID":"700650","Name":"Abshier Blueberry Farm","Description":null,"ContactName":null,"ContactEmail":"Abshierblueberryfarm@gmail.com","ContactPhone":"352-817-2660","Website":"Www.abshierblueberryfarm.com","Facebook":"www.facebook.com\/pages\/Abshier-Blueberry-Farm\/295455157137236pages\/Abshier-Blueberry-Farm\/295455157137236","Twitter":null,"Instagram":null,"Pinterest":null,"Youtube":null,"Blog":null,"Address":"3960 SE 115th Street, Belleview, Florida 34420","State":"Florida","City":"Belleview","Street":"3960 SE 115th Street","Zip":"34420","Longitude":"-82.081751","Latitude":"29.0533560","Dates":null,"Products":""},{"Type":"on-farm market","ModifyDate":"Jul 27th, 2014","Image":"default-onfarmmarket-4-3.jpg","ListingID":"700651","Name":"Al and MLiss Grissom","Description":null,"ContactName":"William Grissom","ContactEmail":"1110wwag@att.net","ContactPhone":"325-799-1110","Website":null,"Facebook":null,"Twitter":null,"Instagram":null,"Pinterest":null,"Youtube":null,"Blog":null,"Address":"3261 Endsley Road, Brooksville, Florida 34604","State":"Florida","City":"Brooksville","Street":"3261 Endsley Road","Zip":"34604","Longitude":"-82.387655","Latitude":"28.481463","Dates":null,"Products":""},{"Type":"on-farm market","ModifyDate":"Jul 27th, 2014","Image":"default-onfarmmarket-4-3.jpg","ListingID":"700652","Name":"Blueberry Hill Farm Inc.","Description":null,"ContactName":"Donald Cowern","ContactEmail":"ndbp2k@yahoo.com","ContactPhone":"386-559-0408","Website":null,"Facebook":"https:\/\/www.facebook.com\/pages\/Blueberry-Hill-Farm\/353380774779857","Twitter":null,"Instagram":null,"Pinterest":null,"Youtube":null,"Blog":null,"Address":"1522 CR 308, Crescent City, Florida 32112","State":"Florida","City":"Crescent City","Street":"1522 CR 308","Zip":"32112","Longitude":"-81.571514","Latitude":"29.442212","Dates":null,"Products":""},{"Type":"on-farm market","ModifyDate":"Jul 27th, 2014","Image":"default-onfarmmarket-4-3.jpg","ListingID":"700720","Name":"Windy Hill Vineyard","Description":null,"ContactName":"Kim Anderson","ContactEmail":"info@windyhillvineyard.com","ContactPhone":"803-634-4695","Website":"windyhillvineyard.com","Facebook":null,"Twitter":null,"Instagram":null,"Pinterest":null,"Youtube":null,"Blog":null,"Address":"14663 Mahan Drive, Tallahassee, Florida 32309","State":"Florida","City":"Tallahassee","Street":"14663 Mahan Drive","Zip":"32309","Longitude":"-84.029641","Latitude":"30.5220880","Dates":null,"Products":""},{"Type":"on-farm market","ModifyDate":"Jul 27th, 2014","Image":"default-onfarmmarket-4-3.jpg","ListingID":"700750","Name":"Honeyside Farms","Description":null,"ContactName":null,"ContactEmail":"honeysidefarms@gmail.com","ContactPhone":"941-405-0015","Website":"www.honeysidefarms.com","Facebook":"https:\/\/www.facebook.com\/HoneysideFarms","Twitter":null,"Instagram":null,"Pinterest":null,"Youtube":null,"Blog":null,"Address":"8276 Ibis Street, Sarasota, Florida 34241","State":"Florida","City":"Sarasota","Street":"8276 Ibis Street","Zip":"34241","Longitude":"-82.434218","Latitude":"27.239731","Dates":null,"Products":""},{"Type":"on-farm market","ModifyDate":"Jul 28th, 2014","Image":"default-onfarmmarket-4-3.jpg","ListingID":"700024","Name":"The Back Acres Farm","Description":null,"ContactName":"Susan Williams","ContactEmail":"susan@thebackacresfarm.com","ContactPhone":"386-647-7042","Website":"http:\/\/thebackacresfarm.com","Facebook":"https:\/\/www.facebook.com\/thebackacresfarm","Twitter":null,"Instagram":null,"Pinterest":null,"Youtube":null,"Blog":null,"Address":"8335 240th Street, O\\'Brien, Florida 32071","State":"Florida","City":"O\\'Brien","Street":"8335 240th Street","Zip":"32071","Longitude":"-82.917384","Latitude":"30.0142258","Dates":null,"Products":""},{"Type":"on-farm market","ModifyDate":"Jul 28th, 2014","Image":"default-onfarmmarket-4-3.jpg","ListingID":"700401","Name":"Big Bear Farms, Inc.","Description":null,"ContactName":"Kenneth Der","ContactEmail":"bigbearfarms@verizon.net","ContactPhone":"813-986-1152","Website":"BIGBEARFARMS.MYSITE.COM","Facebook":null,"Twitter":null,"Instagram":null,"Pinterest":null,"Youtube":null,"Blog":null,"Address":"7606 Kinard Rd., Plant City, Florida 33565","State":"Florida","City":"Plant City","Street":"7606 Kinard Rd.","Zip":"33565","Longitude":"-82.232089","Latitude":"28.065417","Dates":null,"Products":""},{"Type":"on-farm market","ModifyDate":"Jul 28th, 2014","Image":"default-onfarmmarket-4-3.jpg","ListingID":"700540","Name":"Brads Organic Blueberries","Description":null,"ContactName":"BRAD LINGO","ContactEmail":"bradsblueberries@wildblue.net","ContactPhone":"352-486-4367","Website":null,"Facebook":null,"Twitter":null,"Instagram":null,"Pinterest":null,"Youtube":null,"Blog":null,"Address":"7450 Ne 135th Street, Bronson, Florida 32621","State":"Florida","City":"Bronson","Street":"7450 Ne 135th Street","Zip":"32621","Longitude":"-82.652593","Latitude":"29.531500","Dates":null,"Products":""},{"Type":"on-farm market","ModifyDate":"Jul 28th, 2014","Image":"default-onfarmmarket-4-3.jpg","ListingID":"700784","Name":"Fresh Start Farm Inc","Description":null,"ContactName":null,"ContactEmail":"freshstartfarm@att.net","ContactPhone":"407-359-8933","Website":null,"Facebook":null,"Twitter":null,"Instagram":null,"Pinterest":null,"Youtube":null,"Blog":null,"Address":"2331 Red Ember Road, Oviedo, Florida 32765","State":"Florida","City":"Oviedo","Street":"2331 Red Ember Road","Zip":"32765","Longitude":"-81.161499","Latitude":"28.6241510","Dates":null,"Products":""},{"Type":"on-farm market","ModifyDate":"Jul 30th, 2014","Image":"default-onfarmmarket-4-3.jpg","ListingID":"700382","Name":"Colusa Farms","Description":null,"ContactName":"Isabel Way","ContactEmail":"colusafarms@gmail.com","ContactPhone":"239-300-8416","Website":"www.colusafarms.com","Facebook":null,"Twitter":null,"Instagram":null,"Pinterest":null,"Youtube":null,"Blog":null,"Address":", Naples, Florida","State":"Florida","City":"Naples","Street":null,"Zip":null,"Longitude":"-81.794810","Latitude":"26.1420358","Dates":null,"Products":""},{"Type":"on-farm market","ModifyDate":"Jul 30th, 2014","Image":"default-onfarmmarket-4-3.jpg","ListingID":"700668","Name":"Mitillini Vineyards","Description":null,"ContactName":"Michael Bresk","ContactEmail":"mbresk@yahoo.com","ContactPhone":"386 364-1773","Website":"http:\/\/www.mitillinivineyards.com\/","Facebook":"https:\/\/www.facebook.com\/pages\/Mitillini-Vineyards\/101321156639678?ref=hl","Twitter":null,"Instagram":null,"Pinterest":null,"Youtube":null,"Blog":null,"Address":"17569 76th Street, Live Oak, Florida 32060","State":"Florida","City":"Live Oak","Street":"17569 76th Street","Zip":"32060","Longitude":"-83.114041","Latitude":"30.313149","Dates":null,"Products":""},{"Type":"on-farm market","ModifyDate":"Jul 31st, 2014","Image":"default-onfarmmarket-4-3.jpg","ListingID":"700150","Name":"Great Tasting Pigs","Description":null,"ContactName":"Donnie Weaver","ContactEmail":"greattastingpigs@gmail.com","ContactPhone":"352-672-5796","Website":"greattastingpigs.com","Facebook":"https:\/\/www.facebook.com\/greattastingpigs","Twitter":null,"Instagram":null,"Pinterest":null,"Youtube":null,"Blog":null,"Address":"16323 NW 37 Dr, Gainesville, Florida 32609","State":"Florida","City":"Gainesville","Street":"16323 NW 37 Dr","Zip":"32609","Longitude":"-82.382328","Latitude":"29.806093","Dates":null,"Products":""},{"Type":"on-farm market","ModifyDate":"Jul 4th, 2015","Image":"default-onfarmmarket-4-3.jpg","ListingID":"701281","Name":"Peach Pit Farms","Description":null,"ContactName":"Jeff Lewis","ContactEmail":"tropicbeauty12@gmail.com","ContactPhone":"8136346222","Website":null,"Facebook":null,"Twitter":null,"Instagram":null,"Pinterest":null,"Youtube":null,"Blog":null,"Address":"11106 State Road 674, lithia, Florida 33547","State":"Florida","City":"lithia","Street":"11106 State Road 674","Zip":"33547","Longitude":"-82.190870","Latitude":"27.705119","Dates":null,"Products":""},{"Type":"on-farm market","ModifyDate":"Jun 21st, 2016","Image":"default-onfarmmarket-4-3.jpg","ListingID":"701342","Name":"Twelve Oaks Community Farms, Inc.","Description":null,"ContactName":"Michael DeFelice","ContactEmail":"twelveoakscommunityfarms@gmail.com","ContactPhone":"727-422-3360","Website":null,"Facebook":null,"Twitter":null,"Instagram":null,"Pinterest":null,"Youtube":null,"Blog":null,"Address":"5344 White Road, Brooksville , Florida 34602","State":"Florida","City":"Brooksville","Street":"5344 White Road","Zip":"34602","Longitude":"-82.278176","Latitude":"28.5093419","Dates":null,"Products":""},{"Type":"on-farm market","ModifyDate":"Jun 8th, 2015","Image":"default-onfarmmarket-4-3.jpg","ListingID":"700761","Name":"Stetson Farmers Market","Description":null,"ContactName":"Sarah Coffey","ContactEmail":"hatterharvest@gmail.com","ContactPhone":null,"Website":"http:\/\/stetson.orgsync.com\/org\/hatterharvest","Facebook":"https:\/\/www.facebook.com\/HatterHarvest","Twitter":null,"Instagram":null,"Pinterest":null,"Youtube":null,"Blog":null,"Address":"234 E Michigan Ave, Deland, Florida 32723","State":"Florida","City":"Deland","Street":"234 E Michigan Ave","Zip":"32723","Longitude":"-81.300512","Latitude":"29.032739","Dates":null,"Products":""},{"Type":"on-farm market","ModifyDate":"Mar 23rd, 2015","Image":"default-onfarmmarket-4-3.jpg","ListingID":"700042","Name":"Sampson Family Farm","Description":null,"ContactName":"Jeff and Janet Sampson","ContactEmail":"sampsonfamilyfarm@gmail.com","ContactPhone":"386-330-2302","Website":"sampsonfamilyfarm.com","Facebook":"https:\/\/www.facebook.com\/sampsonfamilyfarm","Twitter":null,"Instagram":null,"Pinterest":null,"Youtube":null,"Blog":null,"Address":"17790 96th St., Live Oak, Florida 32060","State":"Florida","City":"Live Oak","Street":"17790 96th St.","Zip":"32060","Longitude":"-83.117329","Latitude":"30.275264","Dates":null,"Products":""},{"Type":"on-farm market","ModifyDate":"Mar 23rd, 2015","Image":"default-onfarmmarket-4-3.jpg","ListingID":"700414","Name":"Green Meadows Farm","Description":null,"ContactName":"Delores Green","ContactEmail":"annadgreen@gmail.com","ContactPhone":"850-997-4886","Website":"localharvest.org\/greenmeadowsfarm","Facebook":"GreenMeadowsFarm","Twitter":null,"Instagram":null,"Pinterest":null,"Youtube":null,"Blog":null,"Address":"177 East Bluebird Road, Monticello, Florida 32344","State":"Florida","City":"Monticello","Street":"177 East Bluebird Road","Zip":"32344","Longitude":"-83.926417","Latitude":"30.532259","Dates":null,"Products":""},{"Type":"on-farm market","ModifyDate":"Mar 23rd, 2015","Image":"default-onfarmmarket-4-3.jpg","ListingID":"700648","Name":"Allison Family Farm LLC.","Description":null,"ContactName":"Virgil Allison","ContactEmail":"allisonfamilyfarm@gmail.com","ContactPhone":"904-591-1515","Website":"http:\/\/allisonfamilyfarm.com\/","Facebook":null,"Twitter":null,"Instagram":null,"Pinterest":null,"Youtube":null,"Blog":null,"Address":"124 Diamond Lake Lane, Crescent City, Florida 32112","State":"Florida","City":"Crescent City","Street":"124 Diamond Lake Lane","Zip":"32112","Longitude":"-81.577329","Latitude":"29.422782","Dates":null,"Products":""},{"Type":"on-farm market","ModifyDate":"Mar 24th, 2015","Image":"default-onfarmmarket-4-3.jpg","ListingID":"700131","Name":"Hardy Farms LLC","Description":null,"ContactName":"Mark Jordan","ContactEmail":"Berta@HardyPalmTrees.com","ContactPhone":"813-763-5107","Website":"www.hardypalmtrees.com","Facebook":"https:\/\/www.facebook.com\/hardypalmtrees","Twitter":null,"Instagram":null,"Pinterest":null,"Youtube":null,"Blog":null,"Address":"2102 N Shannon Ave, Plant City, Florida 33563","State":"Florida","City":"Plant City","Street":"2102 N Shannon Ave","Zip":"33563","Longitude":"-82.119575","Latitude":"28.0325360","Dates":null,"Products":""},{"Type":"on-farm market","ModifyDate":"Mar 26th, 2015","Image":"default-onfarmmarket-4-3.jpg","ListingID":"700214","Name":"The Showcase of Citrus","Description":null,"ContactName":"Tara Boshell","ContactEmail":"tarashowcaseofcitrus@gmail.com","ContactPhone":"352-394-4377","Website":"www.showcaseofcitrus.com","Facebook":"https:\/\/www.facebook.com\/pages\/The-Showcase-of-Citrus\/357567637588517","Twitter":null,"Instagram":null,"Pinterest":null,"Youtube":null,"Blog":null,"Address":"5010 Highway 27, Clermont, Florida 34714","State":"Florida","City":"Clermont","Street":"5010 Highway 27","Zip":"34714","Longitude":"-81.705697","Latitude":"28.419663","Dates":null,"Products":""},{"Type":"on-farm market","ModifyDate":"May 1st, 2015","Image":"default-onfarmmarket-4-3.jpg","ListingID":"701251","Name":"Sandy Acre Avocado & Mango Farm","Description":null,"ContactName":"Sandy Robinson","ContactEmail":"sandyacreredland@bellsouth.net","ContactPhone":"305-542-0535","Website":null,"Facebook":null,"Twitter":null,"Instagram":null,"Pinterest":null,"Youtube":null,"Blog":null,"Address":"23515 S.W. 162 Ave, Homestead , Florida 33031","State":"Florida","City":"Homestead","Street":"23515 S.W. 162 Ave","Zip":"33031","Longitude":"-80.453495","Latitude":"25.547377","Dates":null,"Products":""},{"Type":"on-farm market","ModifyDate":"May 31st, 2015","Image":"default-onfarmmarket-4-3.jpg","ListingID":"700440","Name":"Wakulla Berries","Description":null,"ContactName":"Hillary Brigham","ContactEmail":"hillaryb@embarqmail.com","ContactPhone":"850-228-7942","Website":null,"Facebook":"Facebook\/Wakullaberries","Twitter":null,"Instagram":null,"Pinterest":null,"Youtube":null,"Blog":null,"Address":"252 Wakulla Springs Road, Crawfordville, Florida 32327","State":"Florida","City":"Crawfordville","Street":"252 Wakulla Springs Road","Zip":"32327","Longitude":"-84.314653","Latitude":"30.2932220","Dates":null,"Products":""},{"Type":"on-farm market","ModifyDate":"May 4th, 2018","Image":"default-onfarmmarket-4-3.jpg","ListingID":"701451","Name":"Abundant Gardens","Description":null,"ContactName":"Duane Piercey","ContactEmail":"AbundantGardensPC@gmail.com","ContactPhone":"813-716-7835","Website":"https:\/\/www.abundantgardens.net\/","Facebook":"https:\/\/www.facebook.com\/AbundantGardensPlantCity\/","Twitter":null,"Instagram":null,"Pinterest":null,"Youtube":null,"Blog":null,"Address":"1211 W. Terrace Dr, Plant City, Florida 33563","State":"Florida","City":"Plant City","Street":"1211 W. Terrace Dr","Zip":"33563","Longitude":"-82.134727","Latitude":"28.0394270","Dates":null,"Products":""},{"Type":"on-farm market","ModifyDate":"Nov 23rd, 2018","Image":"default-onfarmmarket-4-3.jpg","ListingID":"701464","Name":"CoLab Farms","Description":null,"ContactName":"Allison Linn","ContactEmail":"colabfarms@icloud.com","ContactPhone":"5612625113","Website":"www.colabfarms.com","Facebook":"www.facebook.com\/colabfarms","Twitter":null,"Instagram":null,"Pinterest":null,"Youtube":null,"Blog":null,"Address":"12951 SW Paddock Dr, Indiantown, Florida 34956","State":"Florida","City":"Indiantown","Street":"12951 SW Paddock Dr","Zip":"34956","Longitude":"-80.477947","Latitude":"27.047453","Dates":null,"Products":""},{"Type":"on-farm market","ModifyDate":"Nov 29th, 2020","Image":"default-onfarmmarket-4-3.jpg","ListingID":"701569","Name":"Naga Gardens","Description":null,"ContactName":"Ravi Tella","ContactEmail":"nagagardensllc@gmail.com","ContactPhone":"5612474423","Website":"https:\/\/nagagardens.com\/","Facebook":"https:\/\/www.facebook.com\/NagaGardens\/","Twitter":null,"Instagram":null,"Pinterest":null,"Youtube":null,"Blog":null,"Address":"3160 D Road, Loxahatchee, Florida 33470","State":"Florida","City":"Loxahatchee","Street":"3160 D Road","Zip":"33470","Longitude":"-80.272914","Latitude":"26.723246","Dates":null,"Products":""},{"Type":"on-farm market","ModifyDate":"Nov 3rd, 2014","Image":"default-onfarmmarket-4-3.jpg","ListingID":"701162","Name":"Maggies Herb Farm LLC","Description":null,"ContactName":"Maggies Herb Farm LLC","ContactEmail":"maggiesherbs@aol.com","ContactPhone":"904-829-0722","Website":"http:\/\/maggiesherbfarm.com","Facebook":"maggies herb farm","Twitter":null,"Instagram":null,"Pinterest":null,"Youtube":null,"Blog":null,"Address":"11400 County Road 13N, Saint Augusrine, Florida 32092","State":"Florida","City":"Saint Augusrine","Street":"11400 County Road 13N","Zip":"32092","Longitude":"-81.592435","Latitude":"29.908869","Dates":null,"Products":""},{"Type":"on-farm market","ModifyDate":"Oct 21st, 2014","Image":"default-onfarmmarket-4-3.jpg","ListingID":"701148","Name":"Shepperds Farms","Description":null,"ContactName":"Bruce Douglas","ContactEmail":"Joylynne@windstream.net","ContactPhone":"904-879-7559","Website":"Shepperdsfarms@gmail.com","Facebook":null,"Twitter":null,"Instagram":null,"Pinterest":null,"Youtube":null,"Blog":null,"Address":"35622 Braddock Road, Callahan, Florida 32011","State":"Florida","City":"Callahan","Street":"35622 Braddock Road","Zip":"32011","Longitude":"-81.864069","Latitude":"30.611727","Dates":null,"Products":""},{"Type":"on-farm market","ModifyDate":"Oct 30th, 2014","Image":"default-onfarmmarket-4-3.jpg","ListingID":"701157","Name":"Brown's Country Market","Description":null,"ContactName":"Alisha Brown","ContactEmail":"info@brownandbrownfarms.com","ContactPhone":"352.303.1550","Website":"http:\/\/www.brownandbrownfarms.com\/browns-country-market","Facebook":"https:\/\/www.facebook.com\/pages\/Browns-Country-Market\/162179200496592","Twitter":null,"Instagram":null,"Pinterest":null,"Youtube":null,"Blog":null,"Address":"13992 North U.S. 301, Oxford, Florida 34484","State":"Florida","City":"Oxford","Street":"13992 North U.S. 301","Zip":"34484","Longitude":"-82.037570","Latitude":"28.9490610","Dates":null,"Products":""},{"Type":"on-farm market","ModifyDate":"Oct 8th, 2014","Image":"default-onfarmmarket-4-3.jpg","ListingID":"701130","Name":"Shadowood Farm, Inc.","Description":null,"ContactName":"Sarah W. Fenton","ContactEmail":"shadowoodfarm@gmail.com","ContactPhone":"772-781-5777","Website":"http:\/\/www.shadowoodfarm.com\/","Facebook":null,"Twitter":null,"Instagram":null,"Pinterest":null,"Youtube":null,"Blog":null,"Address":"6220 SW Martin Highway, Palm City, Florida 34990","State":"Florida","City":"Palm City","Street":"6220 SW Martin Highway","Zip":"34990","Longitude":"-80.337821","Latitude":"27.161413","Dates":null,"Products":""},{"Type":"on-farm market","ModifyDate":"Sep 16th, 2014","Image":"default-onfarmmarket-4-3.jpg","ListingID":"700671","Name":"Marks Upick Blueberries","Description":null,"ContactName":"Mark McCaffrey","ContactEmail":"marksblueberries@aol.com","ContactPhone":"352-394-2135","Website":"www.marksblueberries.com","Facebook":null,"Twitter":null,"Instagram":null,"Pinterest":null,"Youtube":null,"Blog":null,"Address":"18900 County Road  561, Clermont, Florida 34715","State":"Florida","City":"Clermont","Street":"18900 County Road  561","Zip":"34715","Longitude":"-81.757577","Latitude":"28.6212576","Dates":null,"Products":""},{"Type":"on-farm market","ModifyDate":"Sep 17th, 2014","Image":"default-onfarmmarket-4-3.jpg","ListingID":"700476","Name":"Glovers Blueberries","Description":null,"ContactName":"Richard Glover","ContactEmail":"Stanair@aol.com","ContactPhone":"813-763-0399","Website":"stanair@aol.com","Facebook":null,"Twitter":null,"Instagram":null,"Pinterest":null,"Youtube":null,"Blog":null,"Address":"4612 S. Calhoun Road, Plant City, Florida 33567","State":"Florida","City":"Plant City","Street":"4612 S. Calhoun Road","Zip":"33567","Longitude":"-82.165974","Latitude":"27.9509030","Dates":null,"Products":""},{"Type":"on-farm market","ModifyDate":"Sep 18th, 2020","Image":"default-onfarmmarket-4-3.jpg","ListingID":"701557","Name":"East Fork Creek, Inc.","Description":null,"ContactName":"Frans Kox","ContactEmail":"orders@eastforkcreek.com","ContactPhone":"239-345-3276","Website":"https:\/\/eastforkcreek.com\/","Facebook":"https:\/\/facebook.com\/eastforkcreekfarm","Twitter":null,"Instagram":null,"Pinterest":null,"Youtube":null,"Blog":null,"Address":"6901 Hendry Creek Drive, Fort Myers, Florida 33908","State":"Florida","City":"Fort Myers","Street":"6901 Hendry Creek Drive","Zip":"33908","Longitude":"-81.868391","Latitude":"26.516756","Dates":null,"Products":""},{"Type":"on-farm market","ModifyDate":"Sep 19th, 2014","Image":"default-onfarmmarket-4-3.jpg","ListingID":"700585","Name":"Tom West Blueberries","Description":null,"ContactName":"Susan Hembree","ContactEmail":"Susan@tomwestblueberries.com","ContactPhone":"407-656-3223","Website":"www.tomwestblueberries.com","Facebook":"facebook.com\/tomwestblueberries.","Twitter":null,"Instagram":null,"Pinterest":null,"Youtube":null,"Blog":null,"Address":"324 E. Orlando Avenue, Ocoee, Florida 34761","State":"Florida","City":"Ocoee","Street":"324 E. Orlando Avenue","Zip":"34761","Longitude":"-81.539775","Latitude":"28.563578","Dates":null,"Products":""},{"Type":"on-farm market","ModifyDate":"Sep 23rd, 2014","Image":"default-onfarmmarket-4-3.jpg","ListingID":"700865","Name":"Baker U-Pick Blueberries","Description":null,"ContactName":"John Richardson","ContactEmail":"oldjohn63@gmail.com","ContactPhone":"850-537-0340","Website":null,"Facebook":null,"Twitter":null,"Instagram":null,"Pinterest":null,"Youtube":null,"Blog":null,"Address":"5949 Dairy Road, baker, Florida","State":"Florida","City":"baker","Street":"5949 Dairy Road","Zip":null,"Longitude":"-86.673081","Latitude":"30.8061770","Dates":null,"Products":""},{"Type":"on-farm market","ModifyDate":"Sep 30th, 2014","Image":"default-onfarmmarket-4-3.jpg","ListingID":"700536","Name":"Brook Hollow Hydroponics Strawberry Farm","Description":null,"ContactName":"Ellen Annis","ContactEmail":"BrookHollowFarm@cfl.rr.com","ContactPhone":"407-234-9877","Website":"www.thebrookhollowfarm.com","Facebook":"www.facebook.com\/thebrookhollowfarm","Twitter":null,"Instagram":null,"Pinterest":null,"Youtube":null,"Blog":null,"Address":"8505 Silver Star Road, Orlando, Florida 32818","State":"Florida","City":"Orlando","Street":"8505 Silver Star Road","Zip":"32818","Longitude":"-81.501306","Latitude":"28.577967","Dates":null,"Products":""},{"Type":"on-farm market","ModifyDate":"Sep 4th, 2015","Image":"default-onfarmmarket-4-3.jpg","ListingID":"701296","Name":"Valley View Vineyards","Description":null,"ContactName":"Tracey Estok","ContactEmail":"traceyestok@valleyviewvineyards.com","ContactPhone":"3522434032","Website":null,"Facebook":"Valley View Vineyards","Twitter":null,"Instagram":null,"Pinterest":null,"Youtube":null,"Blog":null,"Address":"22310 County Road 455, Howey in the Hills, Florida 34737","State":"Florida","City":"Howey in the Hills","Street":"22310 County Road 455","Zip":"34737","Longitude":"-81.766621","Latitude":"28.667251","Dates":null,"Products":""},{"Type":"on-farm market","ModifyDate":"Sep 6th, 2014","Image":"default-onfarmmarket-4-3.jpg","ListingID":"701029","Name":"Tropical Acres Farms Inc","Description":null,"ContactName":"Alexander Salazar","ContactEmail":"Tropicalacresfarms@gmail.com","ContactPhone":"561-358-8566","Website":null,"Facebook":"Facebook.com\/TropicalAcresFarms","Twitter":null,"Instagram":null,"Pinterest":null,"Youtube":null,"Blog":null,"Address":"1010 Camellia road, West Palm Beach , Florida 33405","State":"Florida","City":"West Palm Beach","Street":"1010 Camellia road","Zip":"33405","Longitude":"-80.066421","Latitude":"26.6720180","Dates":null,"Products":""},{"Type":"on-farm market","ModifyDate":"Sep 7th, 2014","Image":"default-onfarmmarket-4-3.jpg","ListingID":"701033","Name":"Vo-LaSalle Farms, Inc","Description":null,"ContactName":"Steve Crump","ContactEmail":"Stevenscrump@hotmail.com","ContactPhone":"386-985-0046","Website":"Www.giftfruitfromflorida.com","Facebook":"Vo-LaSalle Farms","Twitter":null,"Instagram":null,"Pinterest":null,"Youtube":null,"Blog":null,"Address":"601 Johnson Lake Rd, DeLeon Springs, Florida 32130","State":"Florida","City":"DeLeon Springs","Street":"601 Johnson Lake Rd","Zip":"32130","Longitude":"-81.348352","Latitude":"29.154785","Dates":null,"Products":""}]