[{"Type":"on-farm market","ModifyDate":"Aug 13th, 2014","Image":"default-onfarmmarket-4-3.jpg","ListingID":"700633","Name":"Lower 35 Farm Stand","Description":null,"ContactName":"Rickie Bauer","ContactEmail":"Bauer5681@aol.com","ContactPhone":"603-520-2640","Website":null,"Facebook":null,"Twitter":null,"Instagram":null,"Pinterest":null,"Youtube":null,"Blog":null,"Address":"Hunkins Pond Road, Sanbornton, New Hampshire 03269","State":"New Hampshire","City":"Sanbornton","Street":"Hunkins Pond Road","Zip":"03269","Longitude":"-71.546131","Latitude":"43.509974","Dates":null,"Products":""},{"Type":"on-farm market","ModifyDate":"Aug 14th, 2014","Image":"default-onfarmmarket-4-3.jpg","ListingID":"700513","Name":"RoseMartin Farms","Description":null,"ContactName":"RoseMartin Farm","ContactEmail":"cmartinchas@surfbest.net","ContactPhone":"603-837-3045","Website":null,"Facebook":null,"Twitter":null,"Instagram":null,"Pinterest":null,"Youtube":null,"Blog":null,"Address":"960 Whitefield Road (route 142), Dalton, New Hampshire 3598","State":"New Hampshire","City":"Dalton","Street":"960 Whitefield Road (route 142)","Zip":"3598","Longitude":"-71.694809","Latitude":"44.4158924","Dates":null,"Products":""},{"Type":"on-farm market","ModifyDate":"Aug 22nd, 2014","Image":"default-onfarmmarket-4-3.jpg","ListingID":"700887","Name":"Dietz's Farm","Description":null,"ContactName":"Robert Diertz","ContactEmail":"maldenpd@msn.com","ContactPhone":"603-694-2041","Website":null,"Facebook":null,"Twitter":null,"Instagram":null,"Pinterest":null,"Youtube":null,"Blog":null,"Address":"1028 Main Rd, Chatham , New Hampshire 03813","State":"New Hampshire","City":"Chatham","Street":"1028 Main Rd","Zip":"03813","Longitude":"-71.006856","Latitude":"44.1648428","Dates":null,"Products":""},{"Type":"on-farm market","ModifyDate":"Aug 22nd, 2014","Image":"default-onfarmmarket-4-3.jpg","ListingID":"700889","Name":"Cornucopia Farm","Description":null,"ContactName":"Cheryl Frey","ContactEmail":"Ckordas@mcttelecom.com","ContactPhone":"(603)848-2630","Website":"http:\/\/www.cornucopiafarmnh.com","Facebook":null,"Twitter":null,"Instagram":null,"Pinterest":null,"Youtube":null,"Blog":null,"Address":"53 Woodview Heights, Bradford, New Hampshire 03221","State":"New Hampshire","City":"Bradford","Street":"53 Woodview Heights","Zip":"03221","Longitude":"-71.977336","Latitude":"43.263441","Dates":null,"Products":""},{"Type":"on-farm market","ModifyDate":"Aug 23rd, 2014","Image":"default-onfarmmarket-4-3.jpg","ListingID":"700892","Name":"Jennings Family Farm","Description":null,"ContactName":"Lyn Jennings","ContactEmail":"ljjenningsmv@comcast.net","ContactPhone":"603-672-1281","Website":null,"Facebook":"https:\/\/www.facebook.com\/pages\/Jennings-Family-Farm\/207505105929625","Twitter":null,"Instagram":null,"Pinterest":null,"Youtube":null,"Blog":null,"Address":"58 Weston Hill Road, Mont Vernon, New Hampshire 03057","State":"New Hampshire","City":"Mont Vernon","Street":"58 Weston Hill Road","Zip":"03057","Longitude":"-71.663603","Latitude":"42.9106738","Dates":null,"Products":""},{"Type":"on-farm market","ModifyDate":"Aug 25th, 2014","Image":"default-onfarmmarket-4-3.jpg","ListingID":"700921","Name":"Windy Hill Natural Beef","Description":null,"ContactName":"Windy Hill Natural Beef","ContactEmail":"windyhill038@hotmail.com","ContactPhone":"603-383-8917","Website":"www.windyhillbandb.com\/beef.php","Facebook":null,"Twitter":null,"Instagram":null,"Pinterest":null,"Youtube":null,"Blog":null,"Address":"19 Windy Hill Dr, Jackson, New Hampshire","State":"New Hampshire","City":"Jackson","Street":"19 Windy Hill Dr","Zip":null,"Longitude":"-71.153857","Latitude":"44.172492","Dates":null,"Products":""},{"Type":"on-farm market","ModifyDate":"Aug 26th, 2014","Image":"default-onfarmmarket-4-3.jpg","ListingID":"700394","Name":"Broadview Farm","Description":null,"ContactName":"Sharon McKay","ContactEmail":"broadviewfarm@hotmail.com","ContactPhone":"603-286-9423","Website":"www.broadviewfarm.com","Facebook":null,"Twitter":null,"Instagram":null,"Pinterest":null,"Youtube":null,"Blog":null,"Address":"37 March Road, Sanbornton, New Hampshire 3269","State":"New Hampshire","City":"Sanbornton","Street":"37 March Road","Zip":"3269","Longitude":"-71.593585","Latitude":"43.478446","Dates":null,"Products":""},{"Type":"on-farm market","ModifyDate":"Aug 5th, 2014","Image":"default-onfarmmarket-4-3.jpg","ListingID":"700809","Name":"Huntoon Farm","Description":null,"ContactName":"Donna Sprague","ContactEmail":"huntoonfarm@myfairpoint.net","ContactPhone":"603-768-5579","Website":"huntoonfarm.com","Facebook":"https:\/\/www.facebook.com\/HuntoonFarm","Twitter":null,"Instagram":null,"Pinterest":null,"Youtube":null,"Blog":null,"Address":"46 Huntoon Road, Danbury, New Hampshire 03230","State":"New Hampshire","City":"Danbury","Street":"46 Huntoon Road","Zip":"03230","Longitude":"-71.860923","Latitude":"43.512655","Dates":null,"Products":""},{"Type":"on-farm market","ModifyDate":"Dec 13th, 2022","Image":"default-onfarmmarket-4-3.jpg","ListingID":"701212","Name":"Hemingway Farms","Description":null,"ContactName":"Amy Hemingway","ContactEmail":"amy.hemingway@gmail.com","ContactPhone":"603-826-3336","Website":"www.hemingwayfarms.com","Facebook":"Hemingway Farms","Twitter":null,"Instagram":null,"Pinterest":null,"Youtube":null,"Blog":null,"Address":"1815 Claremont Road, Charlestown, New Hampshire 03603","State":"New Hampshire","City":"Charlestown","Street":"1815 Claremont Road","Zip":"03603","Longitude":"-72.397229","Latitude":"43.283646","Dates":"April to December","Products":"Fresh fruits, Fresh vegetables, Baked goods, Bedding plants, Canned or preserved fruits\/vegetables, Cut flowers, Dairy products., Eggs, Fresh\/dried herbs, Honey, Maple products, Nursery stock"},{"Type":"on-farm market","ModifyDate":"Dec 23rd, 2014","Image":"default-onfarmmarket-4-3.jpg","ListingID":"701182","Name":"Old Orchard farm, LLC","Description":null,"ContactName":"Old Orchard farm, LLC","ContactEmail":"ggcornwell@gmail.com","ContactPhone":"6038660464","Website":"http:\/\/www.oldorchard.farm\/","Facebook":"https:\/\/www.facebook.com\/pages\/Old-Orchard-Farm-LLC\/1402594990003111","Twitter":null,"Instagram":null,"Pinterest":null,"Youtube":null,"Blog":null,"Address":"42 Nute Road, Madbury, New Hampshire 03823","State":"New Hampshire","City":"Madbury","Street":"42 Nute Road","Zip":"03823","Longitude":"-70.975992","Latitude":"43.185385","Dates":null,"Products":""},{"Type":"on-farm market","ModifyDate":"Feb 28th, 2015","Image":"default-onfarmmarket-4-3.jpg","ListingID":"700133","Name":"Grand View Farm","Description":null,"ContactName":"Elizabeth Kelley","ContactEmail":"gvfarms1@gmail.com","ContactPhone":"6036625421","Website":"http:\/\/grandviewfarm.blogspot.com\/","Facebook":"https:\/\/www.facebook.com\/gvfarms1","Twitter":null,"Instagram":null,"Pinterest":null,"Youtube":null,"Blog":null,"Address":"151 Tasker Hill Road, Conway, New Hampshire 03818","State":"New Hampshire","City":"Conway","Street":"151 Tasker Hill Road","Zip":"03818","Longitude":"-71.117469","Latitude":"43.969910","Dates":null,"Products":""},{"Type":"on-farm market","ModifyDate":"Jul 22nd, 2020","Image":"default-onfarmmarket-4-3.jpg","ListingID":"701538","Name":"Market & Cafe at Emery Farm","Description":null,"ContactName":"Holly Philbrick","ContactEmail":"holly@emeryfarm.com","ContactPhone":"603-742-8495","Website":"https:\/\/emeryfarm.com","Facebook":"https:\/\/www.facebook.com\/EmeryFarmNH\/","Twitter":null,"Instagram":null,"Pinterest":null,"Youtube":null,"Blog":"https:\/\/emeryfarm.com\/our-blog","Address":"147 Piscataqua Road, Durham, New Hampshire 03824","State":"New Hampshire","City":"Durham","Street":"147 Piscataqua Road","Zip":"03824","Longitude":"-70.875933","Latitude":"43.132150","Dates":null,"Products":""},{"Type":"on-farm market","ModifyDate":"Jul 26th, 2014","Image":"default-onfarmmarket-4-3.jpg","ListingID":"700322","Name":"Gap Mountain Goats","Description":null,"ContactName":"M\/M Reid","ContactEmail":"Info@GapMountainGoats.com","ContactPhone":null,"Website":"www.GapMountainGoats.com","Facebook":null,"Twitter":null,"Instagram":null,"Pinterest":null,"Youtube":null,"Blog":null,"Address":"875 Jaffrey Road, Marlborough, New Hampshire 3455","State":"New Hampshire","City":"Marlborough","Street":"875 Jaffrey Road","Zip":"3455","Longitude":"-72.156181","Latitude":"42.859482","Dates":null,"Products":""},{"Type":"on-farm market","ModifyDate":"Jul 26th, 2014","Image":"default-onfarmmarket-4-3.jpg","ListingID":"700592","Name":"Russells Blueberries","Description":null,"ContactName":"Peter Russell","ContactEmail":"pmrhop@aol.com","ContactPhone":"603-344-6913","Website":"www.russellcertifiedorganic.com","Facebook":"https:\/\/www.facebook.com\/pages\/Russells-Organic-Blueberries\/115364307642","Twitter":null,"Instagram":null,"Pinterest":null,"Youtube":null,"Blog":null,"Address":"289 Maple Street, Contoocook, New Hampshire 3229","State":"New Hampshire","City":"Contoocook","Street":"289 Maple Street","Zip":"3229","Longitude":"-71.709969","Latitude":"43.215632","Dates":null,"Products":""},{"Type":"on-farm market","ModifyDate":"Jul 26th, 2014","Image":"default-onfarmmarket-4-3.jpg","ListingID":"700641","Name":"Appleview Orchard","Description":null,"ContactName":null,"ContactEmail":"apples@applevieworchard.com","ContactPhone":"603-435-3553","Website":null,"Facebook":null,"Twitter":null,"Instagram":null,"Pinterest":null,"Youtube":null,"Blog":null,"Address":"1266 Upper City Road, Pittsfield, New Hampshire 3263","State":"New Hampshire","City":"Pittsfield","Street":"1266 Upper City Road","Zip":"3263","Longitude":"-71.342297","Latitude":"43.325531","Dates":null,"Products":""},{"Type":"on-farm market","ModifyDate":"Jul 26th, 2014","Image":"default-onfarmmarket-4-3.jpg","ListingID":"700735","Name":"Gould Hill Farm","Description":null,"ContactName":"Tim Bassett","ContactEmail":"info@gouldhillfarm.com","ContactPhone":"603-746-3811","Website":"Http:\/\/Www.gouldhillfarm.com","Facebook":"https:\/\/www.facebook.com\/121710497201","Twitter":"HTTPS:\/\/twitter.com\/gouldhillfarm","Instagram":null,"Pinterest":null,"Youtube":null,"Blog":null,"Address":"656 Gould Hill Road, Hopkinton, New Hampshire 3229","State":"New Hampshire","City":"Hopkinton","Street":"656 Gould Hill Road","Zip":"3229","Longitude":"-71.68936","Latitude":"43.22074","Dates":null,"Products":""},{"Type":"on-farm market","ModifyDate":"Jul 27th, 2014","Image":"default-onfarmmarket-4-3.jpg","ListingID":"700047","Name":"Rocky Meadow Farm","Description":null,"ContactName":"Wayne LeClair","ContactEmail":"wayne@rockymeadowfarm.com","ContactPhone":"603-547-6464","Website":"www.rockymeadowfarm.com","Facebook":"https:\/\/www.facebook.com\/RockyMeadowFarm","Twitter":null,"Instagram":null,"Pinterest":null,"Youtube":null,"Blog":null,"Address":"201 Udall Road, Francestown, New Hampshire 03043","State":"New Hampshire","City":"Francestown","Street":"201 Udall Road","Zip":"03043","Longitude":"-71.844788","Latitude":"42.978013","Dates":null,"Products":""},{"Type":"on-farm market","ModifyDate":"Jul 27th, 2014","Image":"default-onfarmmarket-4-3.jpg","ListingID":"700145","Name":"Elior Acres, LLC","Description":null,"ContactName":"Denise Renk","ContactEmail":"info@EliorAcres.com","ContactPhone":"603-938-2771","Website":"www.EliorAcres.com","Facebook":"https:\/\/www.facebook.com\/EliorAcres","Twitter":null,"Instagram":null,"Pinterest":null,"Youtube":null,"Blog":null,"Address":"2871 State Route 114, Bradford, New Hampshire 03221","State":"New Hampshire","City":"Bradford","Street":"2871 State Route 114","Zip":"03221","Longitude":"-71.911341","Latitude":"43.235200","Dates":null,"Products":""},{"Type":"on-farm market","ModifyDate":"Jul 27th, 2014","Image":"default-onfarmmarket-4-3.jpg","ListingID":"700567","Name":"Running Fox Farm","Description":null,"ContactName":null,"ContactEmail":"runningfoxnh@aol.com","ContactPhone":"603-496-8749","Website":"www.runningfoxfarmnh.com","Facebook":"https:\/\/www.facebook.com\/running.f.farm","Twitter":null,"Instagram":null,"Pinterest":null,"Youtube":null,"Blog":null,"Address":"576 Northwest Road Route 132, Canterbury, New Hampshire 3224","State":"New Hampshire","City":"Canterbury","Street":"576 Northwest Road Route 132","Zip":"3224","Longitude":"-71.565280","Latitude":"43.3372738","Dates":null,"Products":""},{"Type":"on-farm market","ModifyDate":"Jul 27th, 2014","Image":"default-onfarmmarket-4-3.jpg","ListingID":"700569","Name":"Rossview Farm","Description":null,"ContactName":"Donald Ross","ContactEmail":"rossviewfarm@hotmail.com","ContactPhone":"603-228-4872","Website":"www.rossviewfarm.com","Facebook":null,"Twitter":null,"Instagram":null,"Pinterest":null,"Youtube":null,"Blog":null,"Address":"District #5 Road, Concord, New Hampshire 03303","State":"New Hampshire","City":"Concord","Street":"District #5 Road","Zip":"03303","Longitude":"-71.615361","Latitude":"43.217957","Dates":null,"Products":""},{"Type":"on-farm market","ModifyDate":"Jul 28th, 2014","Image":"default-onfarmmarket-4-3.jpg","ListingID":"700053","Name":"Remick Country Doctor Museum and Farm","Description":null,"ContactName":"Karen Downing","ContactEmail":"kdowning@remickmuseum.org","ContactPhone":"603-323-7591","Website":"www.remickmuseum.org","Facebook":"https:\/\/www.facebook.com\/remickcountrydoctormuseumandfarm","Twitter":null,"Instagram":null,"Pinterest":null,"Youtube":null,"Blog":null,"Address":"58 Cleveland Hill Rd, Tamworth, New Hampshire 03886","State":"New Hampshire","City":"Tamworth","Street":"58 Cleveland Hill Rd","Zip":"03886","Longitude":"-71.268301","Latitude":"43.8584337","Dates":null,"Products":""},{"Type":"on-farm market","ModifyDate":"Jul 31st, 2014","Image":"default-onfarmmarket-4-3.jpg","ListingID":"700628","Name":"BerryKnoll","Description":null,"ContactName":"Linda Sorensen","ContactEmail":"bestberrylady@gmail.com","ContactPhone":"603-447-4844","Website":"BerryKnoll.com","Facebook":null,"Twitter":null,"Instagram":null,"Pinterest":null,"Youtube":null,"Blog":null,"Address":"67 Old Portland Rd., off Brownfield Road, Eaton, New Hampshire 03832","State":"New Hampshire","City":"Eaton","Street":"67 Old Portland Rd., off Brownfield Road","Zip":"03832","Longitude":"-71.010638","Latitude":"43.916591","Dates":null,"Products":""},{"Type":"on-farm market","ModifyDate":"Jun 11th, 2020","Image":"default-onfarmmarket-4-3.jpg","ListingID":"701526","Name":"Highland View Farm","Description":null,"ContactName":"Karen West","ContactEmail":"highlandviewfarmalstead@gmail.com","ContactPhone":"6072264855","Website":"https:\/\/www.highlandviewfreerange.com\/","Facebook":null,"Twitter":null,"Instagram":null,"Pinterest":null,"Youtube":null,"Blog":null,"Address":"26 Sunset Cir, Alstead, New Hampshire 03602","State":"New Hampshire","City":"Alstead","Street":"26 Sunset Cir","Zip":"03602","Longitude":"-72.364887","Latitude":"43.128949","Dates":null,"Products":""},{"Type":"on-farm market","ModifyDate":"Mar 22nd, 2015","Image":"default-onfarmmarket-4-3.jpg","ListingID":"700292","Name":"Arbutus Hill Farm","Description":null,"ContactName":"Jennifer Mayo","ContactEmail":"jennifer@ladyfarmer.com","ContactPhone":"508-681-9921","Website":"www.ladyfarmer.com","Facebook":null,"Twitter":null,"Instagram":null,"Pinterest":null,"Youtube":null,"Blog":null,"Address":"150 Arbutus Hill Rd, Meredith, New Hampshire 03253","State":"New Hampshire","City":"Meredith","Street":"150 Arbutus Hill Rd","Zip":"03253","Longitude":"-71.577164","Latitude":"43.606107","Dates":null,"Products":""},{"Type":"on-farm market","ModifyDate":"Mar 22nd, 2015","Image":"default-onfarmmarket-4-3.jpg","ListingID":"701225","Name":"Apple Haven Farm","Description":null,"ContactName":"Patricia Craig","ContactEmail":"info@applehavenfarm.com","ContactPhone":"603-246-3438","Website":"www.applehavenfarm.com","Facebook":"facebook\/applehavenfarm","Twitter":null,"Instagram":null,"Pinterest":null,"Youtube":null,"Blog":null,"Address":"829 Piper Hill Road, Stewartstown, New Hampshire 03576","State":"New Hampshire","City":"Stewartstown","Street":"829 Piper Hill Road","Zip":"03576","Longitude":"-71.491190","Latitude":"44.952681","Dates":null,"Products":""},{"Type":"on-farm market","ModifyDate":"Mar 23rd, 2015","Image":"default-onfarmmarket-4-3.jpg","ListingID":"700781","Name":"Butternut Farm LLC","Description":null,"ContactName":"Edward Burnap","ContactEmail":"giffandmae@butternutfarm.net","ContactPhone":"603 335-4705","Website":"www.Butternutfarm.net","Facebook":null,"Twitter":null,"Instagram":null,"Pinterest":null,"Youtube":null,"Blog":null,"Address":"195 Meaderboro Road, Farmington, New Hampshire 03835","State":"New Hampshire","City":"Farmington","Street":"195 Meaderboro Road","Zip":"03835","Longitude":"-71.068903","Latitude":"43.323159","Dates":null,"Products":""},{"Type":"on-farm market","ModifyDate":"Mar 23rd, 2015","Image":"default-onfarmmarket-4-3.jpg","ListingID":"700875","Name":"Hidden Acres Farm","Description":null,"ContactName":"Hidden Acres Farm","ContactEmail":"HAF10@outlook.com","ContactPhone":"603 421-4782","Website":null,"Facebook":null,"Twitter":null,"Instagram":null,"Pinterest":null,"Youtube":null,"Blog":null,"Address":"42 Thornell Rd., Newton, New Hampshire 03858","State":"New Hampshire","City":"Newton","Street":"42 Thornell Rd.","Zip":"03858","Longitude":"-71.054062","Latitude":"42.8639228","Dates":null,"Products":""},{"Type":"on-farm market","ModifyDate":"Mar 24th, 2015","Image":"default-onfarmmarket-4-3.jpg","ListingID":"700876","Name":"Paradise Farm LLC","Description":null,"ContactName":"Wayne and Adrienne Colsia","ContactEmail":"Wayne@Paradisefarmnh.com","ContactPhone":"603 345-0860","Website":"Paradisefarmnh.com","Facebook":null,"Twitter":null,"Instagram":null,"Pinterest":null,"Youtube":null,"Blog":null,"Address":"468 Center Rd., Lyndeborough, New Hampshire 03082","State":"New Hampshire","City":"Lyndeborough","Street":"468 Center Rd.","Zip":"03082","Longitude":"-71.733994","Latitude":"42.8709851","Dates":null,"Products":""},{"Type":"on-farm market","ModifyDate":"Mar 24th, 2015","Image":"default-onfarmmarket-4-3.jpg","ListingID":"700908","Name":"Hatches Orchard","Description":null,"ContactName":"Elaine Hatch","ContactEmail":"e.hatch@yahoo.com","ContactPhone":"603-447-5687","Website":"none","Facebook":"none","Twitter":null,"Instagram":null,"Pinterest":null,"Youtube":null,"Blog":"none","Address":"1440 Brownfield Road, Center Conway, New Hampshire 03813","State":"New Hampshire","City":"Center Conway","Street":"1440 Brownfield Road","Zip":"03813","Longitude":"-71.013385","Latitude":"43.9581759","Dates":null,"Products":""},{"Type":"on-farm market","ModifyDate":"Mar 24th, 2015","Image":"default-onfarmmarket-4-3.jpg","ListingID":"701060","Name":"Tracie's Community Farm, LLC","Description":null,"ContactName":"Tracie Loock","ContactEmail":"farmers@traciesfarm.com","ContactPhone":"(603) 209-1851","Website":"www.traciesfarm.com","Facebook":"https:\/\/www.facebook.com\/pages\/Tracies-Community-Farm-LLC\/172047872823613?ref=hl","Twitter":null,"Instagram":null,"Pinterest":null,"Youtube":null,"Blog":"http:\/\/traciesfarm.com\/wordpress\/?cat=4","Address":"72 Jaffrey Rd., Fitzwilliam, New Hampshire 03447","State":"New Hampshire","City":"Fitzwilliam","Street":"72 Jaffrey Rd.","Zip":"03447","Longitude":"-72.140829","Latitude":"42.782479","Dates":null,"Products":""},{"Type":"on-farm market","ModifyDate":"Mar 26th, 2015","Image":"default-onfarmmarket-4-3.jpg","ListingID":"700066","Name":"Walpole Valley Farms","Description":null,"ContactName":"Chris Caserta","ContactEmail":"chris@walpolevalleyfarms.com","ContactPhone":"603-756-2805","Website":"www.walpolevalleyfarms.com","Facebook":"https:\/\/www.facebook.com\/WalpoleValleyFarms?ref=hl","Twitter":null,"Instagram":null,"Pinterest":null,"Youtube":null,"Blog":null,"Address":"663 Wentworth Road, Walpole, New Hampshire 03608","State":"New Hampshire","City":"Walpole","Street":"663 Wentworth Road","Zip":"03608","Longitude":"-72.425371","Latitude":"43.032428","Dates":null,"Products":""},{"Type":"on-farm market","ModifyDate":"Oct 19th, 2015","Image":"default-onfarmmarket-4-3.jpg","ListingID":"701300","Name":"Paradise Farm LLC","Description":null,"ContactName":"Wayne Colsia","ContactEmail":"Wayne@ParadiseFarmNH.com","ContactPhone":"603-345-0860","Website":"www.ParadiseFarmNH.com","Facebook":"Paradise Farm NH","Twitter":null,"Instagram":null,"Pinterest":null,"Youtube":null,"Blog":null,"Address":"468 Center Rd, Lyndeborough, New Hampshire 03082","State":"New Hampshire","City":"Lyndeborough","Street":"468 Center Rd","Zip":"03082","Longitude":"-71.733994","Latitude":"42.8709851","Dates":null,"Products":""},{"Type":"on-farm market","ModifyDate":"Sep 13th, 2014","Image":"default-onfarmmarket-4-3.jpg","ListingID":"701068","Name":"Six Acre Farm","Description":null,"ContactName":"Rick Gagne","ContactEmail":"sixacrefarm@yahoo.com","ContactPhone":"sixacrefarm@yahoo.co","Website":"sixacrefarm.com","Facebook":null,"Twitter":null,"Instagram":null,"Pinterest":null,"Youtube":null,"Blog":null,"Address":"141 Spruceville Rd, Milan, New Hampshire 03588","State":"New Hampshire","City":"Milan","Street":"141 Spruceville Rd","Zip":"03588","Longitude":"-71.309134","Latitude":"44.590829","Dates":null,"Products":""},{"Type":"on-farm market","ModifyDate":"Sep 16th, 2014","Image":"default-onfarmmarket-4-3.jpg","ListingID":"700738","Name":"Demeritt Hill Farm","Description":null,"ContactName":"Meg Wilson","ContactEmail":"info@demeritthillfarm.com","ContactPhone":"(603) 868-2111","Website":"www.demeritthillfarm.com","Facebook":"https:\/\/www.facebook.com\/pages\/DeMeritt-Hill-Farm\/166676763359982?ref=bookmarks","Twitter":"https:\/\/twitter.com\/NHapples","Instagram":null,"Pinterest":null,"Youtube":null,"Blog":null,"Address":"66 Lee Road (route 155), Lee, New Hampshire 3861","State":"New Hampshire","City":"Lee","Street":"66 Lee Road (route 155)","Zip":"3861","Longitude":"-70.967587","Latitude":"43.157470","Dates":null,"Products":""},{"Type":"on-farm market","ModifyDate":"Sep 24th, 2014","Image":"default-onfarmmarket-4-3.jpg","ListingID":"701095","Name":"Farmer John's Plot","Description":null,"ContactName":"John Sandri","ContactEmail":"farmerjohnsplot@gmail.com","ContactPhone":"603-289-5927","Website":"http:\/\/farmerjohnsplot.org\/","Facebook":"https:\/\/www.facebook.com\/farmerjohnsplot?ref=br_tf","Twitter":null,"Instagram":null,"Pinterest":null,"Youtube":null,"Blog":null,"Address":"26 Chesham Road, Dublin, New Hampshire 03444","State":"New Hampshire","City":"Dublin","Street":"26 Chesham Road","Zip":"03444","Longitude":"-72.150907","Latitude":"42.918938","Dates":null,"Products":""},{"Type":"on-farm market","ModifyDate":"Sep 4th, 2015","Image":"default-onfarmmarket-4-3.jpg","ListingID":"700430","Name":"Windcrest Tree Farm","Description":null,"ContactName":"Amy MacDonald","ContactEmail":"windcrestnh@gmail.com","ContactPhone":"603-772-4799","Website":"www.windcrestfarm.info","Facebook":null,"Twitter":null,"Instagram":null,"Pinterest":null,"Youtube":null,"Blog":null,"Address":"35 North Road, East Kingston, New Hampshire 03827","State":"New Hampshire","City":"East Kingston","Street":"35 North Road","Zip":"03827","Longitude":"-70.991808","Latitude":"42.927052","Dates":null,"Products":""}]