[{"Type":"on-farm market","ModifyDate":"Apr 6th, 2021","Image":"default-onfarmmarket-4-3.jpg","ListingID":"701595","Name":"Roaming Bison Ranch","Description":null,"ContactName":"Laura Wheeler","ContactEmail":"info@roamingbisonranch.com","ContactPhone":"14065465197","Website":"https:\/\/roamingbisonranch.com","Facebook":"https:\/\/www.facebook.com\/theroamingbisonranch","Twitter":null,"Instagram":null,"Pinterest":null,"Youtube":null,"Blog":null,"Address":"60756 Watson Road, Saint Ignatius, Montana 59865","State":"Montana","City":"Saint Ignatius","Street":"60756 Watson Road","Zip":"59865","Longitude":"-114.06981","Latitude":"47.330413","Dates":null,"Products":""},{"Type":"on-farm market","ModifyDate":"Aug 14th, 2014","Image":"default-onfarmmarket-4-3.jpg","ListingID":"700093","Name":"Northern Rocky Mountain Alpacas","Description":null,"ContactName":"Dennis L. Duenas","ContactEmail":"dennis@nrmalpacas.com","ContactPhone":"406-600-3835","Website":"www.NRMAlpacas.com","Facebook":"https:\/\/www.facebook.com\/NRMAlpacas","Twitter":null,"Instagram":null,"Pinterest":null,"Youtube":null,"Blog":null,"Address":"1406 Bear Canyon Rd, Bozeman, Montana 59715","State":"Montana","City":"Bozeman","Street":"1406 Bear Canyon Rd","Zip":"59715","Longitude":"-110.93765","Latitude":"45.6367630","Dates":null,"Products":""},{"Type":"on-farm market","ModifyDate":"Feb 19th, 2015","Image":"default-onfarmmarket-4-3.jpg","ListingID":"701214","Name":"Mill Crick Farm","Description":null,"ContactName":"Mill Crick Farm","ContactEmail":"millcrickfarm@gmail.com","ContactPhone":"406 961 8861","Website":null,"Facebook":null,"Twitter":null,"Instagram":null,"Pinterest":null,"Youtube":null,"Blog":null,"Address":"153 Dutch Hill RD, Hamilton, Montana 59840","State":"Montana","City":"Hamilton","Street":"153 Dutch Hill RD","Zip":"59840","Longitude":"-114.16000","Latitude":"46.312555","Dates":null,"Products":""},{"Type":"on-farm market","ModifyDate":"Jan 13th, 2022","Image":"default-onfarmmarket-4-3.jpg","ListingID":"701626","Name":"Uncommon Beef LLC","Description":null,"ContactName":"Catherine Kirchner","ContactEmail":"catherine@uncommonbeef.com","ContactPhone":"4067402510","Website":"www.uncommonbeef.com","Facebook":"https:\/\/www.facebook.com\/uncommonbeef\/","Twitter":null,"Instagram":null,"Pinterest":null,"Youtube":null,"Blog":null,"Address":", Big Timber, Montana 59011","State":"Montana","City":"Big Timber","Street":null,"Zip":"59011","Longitude":"-109.94808","Latitude":"45.834528","Dates":null,"Products":""},{"Type":"on-farm market","ModifyDate":"Jul 30th, 2014","Image":"default-onfarmmarket-4-3.jpg","ListingID":"700237","Name":"Cranky Carl's Farm","Description":null,"ContactName":"Gretchen Kidwell","ContactEmail":"sales@crankycarlsfarm.com","ContactPhone":"406-359-1447","Website":"Http:\/\/wwww.crankycarlsfarm.com","Facebook":null,"Twitter":null,"Instagram":null,"Pinterest":null,"Youtube":null,"Blog":null,"Address":"443 Canyon Creek Rd, Eureka, Montana 59917","State":"Montana","City":"Eureka","Street":"443 Canyon Creek Rd","Zip":"59917","Longitude":"-114.99831","Latitude":"48.909427","Dates":null,"Products":""},{"Type":"on-farm market","ModifyDate":"Jun 2nd, 2017","Image":"default-onfarmmarket-4-3.jpg","ListingID":"701413","Name":"Kyhl Farms","Description":null,"ContactName":"Paula Kyhl","ContactEmail":"paula@kyhlfarms.com","ContactPhone":"4063582483","Website":"www.kyhlfarms.com","Facebook":"www.facebook.com\/KyhlFarmRanch","Twitter":null,"Instagram":null,"Pinterest":null,"Youtube":null,"Blog":null,"Address":"65 Haxton Lane, Melstone , Montana 59054","State":"Montana","City":"Melstone","Street":"65 Haxton Lane","Zip":"59054","Longitude":"-107.79400","Latitude":"46.6918687","Dates":null,"Products":""},{"Type":"on-farm market","ModifyDate":"Mar 23rd, 2015","Image":"default-onfarmmarket-4-3.jpg","ListingID":"700265","Name":"Going to the Sun Fiber Mill LLC","Description":null,"ContactName":"Diana Blair","ContactEmail":"montanamill@gmail.com","ContactPhone":"406-756-6772","Website":"www.gttsfibermill.com","Facebook":"https:\/\/www.facebook.com\/pages\/Going-to-the-Sun-Fiber-Mill-LLC\/294302997264439","Twitter":null,"Instagram":null,"Pinterest":null,"Youtube":null,"Blog":null,"Address":"805 Kienas Rd, Kalispell, Montana 59901","State":"Montana","City":"Kalispell","Street":"805 Kienas Rd","Zip":"59901","Longitude":"-114.44623","Latitude":"48.1933980","Dates":null,"Products":""},{"Type":"on-farm market","ModifyDate":"May 4th, 2015","Image":"default-onfarmmarket-4-3.jpg","ListingID":"701253","Name":"Cherry Creek Gardens & Farms","Description":null,"ContactName":"Helen Tobiason","ContactEmail":"cherrycreekfarms116@yahoo.com","ContactPhone":"406-212-0063","Website":"cherrycreekgardens.com","Facebook":null,"Twitter":null,"Instagram":null,"Pinterest":null,"Youtube":null,"Blog":null,"Address":"116 Treweek Dr, Kalispell , Montana 59901","State":"Montana","City":"Kalispell","Street":"116 Treweek Dr","Zip":"59901","Longitude":"-114.24033","Latitude":"48.114591","Dates":null,"Products":""},{"Type":"on-farm market","ModifyDate":"Sep 16th, 2014","Image":"default-onfarmmarket-4-3.jpg","ListingID":"700372","Name":"Starvation Flats Boer Goats","Description":null,"ContactName":"Debi Kirschten","ContactEmail":"debnmike@midrivers.com","ContactPhone":"406-778-3270","Website":"www.starvationflatsboergoats.com\/","Facebook":null,"Twitter":null,"Instagram":null,"Pinterest":null,"Youtube":null,"Blog":null,"Address":"102 Sheep Corner Rd, Baker, Montana 59313","State":"Montana","City":"Baker","Street":"102 Sheep Corner Rd","Zip":"59313","Longitude":"-104.17730","Latitude":"46.3684280","Dates":null,"Products":""},{"Type":"on-farm market","ModifyDate":"Sep 17th, 2014","Image":"default-onfarmmarket-4-3.jpg","ListingID":"700165","Name":"Carbonado Farm LLC","Description":null,"ContactName":"William Barnes","ContactEmail":"carbonadofarm@mtlamb.com","ContactPhone":"406-962-9032","Website":"httsp:\/\/www.mtlamb.com","Facebook":"https:\/\/www.facebook.com\/CarbonadoFarm","Twitter":null,"Instagram":null,"Pinterest":null,"Youtube":null,"Blog":null,"Address":", Joliet, Montana 59041","State":"Montana","City":"Joliet","Street":null,"Zip":"59041","Longitude":"-109.00900","Latitude":"45.464550","Dates":null,"Products":""}]