[{"Type":"on-farm market","ModifyDate":"Aug 13th, 2014","Image":"default-onfarmmarket-4-3.jpg","ListingID":"700337","Name":"Hickory Bluff Alpaca Farms","Description":null,"ContactName":"Ruth Fuqua","ContactEmail":"hickorybluffalpacas@comcast.net","ContactPhone":"615-444-4765","Website":"www.hickorybluffalpacas@comcast.net","Facebook":"https:\/\/www.facebook.com\/pages\/Hickory-Bluff-Alpaca-Store\/113452238708465","Twitter":null,"Instagram":null,"Pinterest":null,"Youtube":null,"Blog":null,"Address":"7236 Lebanon Road, Mount Juliet, Tennessee 37122","State":"Tennessee","City":"Mount Juliet","Street":"7236 Lebanon Road","Zip":"37122","Longitude":"-86.445603","Latitude":"36.2262720","Dates":null,"Products":""},{"Type":"on-farm market","ModifyDate":"Aug 23rd, 2014","Image":"default-onfarmmarket-4-3.jpg","ListingID":"700893","Name":"Country Meadows Farm","Description":null,"ContactName":"Warren Tamargo","ContactEmail":"cmfarms1950@comcast.net","ContactPhone":"423-829-5694","Website":null,"Facebook":null,"Twitter":null,"Instagram":null,"Pinterest":null,"Youtube":null,"Blog":null,"Address":"111 county road 663, Athens, Tennessee 37303","State":"Tennessee","City":"Athens","Street":"111 county road 663","Zip":"37303","Longitude":"-84.578432","Latitude":"35.408838","Dates":null,"Products":""},{"Type":"on-farm market","ModifyDate":"Aug 26th, 2014","Image":"default-onfarmmarket-4-3.jpg","ListingID":"700949","Name":"Crum Farms Market","Description":null,"ContactName":"Manford Crum","ContactEmail":"toni@crumfarms.com","ContactPhone":"731-336-6995","Website":"www.crumfarms.com","Facebook":null,"Twitter":null,"Instagram":null,"Pinterest":null,"Youtube":null,"Blog":null,"Address":"7865 Jones Bend Rd, Cottage Grove , Tennessee 38224","State":"Tennessee","City":"Cottage Grove","Street":"7865 Jones Bend Rd","Zip":"38224","Longitude":"-88.450047","Latitude":"36.3407380","Dates":null,"Products":""},{"Type":"on-farm market","ModifyDate":"Aug 28th, 2014","Image":"default-onfarmmarket-4-3.jpg","ListingID":"700453","Name":"Trace View Farm","Description":null,"ContactName":"Bernie Ellis","ContactEmail":"tracevu@gmail.com","ContactPhone":"931\/682-2864","Website":null,"Facebook":null,"Twitter":null,"Instagram":null,"Pinterest":null,"Youtube":null,"Blog":null,"Address":"5985 Fly Hollow Road, Santa Fe, Tennessee 38482","State":"Tennessee","City":"Santa Fe","Street":"5985 Fly Hollow Road","Zip":"38482","Longitude":"-87.180602","Latitude":"35.813344","Dates":null,"Products":""},{"Type":"on-farm market","ModifyDate":"Aug 29th, 2014","Image":"default-onfarmmarket-4-3.jpg","ListingID":"700987","Name":"Folsom Farms","Description":null,"ContactName":"Teresa Folsom","ContactEmail":"930folsomfarms@gmail.com","ContactPhone":"615-408-2018","Website":"folsomfarms.com","Facebook":null,"Twitter":null,"Instagram":null,"Pinterest":null,"Youtube":null,"Blog":null,"Address":"930 County Line Road, Alexandria, Tennessee 37012","State":"Tennessee","City":"Alexandria","Street":"930 County Line Road","Zip":"37012","Longitude":"-86.066179","Latitude":"36.0742679","Dates":null,"Products":""},{"Type":"on-farm market","ModifyDate":"Aug 7th, 2014","Image":"default-onfarmmarket-4-3.jpg","ListingID":"700436","Name":"Apples and More Baker Mountain Farm","Description":null,"ContactName":"Baker Mountain Farm","ContactEmail":"Wendy@BakerMountainFarm.com","ContactPhone":"(931)316-9072","Website":"www.BakerMountainFarm.com","Facebook":"www.facebook.com\/BakerMountainFarm","Twitter":null,"Instagram":null,"Pinterest":null,"Youtube":null,"Blog":null,"Address":"351 Pioneer Lane, Spencer, Tennessee 38585","State":"Tennessee","City":"Spencer","Street":"351 Pioneer Lane","Zip":"38585","Longitude":"-85.508244","Latitude":"35.6268090","Dates":null,"Products":""},{"Type":"on-farm market","ModifyDate":"Aug 8th, 2014","Image":"default-onfarmmarket-4-3.jpg","ListingID":"700438","Name":"Sunbright Farm","Description":null,"ContactName":null,"ContactEmail":"wandagoo@hotmail.com","ContactPhone":"6155128581","Website":null,"Facebook":null,"Twitter":null,"Instagram":null,"Pinterest":null,"Youtube":null,"Blog":null,"Address":"4575 Goodman Rd, Adams, Tennessee 37010","State":"Tennessee","City":"Adams","Street":"4575 Goodman Rd","Zip":"37010","Longitude":"-87.090102","Latitude":"36.5341940","Dates":null,"Products":""},{"Type":"on-farm market","ModifyDate":"Aug 9th, 2020","Image":"default-onfarmmarket-4-3.jpg","ListingID":"701549","Name":"Lick Skillet Farm","Description":null,"ContactName":"shannon miller","ContactEmail":"shannon@lickskillet.farm","ContactPhone":"8654755025","Website":"https:\/\/lickskillet.farm\/","Facebook":"https:\/\/www.facebook.com\/lickskilletfarmtn\/?view_public_for=606733313099150","Twitter":null,"Instagram":null,"Pinterest":null,"Youtube":null,"Blog":"https:\/\/lickskillet.farm\/blog","Address":"800 Lick Skillet Lane, new market, Tennessee 37820","State":"Tennessee","City":"new market","Street":"800 Lick Skillet Lane","Zip":"37820","Longitude":"-83.594876","Latitude":"36.096586","Dates":null,"Products":""},{"Type":"on-farm market","ModifyDate":"Aug 9th, 2021","Image":"default-onfarmmarket-4-3.jpg","ListingID":"701607","Name":"Newcomb Family Farm","Description":null,"ContactName":"Shelly Newcomb","ContactEmail":"Newcombfamilyfarm@gmail.com","ContactPhone":"9317979161","Website":null,"Facebook":"https:\/\/m.facebook.com\/108685953854665\/","Twitter":null,"Instagram":null,"Pinterest":null,"Youtube":null,"Blog":null,"Address":"2842 Nashville Hwy1, Lewisburg, Tennessee 37091","State":"Tennessee","City":"Lewisburg","Street":"2842 Nashville Hwy1","Zip":"37091","Longitude":"-86.711984","Latitude":"35.512638","Dates":null,"Products":""},{"Type":"on-farm market","ModifyDate":"Jul 26th, 2014","Image":"default-onfarmmarket-4-3.jpg","ListingID":"700229","Name":"Honeys Blueberry Farm","Description":null,"ContactName":"Terry Skeen","ContactEmail":"ske3077@att.net","ContactPhone":"865-717-9596","Website":null,"Facebook":null,"Twitter":null,"Instagram":null,"Pinterest":null,"Youtube":null,"Blog":null,"Address":"4333 Kingston Hwy, Loudon, Tennessee 37774","State":"Tennessee","City":"Loudon","Street":"4333 Kingston Hwy","Zip":"37774","Longitude":"-84.381906","Latitude":"35.838957","Dates":null,"Products":""},{"Type":"on-farm market","ModifyDate":"Jul 26th, 2014","Image":"default-onfarmmarket-4-3.jpg","ListingID":"700288","Name":"Scott Apiaries","Description":null,"ContactName":"John Scott","ContactEmail":"john.scott@scottapiaries.com","ContactPhone":null,"Website":null,"Facebook":null,"Twitter":null,"Instagram":null,"Pinterest":null,"Youtube":null,"Blog":null,"Address":"3318 Beech Bluff Rd, Jackson, Tennessee 38301","State":"Tennessee","City":"Jackson","Street":"3318 Beech Bluff Rd","Zip":"38301","Longitude":"-88.704793","Latitude":"35.612607","Dates":null,"Products":""},{"Type":"on-farm market","ModifyDate":"Jul 26th, 2014","Image":"default-onfarmmarket-4-3.jpg","ListingID":"700558","Name":"Schrock Honeyacres","Description":null,"ContactName":"Fred Schrock","ContactEmail":"schrockf@gmail.com","ContactPhone":"931 445-3294","Website":null,"Facebook":null,"Twitter":null,"Instagram":null,"Pinterest":null,"Youtube":null,"Blog":null,"Address":"154 Schrock Lane, Monterey, Tennessee 38574","State":"Tennessee","City":"Monterey","Street":"154 Schrock Lane","Zip":"38574","Longitude":"-85.130135","Latitude":"36.200363","Dates":null,"Products":""},{"Type":"on-farm market","ModifyDate":"Jul 27th, 2014","Image":"default-onfarmmarket-4-3.jpg","ListingID":"700212","Name":"The Orchard","Description":null,"ContactName":"Don Henry","ContactEmail":"theorchard13@yahoo.com","ContactPhone":"615-654-9227","Website":"the0rchard13@yahoo.com","Facebook":"none","Twitter":null,"Instagram":null,"Pinterest":null,"Youtube":null,"Blog":"none","Address":"6900 Blackberry Lane, Cross Plains, Tennessee 37049","State":"Tennessee","City":"Cross Plains","Street":"6900 Blackberry Lane","Zip":"37049","Longitude":"-86.750552","Latitude":"36.5423980","Dates":null,"Products":""},{"Type":"on-farm market","ModifyDate":"Jul 27th, 2014","Image":"default-onfarmmarket-4-3.jpg","ListingID":"700380","Name":"Cook's Ranch Beef","Description":null,"ContactName":"Thomas Cook","ContactEmail":"cook1231@bellsouth.net","ContactPhone":"931-358-9358","Website":"http:\/\/www.cooksranchbeef.com\/","Facebook":null,"Twitter":null,"Instagram":null,"Pinterest":null,"Youtube":null,"Blog":null,"Address":"3509 Shady Grove Rd., Clarksville, Tennessee 37043","State":"Tennessee","City":"Clarksville","Street":"3509 Shady Grove Rd.","Zip":"37043","Longitude":"-87.200488","Latitude":"36.476291","Dates":null,"Products":""},{"Type":"on-farm market","ModifyDate":"Jul 27th, 2014","Image":"default-onfarmmarket-4-3.jpg","ListingID":"700715","Name":"J&J Century Farm","Description":null,"ContactName":"Beverly Wall","ContactEmail":"jandjcenturyfarm@yahoo.com","ContactPhone":"931-249-8295","Website":"jandjcenturyfarm.com","Facebook":"https:\/\/www.facebook.com\/pages\/JJ-Century-Farm\/119301329270","Twitter":null,"Instagram":null,"Pinterest":null,"Youtube":null,"Blog":null,"Address":"1219 Saint Michael Rd, Southside, Tennessee 37171","State":"Tennessee","City":"Southside","Street":"1219 Saint Michael Rd","Zip":"37171","Longitude":"-87.320000","Latitude":"36.317353","Dates":null,"Products":""},{"Type":"on-farm market","ModifyDate":"Jul 27th, 2014","Image":"default-onfarmmarket-4-3.jpg","ListingID":"700744","Name":"Brewers Mushrooms","Description":null,"ContactName":"Tammy Brewer","ContactEmail":"info@brewersmushrooms.com","ContactPhone":"423-441-2533","Website":"www.brewersmushrooms.com","Facebook":"https:\/\/www.facebook.com\/brewersmushrooms","Twitter":null,"Instagram":null,"Pinterest":null,"Youtube":null,"Blog":null,"Address":"850 Hide A Way Road, Dandridge, Tennessee 37725","State":"Tennessee","City":"Dandridge","Street":"850 Hide A Way Road","Zip":"37725","Longitude":"-83.538797","Latitude":"35.999641","Dates":null,"Products":""},{"Type":"on-farm market","ModifyDate":"Jul 28th, 2014","Image":"default-onfarmmarket-4-3.jpg","ListingID":"700532","Name":"Hidden Springs Orchard","Description":null,"ContactName":"Brinna Sallee","ContactEmail":"bsblueberries@gmail.com","ContactPhone":"931-529-1166","Website":"http:\/\/www.hiddenspringsorchard.com\/Hidden_Springs_Orchard\/Home.html","Facebook":null,"Twitter":null,"Instagram":null,"Pinterest":null,"Youtube":null,"Blog":null,"Address":"2204 Spring Creek Road, Cookeville, Tennessee 38501","State":"Tennessee","City":"Cookeville","Street":"2204 Spring Creek Road","Zip":"38501","Longitude":"-85.511189","Latitude":"36.321966","Dates":null,"Products":""},{"Type":"on-farm market","ModifyDate":"Jul 28th, 2014","Image":"default-onfarmmarket-4-3.jpg","ListingID":"700691","Name":"Larry Thompson Farm","Description":null,"ContactName":"Larry Thompson","ContactEmail":"Larrythompsonfarm@gmail.com","ContactPhone":"423-753-4429","Website":null,"Facebook":null,"Twitter":null,"Instagram":null,"Pinterest":null,"Youtube":null,"Blog":null,"Address":"236 Charlie Carsom Road, Jonesborough, Tennessee 37659","State":"Tennessee","City":"Jonesborough","Street":"236 Charlie Carsom Road","Zip":"37659","Longitude":"-82.506812","Latitude":"36.188927","Dates":null,"Products":""},{"Type":"on-farm market","ModifyDate":"Jul 29th, 2014","Image":"default-onfarmmarket-4-3.jpg","ListingID":"700632","Name":"Bee Sweet Berry Farm","Description":null,"ContactName":"Ron & Judi Grennier","ContactEmail":"beesweetberryfarm@yahoo.com","ContactPhone":"615-423-4240","Website":"www.beesweetberryfarm.com","Facebook":"https:\/\/www.facebook.com\/beesweetberryfarm","Twitter":null,"Instagram":null,"Pinterest":null,"Youtube":null,"Blog":null,"Address":"1442 Globe Road, Lewisburg, Tennessee 37091","State":"Tennessee","City":"Lewisburg","Street":"1442 Globe Road","Zip":"37091","Longitude":"-86.871369","Latitude":"35.4242822","Dates":null,"Products":""},{"Type":"on-farm market","ModifyDate":"Jul 30th, 2014","Image":"default-onfarmmarket-4-3.jpg","ListingID":"700366","Name":"Blueberries on the Buffalo Farm","Description":null,"ContactName":"Dan and Debbie Eiser","ContactEmail":"eiser@msn.com","ContactPhone":"931-964-4578","Website":"http:\/\/www.localharvest.org\/blueberries-on-the-buffalo-farm-M11313","Facebook":null,"Twitter":null,"Instagram":null,"Pinterest":null,"Youtube":null,"Blog":null,"Address":"78 Cemetery Road, Lawrenceburg, Tennessee 38464","State":"Tennessee","City":"Lawrenceburg","Street":"78 Cemetery Road","Zip":"38464","Longitude":"-87.401452","Latitude":"35.4021592","Dates":null,"Products":""},{"Type":"on-farm market","ModifyDate":"Jul 30th, 2014","Image":"default-onfarmmarket-4-3.jpg","ListingID":"700516","Name":"Country Lane Farm","Description":null,"ContactName":"Jim Holbert","ContactEmail":"cjholbertfarm@gmail.com","ContactPhone":"865-804-2503","Website":null,"Facebook":null,"Twitter":null,"Instagram":null,"Pinterest":null,"Youtube":null,"Blog":null,"Address":"351 Kearney Road, New Market, Tennessee 37820","State":"Tennessee","City":"New Market","Street":"351 Kearney Road","Zip":"37820","Longitude":"-83.535384","Latitude":"36.067779","Dates":null,"Products":""},{"Type":"on-farm market","ModifyDate":"Jul 30th, 2014","Image":"default-onfarmmarket-4-3.jpg","ListingID":"700762","Name":"Rosemark Vinyards","Description":null,"ContactName":"russell hatley","ContactEmail":"hatleyrussell@gmail.com","ContactPhone":"901  829-3258","Website":null,"Facebook":null,"Twitter":null,"Instagram":null,"Pinterest":null,"Youtube":null,"Blog":null,"Address":"8605 Kerrville-Rosemark, Millington, Tennessee 38053","State":"Tennessee","City":"Millington","Street":"8605 Kerrville-Rosemark","Zip":"38053","Longitude":"-89.775799","Latitude":"35.3622159","Dates":null,"Products":""},{"Type":"on-farm market","ModifyDate":"Mar 23rd, 2015","Image":"default-onfarmmarket-4-3.jpg","ListingID":"700142","Name":"Farmer Brown's Hydroponics","Description":null,"ContactName":"JB Brown","ContactEmail":"jborab@blomand.net","ContactPhone":"931-607-3446","Website":"www.mcminnville.locallygrown.net","Facebook":"https:\/\/www.facebook.com\/FarmerBrowns","Twitter":null,"Instagram":null,"Pinterest":null,"Youtube":null,"Blog":null,"Address":"678 Arch Cope Road, Morrison, Tennessee 37357","State":"Tennessee","City":"Morrison","Street":"678 Arch Cope Road","Zip":"37357","Longitude":"-85.856623","Latitude":"35.642861","Dates":null,"Products":""},{"Type":"on-farm market","ModifyDate":"Mar 23rd, 2015","Image":"default-onfarmmarket-4-3.jpg","ListingID":"700631","Name":"Bell Point Farms","Description":null,"ContactName":"Shawn Hensley","ContactEmail":"bellpointfarms@gmail.com","ContactPhone":"931-653-4227","Website":"http:\/\/bellpointfarms.weebly.com","Facebook":"https:\/\/www.facebook.com\/pages\/Bell-Point-Farms\/430747496942129","Twitter":null,"Instagram":null,"Pinterest":null,"Youtube":null,"Blog":null,"Address":"5374 Granville Highway, Granville, Tennessee 38564","State":"Tennessee","City":"Granville","Street":"5374 Granville Highway","Zip":"38564","Longitude":"-85.756980","Latitude":"36.275492","Dates":null,"Products":""},{"Type":"on-farm market","ModifyDate":"Mar 24th, 2015","Image":"default-onfarmmarket-4-3.jpg","ListingID":"700464","Name":"Thedfords Blueberry Patch","Description":null,"ContactName":"Brenda Thedford","ContactEmail":"thedfordw5764@att.net","ContactPhone":"423-365-5764","Website":"www.facebook.com\/pages\/Thedfords-Blueberries\/215898395115204","Facebook":null,"Twitter":null,"Instagram":null,"Pinterest":null,"Youtube":null,"Blog":null,"Address":"100 John Deere Dr., Spring City, Tennessee 37381","State":"Tennessee","City":"Spring City","Street":"100 John Deere Dr.","Zip":"37381","Longitude":"-84.865813","Latitude":"35.665743","Dates":null,"Products":""},{"Type":"on-farm market","ModifyDate":"Mar 26th, 2015","Image":"default-onfarmmarket-4-3.jpg","ListingID":"700385","Name":"Clover Creek Farm","Description":null,"ContactName":"Chris Wilson","ContactEmail":"clovercreekhairsheep@gmail.com","ContactPhone":"423-753-2223","Website":"clovercreekhairsheep.com","Facebook":null,"Twitter":null,"Instagram":null,"Pinterest":null,"Youtube":null,"Blog":null,"Address":"529 Harmony Road, Jonesborough, Tennessee 37659","State":"Tennessee","City":"Jonesborough","Street":"529 Harmony Road","Zip":"37659","Longitude":"-82.569877","Latitude":"36.3583110","Dates":null,"Products":""},{"Type":"on-farm market","ModifyDate":"Mar 2nd, 2022","Image":"default-onfarmmarket-4-3.jpg","ListingID":"701640","Name":"Newcomb Family Farm","Description":null,"ContactName":"Shelly Newcomb","ContactEmail":"Newcombfamilyfarm@gmail.com","ContactPhone":"9317979161","Website":null,"Facebook":null,"Twitter":null,"Instagram":null,"Pinterest":null,"Youtube":null,"Blog":null,"Address":"2842 Nashville Hwy, Lewisburg, Tennessee 37091","State":"Tennessee","City":"Lewisburg","Street":"2842 Nashville Hwy","Zip":"37091","Longitude":"-86.714830","Latitude":"35.512247","Dates":null,"Products":""},{"Type":"on-farm market","ModifyDate":"May 14th, 2015","Image":"default-onfarmmarket-4-3.jpg","ListingID":"701255","Name":"Herron Family Pastures","Description":null,"ContactName":"Kinzi Herron","ContactEmail":"Info@herronfamilypastures.com","ContactPhone":"714-390-5704","Website":"http:\/\/herronfamilypastures.com","Facebook":null,"Twitter":"Twitter.com\/herronpastures","Instagram":null,"Pinterest":null,"Youtube":null,"Blog":null,"Address":"1810 Farmington Drive, Franklin, Tennessee 37069","State":"Tennessee","City":"Franklin","Street":"1810 Farmington Drive","Zip":"37069","Longitude":"-86.875964","Latitude":"35.9842070","Dates":null,"Products":""},{"Type":"on-farm market","ModifyDate":"May 14th, 2015","Image":"default-onfarmmarket-4-3.jpg","ListingID":"701257","Name":"Local Living Farm","Description":null,"ContactName":"Ed Harrison","ContactEmail":"eharrison@smartergardens.com","ContactPhone":"6152606621","Website":"www.locallivingfarm.com","Facebook":"facebook.com\/locallivingfarm","Twitter":"@LocalLivingFarm","Instagram":null,"Pinterest":null,"Youtube":null,"Blog":"www.locallivingfarm\/blog\/","Address":"5318 Hickory Hollow Parkway, Antioch, Tennessee 37013","State":"Tennessee","City":"Antioch","Street":"5318 Hickory Hollow Parkway","Zip":"37013","Longitude":"-86.653208","Latitude":"36.046995","Dates":null,"Products":""},{"Type":"on-farm market","ModifyDate":"Sep 10th, 2021","Image":"default-onfarmmarket-4-3.jpg","ListingID":"701615","Name":"Hoodley Creek","Description":null,"ContactName":"Kathleen Proffitt","ContactEmail":"kk@hoodleycreek.com","ContactPhone":"615-478-9335","Website":"www.hoodleycreek.com","Facebook":"www.facebook.com\/hoodleycreek","Twitter":"hoodleycreek","Instagram":null,"Pinterest":null,"Youtube":null,"Blog":null,"Address":"9840 Baileyton Road, Afton, Tennessee 37616","State":"Tennessee","City":"Afton","Street":"9840 Baileyton Road","Zip":"37616","Longitude":"-82.820628","Latitude":"36.293384","Dates":null,"Products":""},{"Type":"on-farm market","ModifyDate":"Sep 16th, 2014","Image":"default-onfarmmarket-4-3.jpg","ListingID":"700160","Name":"Clear Springs Farm","Description":null,"ContactName":"Jana Graziano","ContactEmail":"Clearspringsbfarm@yahoo.com","ContactPhone":"865-622-0380","Website":"Clearspringsfarm.org","Facebook":"https:\/\/www.facebook.com\/clearspringsfarm","Twitter":null,"Instagram":null,"Pinterest":null,"Youtube":null,"Blog":null,"Address":"8411 Thompson School Rd., Corryton, Tennessee 37721","State":"Tennessee","City":"Corryton","Street":"8411 Thompson School Rd.","Zip":"37721","Longitude":"-83.877905","Latitude":"36.1429509","Dates":null,"Products":""},{"Type":"on-farm market","ModifyDate":"Sep 23rd, 2014","Image":"default-onfarmmarket-4-3.jpg","ListingID":"700837","Name":"John Mixon Farms","Description":null,"ContactName":"Jonathon Mixon","ContactEmail":"Johnmixonfarms@gmail.com","ContactPhone":"8657123079","Website":null,"Facebook":"https:\/\/www.facebook.com\/JohnMixonFarms","Twitter":null,"Instagram":null,"Pinterest":null,"Youtube":null,"Blog":null,"Address":"10499 Lakeshore Drive, Rutledge , Tennessee","State":"Tennessee","City":"Rutledge","Street":"10499 Lakeshore Drive","Zip":null,"Longitude":"-83.440651","Latitude":"36.2389460","Dates":null,"Products":""},{"Type":"on-farm market","ModifyDate":"Sep 23rd, 2014","Image":"default-onfarmmarket-4-3.jpg","ListingID":"701016","Name":"Green Door Gourmet","Description":null,"ContactName":null,"ContactEmail":"info@greendoorgourmet.com","ContactPhone":null,"Website":"http:\/\/www.greendoorgourmet.com\/","Facebook":"https:\/\/www.facebook.com\/GreenDoorGourmet","Twitter":null,"Instagram":null,"Pinterest":null,"Youtube":null,"Blog":null,"Address":"7011 River Road Pike, nashville, Tennessee","State":"Tennessee","City":"nashville","Street":"7011 River Road Pike","Zip":null,"Longitude":"-86.936748","Latitude":"36.1406280","Dates":null,"Products":""},{"Type":"on-farm market","ModifyDate":"Sep 29th, 2014","Image":"default-onfarmmarket-4-3.jpg","ListingID":"700561","Name":"Santa's Berry Farm","Description":null,"ContactName":null,"ContactEmail":"santasberries@yahoo.com","ContactPhone":"423-253-6742","Website":null,"Facebook":"https:\/\/www.facebook.com\/grampysanta?ref=hl","Twitter":null,"Instagram":null,"Pinterest":null,"Youtube":null,"Blog":null,"Address":"620 Towee Falls Road, Tellico Plains, Tennessee 37385","State":"Tennessee","City":"Tellico Plains","Street":"620 Towee Falls Road","Zip":"37385","Longitude":"-84.390989","Latitude":"35.272781","Dates":null,"Products":""},{"Type":"on-farm market","ModifyDate":"Sep 2nd, 2014","Image":"default-onfarmmarket-4-3.jpg","ListingID":"701010","Name":"Walden Farm","Description":null,"ContactName":"Alex McGregor","ContactEmail":"waldenfarm@epbfi.com","ContactPhone":"423-886-6743","Website":null,"Facebook":"www.facebook.com\/waldenorganicfarm","Twitter":null,"Instagram":null,"Pinterest":null,"Youtube":null,"Blog":null,"Address":"840 Murrell Rd., Signal Mountain, Tennessee 37377","State":"Tennessee","City":"Signal Mountain","Street":"840 Murrell Rd.","Zip":"37377","Longitude":"-85.326187","Latitude":"35.150499","Dates":null,"Products":""},{"Type":"on-farm market","ModifyDate":"Sep 2nd, 2014","Image":"default-onfarmmarket-4-3.jpg","ListingID":"701013","Name":"Woodall Farm Strawberries","Description":null,"ContactName":"W Anson Woodall","ContactEmail":"melanwood@aol.com","ContactPhone":"615-513-4439","Website":"Picktnproducts.com","Facebook":"https:\/\/www.facebook.com\/Woodallfarm","Twitter":null,"Instagram":null,"Pinterest":null,"Youtube":null,"Blog":null,"Address":"4452 Kinney\\'s School Road, Cedar Hill, Tennessee 37032","State":"Tennessee","City":"Cedar Hill","Street":"4452 Kinney\\'s School Road","Zip":"37032","Longitude":"-86.938033","Latitude":"36.527640","Dates":null,"Products":""},{"Type":"on-farm market","ModifyDate":"Sep 30th, 2014","Image":"default-onfarmmarket-4-3.jpg","ListingID":"700690","Name":"Little Creek Produce","Description":null,"ContactName":"shari moss","ContactEmail":"lcfproduce@gmail.com","ContactPhone":"931-267-9978    931-","Website":"www.littlecreekproduce.com","Facebook":"little creek produce","Twitter":null,"Instagram":null,"Pinterest":null,"Youtube":null,"Blog":null,"Address":"3500 Gainesboro Grade, Cookeville, Tennessee 38501","State":"Tennessee","City":"Cookeville","Street":"3500 Gainesboro Grade","Zip":"38501","Longitude":"-85.550841","Latitude":"36.204314","Dates":null,"Products":""},{"Type":"on-farm market","ModifyDate":"Sep 4th, 2014","Image":"default-onfarmmarket-4-3.jpg","ListingID":"701021","Name":"Wee","Description":null,"ContactName":"Kara Warwick","ContactEmail":"weeintn@gmail.com","ContactPhone":"423-371-8856","Website":"https:\/\/sites.google.com\/site\/weeintn\/","Facebook":"https:\/\/www.facebook.com\/WEEinTN","Twitter":null,"Instagram":null,"Pinterest":null,"Youtube":null,"Blog":null,"Address":", Sweetwater , Tennessee","State":"Tennessee","City":"Sweetwater","Street":null,"Zip":null,"Longitude":"-84.347185","Latitude":"35.588133","Dates":null,"Products":""}]