[{"Type":"on-farm market","ModifyDate":"Aug 13th, 2014","Image":"default-onfarmmarket-4-3.jpg","ListingID":"700210","Name":"The Farm at Morrison Corner","Description":null,"ContactName":"Peter and Tamara Burke","ContactEmail":"thesheep@woolandfeathers.com","ContactPhone":"802-253-2585","Website":"http:\/\/www.WoolAndFeathers.com","Facebook":null,"Twitter":"https:\/\/www.twitter.com\/Outlander_Adv","Instagram":null,"Pinterest":null,"Youtube":null,"Blog":"http:\/\/www.OutlanderAdventures.com","Address":"Luce Hill, Mansfield, Vermont 5672","State":"Vermont","City":"Mansfield","Street":"Luce Hill","Zip":"5672","Longitude":"-72.641413","Latitude":"44.6058024","Dates":null,"Products":""},{"Type":"on-farm market","ModifyDate":"Aug 13th, 2014","Image":"default-onfarmmarket-4-3.jpg","ListingID":"700576","Name":"Goulden Ridge Farm","Description":null,"ContactName":"Rene Bergeron","ContactEmail":"rene@gouldenridgefarm.com","ContactPhone":"802-558-2082","Website":"gouldenridgefarm.com","Facebook":null,"Twitter":null,"Instagram":null,"Pinterest":null,"Youtube":null,"Blog":null,"Address":"1462 Goulden Ridge Road, Weathersfield, Vermont 05156","State":"Vermont","City":"Weathersfield","Street":"1462 Goulden Ridge Road","Zip":"05156","Longitude":"-72.433193","Latitude":"43.384782","Dates":null,"Products":""},{"Type":"on-farm market","ModifyDate":"Aug 21st, 2014","Image":"default-onfarmmarket-4-3.jpg","ListingID":"700862","Name":"Contented Butterfly Farm","Description":null,"ContactName":"Jennifer Cary","ContactEmail":"contentedbutterfly@yahoo.com","ContactPhone":"802-674-6764","Website":"http:\/\/contentedbutterflyfarm.com\/","Facebook":"https:\/\/www.facebook.com\/pages\/Contented-Butterfly-Farm\/142144959139880","Twitter":"https:\/\/twitter.com\/contentedsheep","Instagram":null,"Pinterest":null,"Youtube":null,"Blog":"http:\/\/contentedbutterfly.blogspot.com\/","Address":"467 Sunset Lane, Windsor, Vermont 05089","State":"Vermont","City":"Windsor","Street":"467 Sunset Lane","Zip":"05089","Longitude":"-72.413269","Latitude":"43.4587519","Dates":null,"Products":""},{"Type":"on-farm market","ModifyDate":"Aug 21st, 2014","Image":"default-onfarmmarket-4-3.jpg","ListingID":"700870","Name":"Noah's Ark Eggs","Description":null,"ContactName":"noah hamilton","ContactEmail":"noahjessehamilton@gmail.com","ContactPhone":"802-353-6161","Website":null,"Facebook":"https:\/\/www.facebook.com\/pages\/Noahs-Ark-Eggs\/351171895026492?ref=bookmarks","Twitter":null,"Instagram":null,"Pinterest":null,"Youtube":null,"Blog":null,"Address":"17 Burke Park Rd., Brandon, Vermont 05733","State":"Vermont","City":"Brandon","Street":"17 Burke Park Rd.","Zip":"05733","Longitude":"-73.060414","Latitude":"43.831267","Dates":null,"Products":""},{"Type":"on-farm market","ModifyDate":"Aug 27th, 2014","Image":"default-onfarmmarket-4-3.jpg","ListingID":"700501","Name":"Woodman Hill Orchard","Description":null,"ContactName":"David Ambrose\/Claudia Ambrose","ContactEmail":"david.ambrose1@gmail.com","ContactPhone":"802-989-2310\/802-989","Website":null,"Facebook":"https:\/\/www.facebook.com\/pickyourownapples802","Twitter":null,"Instagram":null,"Pinterest":null,"Youtube":null,"Blog":null,"Address":"175 Plank Road, Vergennes, Vermont 05491","State":"Vermont","City":"Vergennes","Street":"175 Plank Road","Zip":"05491","Longitude":"-73.231842","Latitude":"44.1632800","Dates":null,"Products":""},{"Type":"on-farm market","ModifyDate":"Aug 31st, 2014","Image":"default-onfarmmarket-4-3.jpg","ListingID":"700998","Name":"Hurricane Flats","Description":null,"ContactName":"Tom Honigford","ContactEmail":"hurricaneflats@myfairpoint.net","ContactPhone":"802-763-7446","Website":"www.hurricaneflats.com","Facebook":"https:\/\/www.facebook.com\/HurricaneFlats","Twitter":null,"Instagram":null,"Pinterest":null,"Youtube":null,"Blog":null,"Address":"975 S. Windsor St, South Royalton, Vermont 05068","State":"Vermont","City":"South Royalton","Street":"975 S. Windsor St","Zip":"05068","Longitude":"-72.509874","Latitude":"43.8096690","Dates":null,"Products":""},{"Type":"on-farm market","ModifyDate":"Dec 3rd, 2014","Image":"default-onfarmmarket-4-3.jpg","ListingID":"701177","Name":"The Last Resort Farm","Description":null,"ContactName":"Eugenie Doyle","ContactEmail":"edoyle@madriver.com","ContactPhone":"8024532847","Website":"www.lastresortfarm.com","Facebook":"last resort farm","Twitter":null,"Instagram":null,"Pinterest":null,"Youtube":null,"Blog":null,"Address":"2246 Tyler Bridge Rd., Bristol, Vermont 05443","State":"Vermont","City":"Bristol","Street":"2246 Tyler Bridge Rd.","Zip":"05443","Longitude":"-73.098989","Latitude":"44.266250","Dates":null,"Products":""},{"Type":"on-farm market","ModifyDate":"Feb 20th, 2015","Image":"default-onfarmmarket-4-3.jpg","ListingID":"700097","Name":"Mom & Pop's World's Best Vermont Maple Syrup","Description":null,"ContactName":"Ray Gendron","ContactEmail":"info@MomAndPopsMaple.com","ContactPhone":"802-767-3731","Website":"http:\/\/www.MomAndPopsMaple.com","Facebook":"http:\/\/www.facebook.com\/MomAndPopsMaple","Twitter":"http:\/\/twitter.com\/MomAndPopsMaple","Instagram":null,"Pinterest":null,"Youtube":null,"Blog":null,"Address":"3425 Brandon Mountain Road, Rochester, Vermont 05767","State":"Vermont","City":"Rochester","Street":"3425 Brandon Mountain Road","Zip":"05767","Longitude":"-72.865843","Latitude":"43.8546987","Dates":null,"Products":""},{"Type":"on-farm market","ModifyDate":"Jul 26th, 2014","Image":"default-onfarmmarket-4-3.jpg","ListingID":"700069","Name":"The Farm of Milk and Honey","Description":null,"ContactName":"Ryan Hayes","ContactEmail":"farmofmilkandhoney@gmail.com","ContactPhone":"802-685-3052","Website":"www.farmofmilkandhoney.com","Facebook":"https:\/\/www.facebook.com\/pages\/The-Farm-of-Milk-and-Honey\/472558206183989","Twitter":null,"Instagram":null,"Pinterest":null,"Youtube":null,"Blog":null,"Address":"663 Doyle Road, Washington, Vermont 05675","State":"Vermont","City":"Washington","Street":"663 Doyle Road","Zip":"05675","Longitude":"-72.454976","Latitude":"44.040666","Dates":null,"Products":""},{"Type":"on-farm market","ModifyDate":"Jul 26th, 2014","Image":"default-onfarmmarket-4-3.jpg","ListingID":"700154","Name":"Creamery Bridge Farm","Description":null,"ContactName":"Titus Presler","ContactEmail":"titus@creamerybridgefarm.com","ContactPhone":"9173926217","Website":"Creamerybridgefarm.com","Facebook":"https:\/\/www.facebook.com\/creamerybridgefarm","Twitter":null,"Instagram":null,"Pinterest":null,"Youtube":null,"Blog":null,"Address":"2534 Hill West Road, Montgomery, Vermont 05471","State":"Vermont","City":"Montgomery","Street":"2534 Hill West Road","Zip":"05471","Longitude":"-72.644756","Latitude":"44.866276","Dates":null,"Products":""},{"Type":"on-farm market","ModifyDate":"Jul 26th, 2014","Image":"default-onfarmmarket-4-3.jpg","ListingID":"700535","Name":"Browns Beautiful Blueberries","Description":null,"ContactName":"Phillip Lovely","ContactEmail":"brownlovely1@gmail.com","ContactPhone":"802 586-2202","Website":null,"Facebook":null,"Twitter":null,"Instagram":null,"Pinterest":null,"Youtube":null,"Blog":null,"Address":"493 Coburn Hill Road, Craftsbury, Vermont 5827","State":"Vermont","City":"Craftsbury","Street":"493 Coburn Hill Road","Zip":"5827","Longitude":"-72.414330","Latitude":"44.6628950","Dates":null,"Products":""},{"Type":"on-farm market","ModifyDate":"Jul 26th, 2014","Image":"default-onfarmmarket-4-3.jpg","ListingID":"700688","Name":"Lester Farm and Market","Description":null,"ContactName":"Sam Lester","ContactEmail":"lesterfarm@yahoo.com","ContactPhone":"802-453-3132","Website":"contact@lesterfarmmarket.com","Facebook":"https:\/\/www.facebook.com\/LesterFarmProduce","Twitter":null,"Instagram":null,"Pinterest":null,"Youtube":null,"Blog":null,"Address":"2297 Ethan Allen Highway (route 7), New Haven, Vermont 5472","State":"Vermont","City":"New Haven","Street":"2297 Ethan Allen Highway (route 7)","Zip":"5472","Longitude":"-73.176670","Latitude":"44.081882","Dates":null,"Products":""},{"Type":"on-farm market","ModifyDate":"Jul 27th, 2014","Image":"default-onfarmmarket-4-3.jpg","ListingID":"700773","Name":"Burtt's Apple Orchard","Description":null,"ContactName":"Greg Burtt","ContactEmail":"gregburtt@gmail.com","ContactPhone":"802-917-2614","Website":"www.burttsappleorchard.com","Facebook":"www.facebook.com\/burtts.appleorchard","Twitter":null,"Instagram":null,"Pinterest":null,"Youtube":null,"Blog":null,"Address":"283 Cabot Plains Rd, Cabot, Vermont 5647","State":"Vermont","City":"Cabot","Street":"283 Cabot Plains Rd","Zip":"5647","Longitude":"-72.291750","Latitude":"44.420976","Dates":null,"Products":""},{"Type":"on-farm market","ModifyDate":"Jul 28th, 2014","Image":"default-onfarmmarket-4-3.jpg","ListingID":"700573","Name":"Morse Hillside Farm","Description":null,"ContactName":"Reginald A Morse","ContactEmail":"rmorse@morsehillsidefarm.com","ContactPhone":"802-878-3096","Website":"www Morse  Hillside Farm .com","Facebook":"https:\/\/www.facebook.com\/pages\/Morse-Hillside-Farm\/116904021679356","Twitter":null,"Instagram":null,"Pinterest":null,"Youtube":null,"Blog":null,"Address":"681 Osgood Hill Road, Westford, Vermont 5494","State":"Vermont","City":"Westford","Street":"681 Osgood Hill Road","Zip":"5494","Longitude":"-72.999891","Latitude":"44.564191","Dates":null,"Products":""},{"Type":"on-farm market","ModifyDate":"Jul 30th, 2014","Image":"default-onfarmmarket-4-3.jpg","ListingID":"700272","Name":"Square Deal Farm","Description":null,"ContactName":"Ray Lewis","ContactEmail":"mail@squaredealfarm.org","ContactPhone":"802-563-2441","Website":"squaredealfarm.org","Facebook":null,"Twitter":null,"Instagram":null,"Pinterest":null,"Youtube":null,"Blog":null,"Address":"362 Woodward Road, Walden, Vermont 05843","State":"Vermont","City":"Walden","Street":"362 Woodward Road","Zip":"05843","Longitude":"-72.102151","Latitude":"44.4646851","Dates":null,"Products":""},{"Type":"on-farm market","ModifyDate":"Jul 31st, 2014","Image":"default-onfarmmarket-4-3.jpg","ListingID":"700010","Name":"Wandering Moose Farms","Description":null,"ContactName":"Jennifer Wright","ContactEmail":"wanderingmoosefarms@franklinvt.net","ContactPhone":"802-285-6844","Website":"http:\/\/wanderingmoosefarms.com","Facebook":"https:\/\/www.facebook.com\/WanderingMooseFarms","Twitter":null,"Instagram":null,"Pinterest":null,"Youtube":null,"Blog":"http:\/\/wanderingmoosefarms.blogspot.com","Address":"1579 Riley Rd, Franklin, Vermont 05457","State":"Vermont","City":"Franklin","Street":"1579 Riley Rd","Zip":"05457","Longitude":"-72.895470","Latitude":"44.9637490","Dates":null,"Products":""},{"Type":"on-farm market","ModifyDate":"Mar 23rd, 2015","Image":"default-onfarmmarket-4-3.jpg","ListingID":"700248","Name":"Burelli Farm","Description":null,"ContactName":"Peter Burmeister","ContactEmail":"peter@burellifarm.com","ContactPhone":"802-224-9049","Website":"www.burellifarm.com","Facebook":null,"Twitter":null,"Instagram":null,"Pinterest":null,"Youtube":null,"Blog":null,"Address":"567 Muzzy Road, Berlin, Vermont 05602","State":"Vermont","City":"Berlin","Street":"567 Muzzy Road","Zip":"05602","Longitude":"-72.640011","Latitude":"44.210772","Dates":null,"Products":""},{"Type":"on-farm market","ModifyDate":"Nov 11th, 2014","Image":"default-onfarmmarket-4-3.jpg","ListingID":"700135","Name":"Gozzard City at Provender Farm","Description":null,"ContactName":"Wesley Bascom","ContactEmail":"wbascom@gmail.com","ContactPhone":"8022741420","Website":"getyourgoose.com","Facebook":"https:\/\/www.facebook.com\/gozzardcity","Twitter":null,"Instagram":null,"Pinterest":null,"Youtube":null,"Blog":null,"Address":"34 Langone Road, Cabot, Vermont 5647","State":"Vermont","City":"Cabot","Street":"34 Langone Road","Zip":"5647","Longitude":"-72.290145","Latitude":"44.4086150","Dates":null,"Products":""},{"Type":"on-farm market","ModifyDate":"Nov 8th, 2014","Image":"default-onfarmmarket-4-3.jpg","ListingID":"700792","Name":"Adams Farm and Meat Processing Shop","Description":null,"ContactName":"ADAMS FARM","ContactEmail":"wiggy01@me.com","ContactPhone":"802-464-3762","Website":"http:\/\/adamsfamilyfarm.com","Facebook":"https:\/\/www.facebook.com\/pages\/Adams-Farm-Wilmington-Vermont\/69664848032","Twitter":null,"Instagram":null,"Pinterest":null,"Youtube":null,"Blog":null,"Address":"15 Higley Hill, Wilmington, Vermont 05363","State":"Vermont","City":"Wilmington","Street":"15 Higley Hill","Zip":"05363","Longitude":"-72.849808","Latitude":"42.9048500","Dates":null,"Products":""},{"Type":"on-farm market","ModifyDate":"Sep 21st, 2014","Image":"default-onfarmmarket-4-3.jpg","ListingID":"700473","Name":"Random Gardens","Description":null,"ContactName":"Steve Gallagher","ContactEmail":null,"ContactPhone":"802-371-9808","Website":"http:\/\/www.randomgardens.com\/","Facebook":null,"Twitter":null,"Instagram":null,"Pinterest":null,"Youtube":null,"Blog":null,"Address":"177 Random Road, Calais, Vermont 5648","State":"Vermont","City":"Calais","Street":"177 Random Road","Zip":"5648","Longitude":"-72.490576","Latitude":"44.393099","Dates":null,"Products":""}]