[{"Type":"farmers market","ModifyDate":"Aug 6th, 2020","Image":"default-farmersmarket-4-3.jpg","ListingID":"301212","Name":"The American Legion Farmers Market","Description":null,"ContactName":"Brittany Stevens","ContactEmail":"farmersmarket@sumterpost15.com","ContactPhone":"803-983-3249","Website":"americanlegionfarmersmarket.com","Facebook":"https:\/\/www.facebook.com\/Americanlegionfarmersmarket\/","Twitter":"n\/a","Instagram":null,"Pinterest":null,"Youtube":"n\/a","Blog":null,"Address":"2 S Artillery Dr, Sumter, South Carolina 29150","State":"South Carolina","City":"Sumter","Street":"2 S Artillery Dr","Zip":"29150","Longitude":"-80.361114","Latitude":"33.919521","Dates":"Year-round","Products":"Fresh fruits, Fresh vegetables, Baked goods, Bedding plants, Canned or preserved fruits\/vegetables, Coffee\/tea, Crafts\/woodworking items, Dairy products., Eggs, Fish\/seafood, Fresh\/dried herbs, Honey, Prepared foods, Red\/other non-poultry meat and products, Soap\/body care products"},{"Type":"farmers market","ModifyDate":"Jan 25th, 2021","Image":"default-farmersmarket-4-3.jpg","ListingID":"300135","Name":"Mount Pleasant Farmers Market","Description":null,"ContactName":"Tracy Richter","ContactEmail":"farmersmarket@tompsc.com","ContactPhone":"843-884-2528","Website":"https:\/\/experiencemountpleasant.com\/events\/farmers-market\/","Facebook":"https:\/\/www.facebook.com\/MountPleasantFarmersMarket","Twitter":null,"Instagram":null,"Pinterest":null,"Youtube":null,"Blog":null,"Address":"645 Coleman Boulevard, Mount Pleasant, South Carolina 29464","State":"South Carolina","City":"Mount Pleasant","Street":"645 Coleman Boulevard","Zip":"29464","Longitude":"-79.873400","Latitude":"32.790718","Dates":"April to September","Products":"Fresh fruits, Fresh vegetables, Baked goods, Bedding plants, Canned or preserved fruits\/vegetables, Coffee\/tea, Cut flowers, Eggs, Fish\/seafood, Fresh\/dried herbs, Honey, Nursery stock, Poultry\/fowl meat and products, Prepared foods, Red\/other non-poultry meat and products"},{"Type":"farmers market","ModifyDate":"Jan 27th, 2021","Image":"default-farmersmarket-4-3.jpg","ListingID":"300026","Name":"North Myrtle Beach Farmers Market","Description":null,"ContactName":"Samantha Tipton","ContactEmail":"stipton@waccamawmarkets.org","ContactPhone":"843-839-4488","Website":"www.waccamawmarkets.org","Facebook":"https:\/\/www.facebook.com\/WaccamawMarketCooperative\/","Twitter":null,"Instagram":null,"Pinterest":null,"Youtube":null,"Blog":null,"Address":"925 First Avenue South, North Myrtle Beach, South Carolina 29582","State":"South Carolina","City":"North Myrtle Beach","Street":"925 First Avenue South","Zip":"29582","Longitude":"-78.683173","Latitude":"33.827655","Dates":"May to October","Products":"Fresh fruits, Fresh vegetables, Baked goods, Canned or preserved fruits\/vegetables, Coffee\/tea, Crafts\/woodworking items, Cut flowers, Dairy products., Eggs, Fish\/seafood, Fresh\/dried herbs, Honey, Juices\/non-alcoholic ciders, Nursery stock, Nuts, Poultry\/fowl meat and products, Prepared foods, Red\/other non-poultry meat and products, Soap\/body care products"},{"Type":"farmers market","ModifyDate":"Jan 27th, 2021","Image":"default-farmersmarket-4-3.jpg","ListingID":"300281","Name":"Surfside Beach Farmers Market","Description":null,"ContactName":"Samantha Tipton","ContactEmail":"stipton@waccamawmarkets.org","ContactPhone":"843-839-4488","Website":"www.waccamawmarkets.org","Facebook":"https:\/\/www.facebook.com\/WaccamawMarketCooperative\/","Twitter":null,"Instagram":null,"Pinterest":null,"Youtube":null,"Blog":null,"Address":"Intersection of Surfside Drive and Willow Drive, Surfside Beach, South Carolina 29575","State":"South Carolina","City":"Surfside Beach","Street":"Intersection of Surfside Drive and Willow Drive","Zip":"29575","Longitude":"-78.974364","Latitude":"33.6069616","Dates":"May to October","Products":"Fresh fruits, Fresh vegetables, Baked goods, Canned or preserved fruits\/vegetables, Coffee\/tea, Crafts\/woodworking items, Cut flowers, Dairy products., Dry beans, Eggs, Fish\/seafood, Fresh\/dried herbs, Honey, Juices\/non-alcoholic ciders, Maple products, Nursery stock, Nuts, Pet food, Poultry\/fowl meat and products, Prepared foods, Red\/other non-poultry meat and products, Soap\/body care products"},{"Type":"farmers market","ModifyDate":"Jan 27th, 2021","Image":"default-farmersmarket-4-3.jpg","ListingID":"300382","Name":"Little River Farmers Market","Description":null,"ContactName":"Samantha Tipton","ContactEmail":"stipton@waccamawmarkets.org","ContactPhone":"843-839-4488","Website":"http:\/\/waccamawmarkets.org\/","Facebook":"https:\/\/www.facebook.com\/WaccamawMarketCooperative\/","Twitter":null,"Instagram":null,"Pinterest":null,"Youtube":null,"Blog":null,"Address":"4461 Mineola Ave, Little River, South Carolina 29566","State":"South Carolina","City":"Little River","Street":"4461 Mineola Ave","Zip":"29566","Longitude":"-78.640489","Latitude":"33.880648","Dates":"May to October","Products":"Fresh fruits, Fresh vegetables, Baked goods, Eggs, Honey, Prepared foods, Soap\/body care products"},{"Type":"farmers market","ModifyDate":"Jan 27th, 2021","Image":"default-farmersmarket-4-3.jpg","ListingID":"300383","Name":"Conway Farmers Market","Description":null,"ContactName":"Samantha Tipton","ContactEmail":"stipton@waccamawmarkets.org","ContactPhone":"843-839-4488","Website":"http:\/\/waccamawmarkets.org\/","Facebook":"https:\/\/www.facebook.com\/WaccamawMarketCooperative\/","Twitter":null,"Instagram":null,"Pinterest":null,"Youtube":null,"Blog":null,"Address":"1029 2nd Ave, Conway, South Carolina 29526","State":"South Carolina","City":"Conway","Street":"1029 2nd Ave","Zip":"29526","Longitude":"-79.044831","Latitude":"33.833331","Dates":"May to October","Products":"Fresh fruits, Fresh vegetables, Baked goods, Canned or preserved fruits\/vegetables, Coffee\/tea, Crafts\/woodworking items, Cut flowers, Dairy products., Eggs, Fish\/seafood, Fresh\/dried herbs, Honey, Juices\/non-alcoholic ciders, Nuts, Poultry\/fowl meat and products, Prepared foods, Red\/other non-poultry meat and products, Soap\/body care products"},{"Type":"farmers market","ModifyDate":"Jan 27th, 2021","Image":"default-farmersmarket-4-3.jpg","ListingID":"300384","Name":"Market Common Farmers Market","Description":null,"ContactName":"Samantha Tipton","ContactEmail":"stipton@waccamawmarkets.org","ContactPhone":"843-839-4488","Website":"http:\/\/waccamawmarkets.org\/","Facebook":"https:\/\/www.facebook.com\/WaccamawMarketCooperative\/","Twitter":null,"Instagram":null,"Pinterest":null,"Youtube":null,"Blog":null,"Address":"Deville St, Myrtle Beach , South Carolina 29577","State":"South Carolina","City":"Myrtle Beach","Street":"Deville St","Zip":"29577","Longitude":"-78.939009","Latitude":"33.6699343","Dates":"May to October","Products":"Fresh fruits, Fresh vegetables, Baked goods, Canned or preserved fruits\/vegetables, Coffee\/tea, Crafts\/woodworking items, Cut flowers, Dairy products., Eggs, Fish\/seafood, Honey, Juices\/non-alcoholic ciders, Nuts, Poultry\/fowl meat and products, Prepared foods, Red\/other non-poultry meat and products, Soap\/body care products"},{"Type":"farmers market","ModifyDate":"Jan 27th, 2021","Image":"default-farmersmarket-4-3.jpg","ListingID":"300385","Name":"Georgetown Farmers Market","Description":null,"ContactName":"Samantha Tipton","ContactEmail":"stipton@waccamawmarkets.org","ContactPhone":"843-839-4488","Website":"http:\/\/waccamawmarkets.org\/","Facebook":"https:\/\/www.facebook.com\/WaccamawMarketCooperative\/","Twitter":null,"Instagram":null,"Pinterest":null,"Youtube":null,"Blog":null,"Address":"122 Screven St, Georgetown, South Carolina 29440","State":"South Carolina","City":"Georgetown","Street":"122 Screven St","Zip":"29440","Longitude":"-79.281782","Latitude":"33.3662089","Dates":"May to October","Products":"Fresh fruits, Baked goods, Canned or preserved fruits\/vegetables, Coffee\/tea, Crafts\/woodworking items, Cut flowers, Dairy products., Eggs, Fish\/seafood, Fresh\/dried herbs, Honey, Juices\/non-alcoholic ciders, Nuts, Poultry\/fowl meat and products, Prepared foods, Red\/other non-poultry meat and products, Soap\/body care products"},{"Type":"farmers market","ModifyDate":"Jan 27th, 2021","Image":"default-farmersmarket-4-3.jpg","ListingID":"300632","Name":"Union County Farm & Craft Market","Description":null,"ContactName":"Elise Ashby (board secretary)","ContactEmail":"robinhoodgroup.sc@gmail.com","ContactPhone":"864-427-1530","Website":null,"Facebook":"Union County Farm & Craft Market","Twitter":null,"Instagram":null,"Pinterest":null,"Youtube":null,"Blog":null,"Address":"106 Lakeside Drive, Union , South Carolina 29379","State":"South Carolina","City":"Union","Street":"106 Lakeside Drive","Zip":"29379","Longitude":"-81.614994","Latitude":"34.716023","Dates":"June to December","Products":"Fresh fruits, Fresh vegetables, Baked goods, Canned or preserved fruits\/vegetables, Crafts\/woodworking items, Eggs, Honey, Juices\/non-alcoholic ciders, Red\/other non-poultry meat and products, Soap\/body care products"},{"Type":"farmers market","ModifyDate":"Jan 7th, 2021","Image":"default-farmersmarket-4-3.jpg","ListingID":"300716","Name":"City Center Farmers Market","Description":null,"ContactName":"Merrette Dowdell","ContactEmail":"mdowdell@cityofflorence.com","ContactPhone":"8436652047","Website":"https:\/\/www.cityofflorence.com\/local-foods-initiative\/city-center-market","Facebook":"https:\/\/www.facebook.com\/citycenterfarmersmarket","Twitter":null,"Instagram":null,"Pinterest":null,"Youtube":null,"Blog":null,"Address":"200 Sanborn Street, Florence, South Carolina 29501","State":"South Carolina","City":"Florence","Street":"200 Sanborn Street","Zip":"29501","Longitude":"-79.773582","Latitude":"34.198789","Dates":"Year-round","Products":"Fresh fruits, Fresh vegetables, Baked goods, Bedding plants, Canned or preserved fruits\/vegetables, Coffee\/tea, Crafts\/woodworking items, Dairy products., Dry beans, Eggs, Fish\/seafood, Fresh\/dried herbs, Grains\/flour, Honey, Juices\/non-alcoholic ciders, Maple products, Mushrooms, Nursery stock, Nuts, Pet food, Poultry\/fowl meat and products, Prepared foods, Red\/other non-poultry meat and products, Soap\/body care products, Wild harvested forest products"},{"Type":"farmers market","ModifyDate":"Jul 17th, 2021","Image":"default-farmersmarket-4-3.jpg","ListingID":"301564","Name":"Kershaw County Farmers Market","Description":null,"ContactName":"Darren Jones","ContactEmail":"manager@kershawcountyfarmersmarket.com","ContactPhone":"8032204160","Website":"https:\/\/www.kershawcountyfarmersmarket.com\/","Facebook":"https:\/\/www.facebook.com\/KCFMMarket","Twitter":null,"Instagram":null,"Pinterest":null,"Youtube":null,"Blog":null,"Address":"906 Broad Street, Camden, South Carolina 29020","State":"South Carolina","City":"Camden","Street":"906 Broad Street","Zip":"29020","Longitude":"-80.606634","Latitude":"34.243195","Dates":"April to November","Products":"Fresh fruits, Fresh vegetables, Baked goods, Bedding plants, Canned or preserved fruits\/vegetables, Coffee\/tea, Crafts\/woodworking items, Cut flowers, Dairy products., Eggs, Honey, Juices\/non-alcoholic ciders, Nursery stock, Nuts, Pet food, Poultry\/fowl meat and products, Prepared foods, Red\/other non-poultry meat and products, Soap\/body care products"},{"Type":"farmers market","ModifyDate":"Jun 13th, 2021","Image":"default-farmersmarket-4-3.jpg","ListingID":"301535","Name":"Bamberg Farmers Market","Description":null,"ContactName":null,"ContactEmail":"cmorrmax@hotmail.com","ContactPhone":"000-000-0000","Website":null,"Facebook":"https:\/\/www.facebook.com\/bambergfarmersmarket\/?ref=page_internal","Twitter":null,"Instagram":null,"Pinterest":null,"Youtube":null,"Blog":null,"Address":"12205 Heritage Hwy, Bamberg , South Carolina 29003","State":"South Carolina","City":"Bamberg","Street":"12205 Heritage Hwy","Zip":"29003","Longitude":"-81.031222","Latitude":"33.300136","Dates":"March to November","Products":"Fresh fruits, Fresh vegetables, Baked goods, Canned or preserved fruits\/vegetables, Crafts\/woodworking items, Eggs, Nuts"},{"Type":"farmers market","ModifyDate":"Mar 27th, 2023","Image":"default-farmersmarket-4-3.jpg","ListingID":"312668","Name":"2600 Bull Street Farmers market","Description":null,"ContactName":null,"ContactEmail":null,"ContactPhone":"803-782-3840","Website":null,"Facebook":null,"Twitter":null,"Instagram":null,"Pinterest":null,"Youtube":null,"Blog":null,"Address":"2600 Bull Street Columbia, SC 29201","State":"South Carolina","City":"Columbia","Street":"2600 Bull Street","Zip":"29201","Longitude":"-81.03745797429646","Latitude":"34.02251420455827","Dates":null,"Products":""},{"Type":"farmers market","ModifyDate":"Mar 27th, 2023","Image":"default-farmersmarket-4-3.jpg","ListingID":"312669","Name":"Abbeville Farmers Market","Description":null,"ContactName":null,"ContactEmail":"thall@abbevillecitysc.com","ContactPhone":"864-391-1103","Website":"https:\/\/agriculture.sc.gov\/farmers-markets\/abbeville-farmers-market\/","Facebook":null,"Twitter":null,"Instagram":null,"Pinterest":null,"Youtube":null,"Blog":null,"Address":"112 N. Main St Abbeville, SC 29620","State":"South Carolina","City":"Abbeville","Street":"112 N. Main St","Zip":"29620","Longitude":"-82.37945865512776","Latitude":"34.17820276835882","Dates":null,"Products":""},{"Type":"farmers market","ModifyDate":"Mar 27th, 2023","Image":"default-farmersmarket-4-3.jpg","ListingID":"312670","Name":"Adam's Mobile Market","Description":null,"ContactName":null,"ContactEmail":"adamsmobilemarket@yahoo.com","ContactPhone":"814-490-4484","Website":"http:\/\/www.adamsmobilemarket.com\/","Facebook":"https:\/\/www.facebook.com\/adamsmobilemarket","Twitter":null,"Instagram":null,"Pinterest":null,"Youtube":null,"Blog":null,"Address":"114 School Rd. , Easley, SC, 29640","State":"South Carolina","City":"Easley","Street":"114 School Rd.","Zip":"29640","Longitude":"-82.52645243613419","Latitude":"34.84880395576496","Dates":null,"Products":""},{"Type":"farmers market","ModifyDate":"Mar 27th, 2023","Image":"default-farmersmarket-4-3.jpg","ListingID":"312671","Name":"All-Local Farmers Market-1","Description":null,"ContactName":null,"ContactEmail":null,"ContactPhone":"803-917-0794","Website":"https:\/\/www.stateplate.org\/","Facebook":null,"Twitter":null,"Instagram":null,"Pinterest":null,"Youtube":null,"Blog":null,"Address":"620 Gervais Street Columbia, SC 29225","State":"South Carolina","City":"Columbia","Street":"620 Gervais Street","Zip":"29225","Longitude":"-81.04313911681348","Latitude":"33.998307039465374","Dates":null,"Products":""},{"Type":"farmers market","ModifyDate":"Mar 27th, 2023","Image":"default-farmersmarket-4-3.jpg","ListingID":"312672","Name":"Anderson County Farmers Market","Description":null,"ContactName":null,"ContactEmail":null,"ContactPhone":"864-231-1924","Website":null,"Facebook":"http:\/\/www.facebook.com\/andersoncountyfarmersmarket","Twitter":null,"Instagram":null,"Pinterest":null,"Youtube":null,"Blog":null,"Address":"402 N. Murray Ave. Anderson, SC 29621","State":"South Carolina","City":"ANDERSON","Street":"402 N MURRAY AVE","Zip":"29625","Longitude":"-82.65247594031095","Latitude":"34.50590366309491","Dates":null,"Products":""},{"Type":"farmers market","ModifyDate":"Mar 27th, 2023","Image":"default-farmersmarket-4-3.jpg","ListingID":"312673","Name":"Ashland United Methodist Church Farmers Market","Description":null,"ContactName":null,"ContactEmail":null,"ContactPhone":"803-782-3840","Website":null,"Facebook":null,"Twitter":null,"Instagram":null,"Pinterest":null,"Youtube":null,"Blog":null,"Address":"2600 Ashland Rd Columbia, SC 29210","State":"South Carolina","City":"Columbia","Street":"2600 Ashland Rd","Zip":"29210","Longitude":"-81.12846149170983","Latitude":"34.04025730616419","Dates":null,"Products":""},{"Type":"farmers market","ModifyDate":"Mar 27th, 2023","Image":"default-farmersmarket-4-3.jpg","ListingID":"312674","Name":"Barnwell Farmers' Market","Description":null,"ContactName":null,"ContactEmail":null,"ContactPhone":null,"Website":"http:\/\/www.cityofbarnwell.com\/farmers-market","Facebook":null,"Twitter":null,"Instagram":null,"Pinterest":null,"Youtube":null,"Blog":null,"Address":"9987 Dunbarton Blvd., Fuller Park, Barnwell, SC, 29812","State":"South Carolina","City":"Barnwell","Street":"9987 Dunbarton Blvd.","Zip":"29812","Longitude":"-81.36798423819859","Latitude":"33.245184641146494","Dates":null,"Products":""},{"Type":"farmers market","ModifyDate":"Mar 27th, 2023","Image":"default-farmersmarket-4-3.jpg","ListingID":"312675","Name":"Bluffton Farmers' Market","Description":null,"ContactName":null,"ContactEmail":"manager@farmersmarketbluffton.org","ContactPhone":"843-415-2447","Website":"http:\/\/www.farmersmarketbluffton.org\/","Facebook":"https:\/\/www.facebook.com\/BlufftonFarmersMarket","Twitter":null,"Instagram":null,"Pinterest":null,"Youtube":null,"Blog":null,"Address":"40 Calhoun St., at Carson Cottages, Bluffton, SC, 29910","State":"South Carolina","City":"Bluffton","Street":"40 Calhoun St.","Zip":"29910","Longitude":"-80.86251290582021","Latitude":"32.2349421982294","Dates":null,"Products":""},{"Type":"farmers market","ModifyDate":"Mar 27th, 2023","Image":"default-farmersmarket-4-3.jpg","ListingID":"312676","Name":"Blythewood Farmers Market","Description":null,"ContactName":null,"ContactEmail":null,"ContactPhone":"803-402-6864","Website":"http:\/\/www.blythewoodfarmersmarket.com","Facebook":"http:\/\/www.facebook.com\/BlythewoodFarmersMarket","Twitter":null,"Instagram":null,"Pinterest":null,"Youtube":null,"Blog":null,"Address":"171 Langford Road Blythewood, SC 29016 Find us in the open field in Doko Meadows Park next to Town Hall on Langford Rd. We have a large parking lot, clean bathrooms, and a playground in the park.","State":"South Carolina","City":"BLYTHEWOOD","Street":"171 LANGFORD RD","Zip":"29016","Longitude":"-80.97112052681392","Latitude":"34.214482634235445","Dates":null,"Products":""},{"Type":"farmers market","ModifyDate":"Mar 27th, 2023","Image":"default-farmersmarket-4-3.jpg","ListingID":"312677","Name":"Cheraw Farmers' Market","Description":null,"ContactName":null,"ContactEmail":"contact@cheraw.com","ContactPhone":"843-623-2134","Website":"http:\/\/www.cheraw.com\/farms_agriculture.php?Farmer-s-Market-1","Facebook":"https:\/\/www.facebook.com\/CHERAWFAMERSMARKET","Twitter":null,"Instagram":null,"Pinterest":null,"Youtube":null,"Blog":null,"Address":"101 Front St., Cheraw, SC, 29520","State":"South Carolina","City":"Cheraw","Street":"101 Front St.","Zip":"29520","Longitude":"-79.8802902806307","Latitude":"34.69705282391181","Dates":null,"Products":""},{"Type":"farmers market","ModifyDate":"Mar 27th, 2023","Image":"default-farmersmarket-4-3.jpg","ListingID":"312678","Name":"Chester Farmers' and Artisan Market","Description":null,"ContactName":null,"ContactEmail":null,"ContactPhone":null,"Website":null,"Facebook":"https:\/\/www.facebook.com\/ChesterFarmAndFoodCenter","Twitter":null,"Instagram":null,"Pinterest":null,"Youtube":null,"Blog":null,"Address":"111 Columbia St., Chester, SC, 29706","State":"South Carolina","City":"Chester","Street":"111 Columbia St.","Zip":"29706","Longitude":"-81.21375940889828","Latitude":"34.70448847235098","Dates":null,"Products":""},{"Type":"farmers market","ModifyDate":"Mar 27th, 2023","Image":"default-farmersmarket-4-3.jpg","ListingID":"312679","Name":"Clover Farmer's Market","Description":null,"ContactName":null,"ContactEmail":null,"ContactPhone":"803-222-9495","Website":"http:\/\/cloversc.org","Facebook":null,"Twitter":null,"Instagram":null,"Pinterest":null,"Youtube":null,"Blog":null,"Address":"120 Bethel Street Back Lot Clover, SC 29710 Ample parking available in two adjoining lots.","State":"South Carolina","City":"CLOVER","Street":"120 BETHEL ST","Zip":"29710","Longitude":"-81.22513336042873","Latitude":"35.11011430585152","Dates":null,"Products":""},{"Type":"farmers market","ModifyDate":"Mar 27th, 2023","Image":"default-farmersmarket-4-3.jpg","ListingID":"312680","Name":"Colleton Farmers' Market","Description":null,"ContactName":null,"ContactEmail":"tedchewning@yahoo.com","ContactPhone":"843-549-2303","Website":"http:\/\/www.cm-fm.org\/farmers-market","Facebook":null,"Twitter":null,"Instagram":null,"Pinterest":null,"Youtube":null,"Blog":null,"Address":"506 E. Washington St., Walterboro, SC, 29488","State":"South Carolina","City":"Walterboro","Street":"506 E. Washington St.","Zip":"29488","Longitude":"-80.66149558617084","Latitude":"32.903612734929844","Dates":null,"Products":""},{"Type":"farmers market","ModifyDate":"Mar 27th, 2023","Image":"default-farmersmarket-4-3.jpg","ListingID":"312681","Name":"Columbia State Farmers Market","Description":null,"ContactName":null,"ContactEmail":null,"ContactPhone":"803-737-4664","Website":"https:\/\/agriculture.sc.gov\/divisions\/agency-operations\/state-farmers-markets\/sc-state-farmers-market\/","Facebook":"https:\/\/www.facebook.com\/SCDAgriculture","Twitter":null,"Instagram":null,"Pinterest":null,"Youtube":null,"Blog":null,"Address":"3483 Charleston Highway West Columbia, SC 29172","State":"South Carolina","City":"West Columbia","Street":"3483 Charleston Highway","Zip":"29172","Longitude":"-81.06541145597802","Latitude":"33.90475657291727","Dates":null,"Products":""},{"Type":"farmers market","ModifyDate":"Mar 27th, 2023","Image":"default-farmersmarket-4-3.jpg","ListingID":"312682","Name":"Cypress Center Farmers' Market at Clarendon...","Description":null,"ContactName":null,"ContactEmail":null,"ContactPhone":"803-435-5200","Website":null,"Facebook":null,"Twitter":null,"Instagram":null,"Pinterest":null,"Youtube":null,"Blog":null,"Address":"50 E. Hospital St., Clarendon Health System Campus, Manning, SC, 29102","State":"South Carolina","City":"Manning","Street":"50 E. Hospital St.","Zip":"29102","Longitude":"-80.21043291589858","Latitude":"33.687869820796166","Dates":null,"Products":""},{"Type":"farmers market","ModifyDate":"Mar 27th, 2023","Image":"default-farmersmarket-4-3.jpg","ListingID":"312683","Name":"Downtown Farmers' Market","Description":null,"ContactName":null,"ContactEmail":"atellis@cityofflorence.com","ContactPhone":"843-678-5912","Website":"http:\/\/www.florencedowntown.com\/farmers-market\/","Facebook":"https:\/\/www.facebook.com\/flodowntownfarmersmarket","Twitter":null,"Instagram":null,"Pinterest":null,"Youtube":null,"Blog":null,"Address":"148 S. Dargan St., Next to Wholly Smokin BBQ, Florence, SC, 29506","State":"South Carolina","City":"Florence","Street":"148 S. Dargan St.","Zip":"29506","Longitude":"-79.76601767312555","Latitude":"34.19631793762809","Dates":null,"Products":""},{"Type":"farmers market","ModifyDate":"Mar 27th, 2023","Image":"default-farmersmarket-4-3.jpg","ListingID":"312684","Name":"Easley Farmers Market","Description":null,"ContactName":null,"ContactEmail":null,"ContactPhone":"557-900-7200","Website":"https:\/\/www.easleyfarmersmarket.com\/","Facebook":null,"Twitter":null,"Instagram":null,"Pinterest":null,"Youtube":null,"Blog":null,"Address":"205 N. 1st St. Easley, SC 29640","State":"South Carolina","City":"Easley","Street":"205 N. 1st St.","Zip":"29640","Longitude":"-82.60493212162045","Latitude":"34.8309441610452","Dates":null,"Products":""},{"Type":"farmers market","ModifyDate":"Mar 27th, 2023","Image":"default-farmersmarket-4-3.jpg","ListingID":"312685","Name":"Ebenezer Lutheran Church Farmers Market","Description":null,"ContactName":null,"ContactEmail":null,"ContactPhone":"803-765-9430","Website":null,"Facebook":null,"Twitter":null,"Instagram":null,"Pinterest":null,"Youtube":null,"Blog":null,"Address":"1310 Richland Street Columbia, SC 29201","State":"South Carolina","City":"Columbia","Street":"1310 Richland Street","Zip":"29201","Longitude":"-81.03581259483919","Latitude":"34.01120012540081","Dates":null,"Products":""},{"Type":"farmers market","ModifyDate":"Mar 27th, 2023","Image":"default-farmersmarket-4-3.jpg","ListingID":"312686","Name":"Foothills Heritage Market","Description":null,"ContactName":null,"ContactEmail":"info@foothillsheritagemarket.org","ContactPhone":"864-280-7054","Website":"http:\/\/www.foothillsheritagemarket.org\/","Facebook":"https:\/\/www.facebook.com\/FoothillsHeritageMarket","Twitter":null,"Instagram":null,"Pinterest":null,"Youtube":null,"Blog":null,"Address":"178 Hayfield Rd., Westminster, SC, 29693","State":"South Carolina","City":"Westminster","Street":"178 Hayfield Rd.","Zip":"29693","Longitude":"-83.0458038529648","Latitude":"34.66350281512324","Dates":null,"Products":""},{"Type":"farmers market","ModifyDate":"Mar 27th, 2023","Image":"default-farmersmarket-4-3.jpg","ListingID":"312687","Name":"Fountain Inn Farmers Market","Description":null,"ContactName":null,"ContactEmail":null,"ContactPhone":"864-275-8801","Website":null,"Facebook":null,"Twitter":null,"Instagram":null,"Pinterest":null,"Youtube":null,"Blog":null,"Address":"102 Depot Street Fountain Inn, SC 29644","State":"South Carolina","City":"Fountain Inn","Street":"102 Depot Street","Zip":"29644","Longitude":"-82.20003203175676","Latitude":"34.69303270112462","Dates":null,"Products":""},{"Type":"farmers market","ModifyDate":"Mar 27th, 2023","Image":"default-farmersmarket-4-3.jpg","ListingID":"312688","Name":"GHS Fountain Inn Farmers Market","Description":null,"ContactName":null,"ContactEmail":null,"ContactPhone":"864-724-8045","Website":"http:\/\/fountaininn.org","Facebook":"http:\/\/www.facebook.com\/Farmers-Market-at-Fountain-Inn-519125748270402\/","Twitter":null,"Instagram":null,"Pinterest":null,"Youtube":null,"Blog":null,"Address":"100 Depot Street Fountain Inn, SC 29644","State":"South Carolina","City":"FOUNTAIN INN","Street":"100 DEPOT ST","Zip":"29644","Longitude":"-82.2000479207253","Latitude":"34.69304379342341","Dates":null,"Products":""},{"Type":"farmers market","ModifyDate":"Mar 27th, 2023","Image":"default-farmersmarket-4-3.jpg","ListingID":"312689","Name":"Good To Go Mobile Market","Description":null,"ContactName":null,"ContactEmail":"info@millcommunity.org","ContactPhone":"864-214-6709","Website":"http:\/\/www.millvillagefarms.org\/good-to-go-greenville\/","Facebook":null,"Twitter":null,"Instagram":null,"Pinterest":null,"Youtube":null,"Blog":null,"Address":"2801 Pelham Rd., Greenville, SC, 29615","State":"South Carolina","City":"Greenville","Street":"2801 Pelham Rd.","Zip":"29615","Longitude":"-82.32143397155819","Latitude":"34.854991200923884","Dates":null,"Products":""},{"Type":"farmers market","ModifyDate":"Mar 27th, 2023","Image":"default-farmersmarket-4-3.jpg","ListingID":"312690","Name":"Grace United Methodist Church Farmers' Market","Description":null,"ContactName":null,"ContactEmail":"dhbryan@bellsouth.net","ContactPhone":"803-732-1899","Website":null,"Facebook":null,"Twitter":null,"Instagram":null,"Pinterest":null,"Youtube":null,"Blog":null,"Address":"410 Harbison Blvd., Columbia, SC, 29212","State":"South Carolina","City":"Columbia","Street":"410 Harbison Blvd.","Zip":"29212","Longitude":"-81.15014206875291","Latitude":"34.080344773983384","Dates":null,"Products":""},{"Type":"farmers market","ModifyDate":"Mar 27th, 2023","Image":"default-farmersmarket-4-3.jpg","ListingID":"312691","Name":"Greenville State Farmers Market","Description":null,"ContactName":null,"ContactEmail":"lsanders@scda.sc.gov","ContactPhone":"864-244-4023","Website":"https:\/\/agriculture.sc.gov\/divisions\/agency-operations\/state-farmers-markets\/greenville-state-farmers-market\/","Facebook":null,"Twitter":null,"Instagram":null,"Pinterest":null,"Youtube":null,"Blog":null,"Address":"1354 Rutherford Rd. Greenville, SC 29609","State":"South Carolina","City":"Greenville","Street":"1354 Rutherford Rd.","Zip":"29609","Longitude":"-82.38036301784139","Latitude":"34.88289628030338","Dates":null,"Products":""},{"Type":"farmers market","ModifyDate":"Mar 27th, 2023","Image":"default-farmersmarket-4-3.jpg","ListingID":"312692","Name":"Hilton Head Farmers' Market","Description":null,"ContactName":null,"ContactEmail":null,"ContactPhone":"843-322-1900","Website":null,"Facebook":"https:\/\/www.facebook.com\/The-Farmers-Market-at-Sea-Pines-Center-338983322871147","Twitter":null,"Instagram":null,"Pinterest":null,"Youtube":null,"Blog":null,"Address":"71 Lighthouse Rd. , Hilton Head, SC, 29928","State":"South Carolina","City":"Hilton Head","Street":"71 Lighthouse Rd.","Zip":"29928","Longitude":"-80.80036228028771","Latitude":"32.13186168557571","Dates":null,"Products":""},{"Type":"farmers market","ModifyDate":"Mar 27th, 2023","Image":"default-farmersmarket-4-3.jpg","ListingID":"312693","Name":"Irmo Farmers' Market","Description":null,"ContactName":null,"ContactEmail":"leesa@irmofarmersmarket.com","ContactPhone":null,"Website":"http:\/\/www.irmofarmersmarket.com\/","Facebook":"https:\/\/www.facebook.com\/irmofarmersmarket","Twitter":null,"Instagram":null,"Pinterest":null,"Youtube":null,"Blog":null,"Address":"7507 Eastview Dr., Irmo Community Park, Irmo, SC, 29063","State":"South Carolina","City":"Irmo","Street":"7507 Eastview Dr.","Zip":"29063","Longitude":"-81.17638702908096","Latitude":"34.09193244914361","Dates":null,"Products":""},{"Type":"farmers market","ModifyDate":"Mar 27th, 2023","Image":"default-farmersmarket-4-3.jpg","ListingID":"312694","Name":"James Island Presbyterian Church Farmers Market","Description":null,"ContactName":null,"ContactEmail":null,"ContactPhone":"843-998-3978","Website":null,"Facebook":null,"Twitter":null,"Instagram":null,"Pinterest":null,"Youtube":null,"Blog":null,"Address":"1632 Ft. Johnson Rd. Charleston, SC 29412","State":"South Carolina","City":"Charleston","Street":"1632 Ft. Johnson Rd.","Zip":"29412","Longitude":"-79.96448894188838","Latitude":"32.71748381329682","Dates":null,"Products":""},{"Type":"farmers market","ModifyDate":"Mar 27th, 2023","Image":"default-farmersmarket-4-3.jpg","ListingID":"312695","Name":"Jasper County Farmers Market","Description":null,"ContactName":null,"ContactEmail":null,"ContactPhone":"843-726-8126","Website":"https:\/\/jaspersc.org\/farmers-market\/","Facebook":null,"Twitter":null,"Instagram":null,"Pinterest":null,"Youtube":null,"Blog":null,"Address":"359 East Wilson Street Ridgeland, SC 29936","State":"South Carolina","City":"Ridgeland","Street":"359 East Wilson Street","Zip":"29936","Longitude":"-80.97626465538094","Latitude":"32.48095786415416","Dates":null,"Products":""},{"Type":"farmers market","ModifyDate":"Mar 27th, 2023","Image":"default-farmersmarket-4-3.jpg","ListingID":"312696","Name":"Kingstree Eat Smart Farmers' Market","Description":null,"ContactName":null,"ContactEmail":"kesfmarket@yahoo.com","ContactPhone":"843-372-7407","Website":null,"Facebook":null,"Twitter":null,"Instagram":null,"Pinterest":null,"Youtube":null,"Blog":null,"Address":"200 Hampton Ave., Kingstree, SC, 29556","State":"South Carolina","City":"Kingstree","Street":"200 Hampton Ave.","Zip":"29556","Longitude":"-79.82917067961333","Latitude":"33.66561536143414","Dates":null,"Products":""},{"Type":"farmers market","ModifyDate":"Mar 27th, 2023","Image":"default-farmersmarket-4-3.jpg","ListingID":"312697","Name":"Lake City Farmers Market","Description":null,"ContactName":null,"ContactEmail":"info@cmslc.org","ContactPhone":"843-374-1500","Website":"https:\/\/www.thebeanmarket.com\/lake-city-sc-farmers-market","Facebook":null,"Twitter":null,"Instagram":null,"Pinterest":null,"Youtube":null,"Blog":null,"Address":"111 Henry Street Lake City, SC 29560","State":"South Carolina","City":"Lake City","Street":"111 Henry Street","Zip":"29560","Longitude":"-79.75437756406619","Latitude":"33.87131215738232","Dates":null,"Products":""},{"Type":"farmers market","ModifyDate":"Mar 27th, 2023","Image":"default-farmersmarket-4-3.jpg","ListingID":"312698","Name":"Landrum Farmers' Market","Description":null,"ContactName":null,"ContactEmail":null,"ContactPhone":"864-555-1212","Website":null,"Facebook":"https:\/\/www.facebook.com\/LandrumFarmersMarket","Twitter":null,"Instagram":null,"Pinterest":null,"Youtube":null,"Blog":null,"Address":"111 N. Trade Ave., Landrum, SC, 29356","State":"South Carolina","City":"Landrum","Street":"111 N. Trade Ave.","Zip":"29356","Longitude":"-82.18902435011779","Latitude":"35.175227370013644","Dates":null,"Products":""},{"Type":"farmers market","ModifyDate":"Mar 27th, 2023","Image":"default-farmersmarket-4-3.jpg","ListingID":"312699","Name":"Lexington Farmers' Market","Description":null,"ContactName":null,"ContactEmail":"farmersmarket@lexsc.com","ContactPhone":"803-356-8238","Website":"http:\/\/www.lexsc.com\/fm_index.htm","Facebook":null,"Twitter":null,"Instagram":null,"Pinterest":null,"Youtube":null,"Blog":null,"Address":"205 E. Main St., Lexington Square Park, Lexington, SC, 29072","State":"South Carolina","City":"Lexington","Street":"205 E. Main St.","Zip":"29072","Longitude":"-81.23563721526385","Latitude":"33.981008346931404","Dates":null,"Products":""},{"Type":"farmers market","ModifyDate":"Mar 27th, 2023","Image":"default-farmersmarket-4-3.jpg","ListingID":"312700","Name":"LowCountry Farmers Market","Description":null,"ContactName":null,"ContactEmail":null,"ContactPhone":"854-444-3520","Website":"http:\/\/www.lowcountrymarketsc.com","Facebook":"http:\/\/www.facebook.com\/LowCountry-Farmers-Market-826162270923374\/?modal=admin_todo_tour","Twitter":null,"Instagram":null,"Pinterest":null,"Youtube":null,"Blog":null,"Address":"2216 Otranto Rd North Charleston, SC 29406 Location: North Charleston. Market setup will be on Old University Blvd, at the dead-end cul de sac point, closest to Otranto Rd, which is parallel to Rivers","State":"South Carolina","City":"N CHARLESTON","Street":"2216 OTRANTO RD","Zip":"29406","Longitude":"-80.04639474033473","Latitude":"32.96491474241146","Dates":null,"Products":""},{"Type":"farmers market","ModifyDate":"Mar 27th, 2023","Image":"default-farmersmarket-4-3.jpg","ListingID":"312701","Name":"Manning Farmers Market","Description":null,"ContactName":null,"ContactEmail":"ctrebil@cityofmanning.org","ContactPhone":"803-435-8429","Website":"https:\/\/agriculture.sc.gov\/farmers-markets\/manning-farmers-market\/","Facebook":null,"Twitter":null,"Instagram":null,"Pinterest":null,"Youtube":null,"Blog":null,"Address":"21 East Boyce Street Manning, SC 29102","State":"South Carolina","City":"Manning","Street":"21 East Boyce Street","Zip":"29102","Longitude":"-80.2088454533955","Latitude":"33.6950715617632","Dates":null,"Products":""},{"Type":"farmers market","ModifyDate":"Mar 27th, 2023","Image":"default-farmersmarket-4-3.jpg","ListingID":"312702","Name":"Mauldin Farmers Market","Description":null,"ContactName":null,"ContactEmail":null,"ContactPhone":"864-335-4862","Website":"http:\/\/www.mauldinculturalcenter.org\/events\/amphitheater-season\/mauldin-market\/","Facebook":"http:\/\/www.facebook.com\/mauldinmarket","Twitter":null,"Instagram":null,"Pinterest":null,"Youtube":null,"Blog":null,"Address":"101 East Butler Road Mauldin, SC 29662 Mauldin Outdoor Amphitheater","State":"South Carolina","City":"MAULDIN","Street":"101 E BUTLER RD","Zip":"29662","Longitude":"-82.30595336664197","Latitude":"34.77880159204161","Dates":null,"Products":""},{"Type":"farmers market","ModifyDate":"Mar 27th, 2023","Image":"default-farmersmarket-4-3.jpg","ListingID":"312703","Name":"McCormick Market","Description":null,"ContactName":null,"ContactEmail":null,"ContactPhone":"864-852-3216","Website":null,"Facebook":"http:\/\/www.facebook.com\/mccormickmarket","Twitter":null,"Instagram":null,"Pinterest":null,"Youtube":null,"Blog":null,"Address":"115 S. Main St. McCormick, SC 29835","State":"South Carolina","City":"MC CORMICK","Street":"115 S MAIN ST","Zip":"29835","Longitude":"-82.29416495403129","Latitude":"33.912228304672404","Dates":null,"Products":""},{"Type":"farmers market","ModifyDate":"Mar 27th, 2023","Image":"default-farmersmarket-4-3.jpg","ListingID":"312704","Name":"Moncks Corner Farmers Market","Description":null,"ContactName":null,"ContactEmail":null,"ContactPhone":"843-257-2727","Website":null,"Facebook":"https:\/\/www.facebook.com\/people\/Moncks-Corner-Farmers-Market\/100063680194012\/","Twitter":null,"Instagram":null,"Pinterest":null,"Youtube":null,"Blog":null,"Address":"418 E. Main St. Moncks Corner, SC 29461","State":"South Carolina","City":"Moncks Corner","Street":"418 E. Main St.","Zip":"29461","Longitude":"-80.0033833972999","Latitude":"33.19246362968825","Dates":null,"Products":""},{"Type":"farmers market","ModifyDate":"Mar 27th, 2023","Image":"default-farmersmarket-4-3.jpg","ListingID":"312705","Name":"MUSC Farmers' Market","Description":null,"ContactName":null,"ContactEmail":"musc-empwell@musc.edu","ContactPhone":null,"Website":null,"Facebook":null,"Twitter":null,"Instagram":null,"Pinterest":null,"Youtube":null,"Blog":null,"Address":"171 Ashley Ave., the Horseshoe, Charleston, SC, 29425","State":"South Carolina","City":"Charleston","Street":"171 Ashley Ave.","Zip":"29425","Longitude":"-79.94660533011695","Latitude":"32.78549512231604","Dates":null,"Products":""},{"Type":"farmers market","ModifyDate":"Mar 27th, 2023","Image":"default-farmersmarket-4-3.jpg","ListingID":"312706","Name":"Old Town Farmers' Market","Description":null,"ContactName":null,"ContactEmail":"martin.lane@cityofrockhill.com","ContactPhone":"803-417-4067","Website":"http:\/\/onlyinoldtown.com\/market","Facebook":null,"Twitter":null,"Instagram":null,"Pinterest":null,"Youtube":null,"Blog":null,"Address":"115 Caldwell St., Rock Hill, SC, 29730","State":"South Carolina","City":"Rock Hill","Street":"115 Caldwell St.","Zip":"29730","Longitude":"-81.02578335200815","Latitude":"34.92526578192421","Dates":null,"Products":""},{"Type":"farmers market","ModifyDate":"Mar 27th, 2023","Image":"default-farmersmarket-4-3.jpg","ListingID":"312707","Name":"Old Town Market","Description":null,"ContactName":null,"ContactEmail":null,"ContactPhone":"803-417-4067","Website":"https:\/\/www.onlyinoldtown.com\/market","Facebook":"https:\/\/www.facebook.com\/onlyinoldtownmarket","Twitter":null,"Instagram":null,"Pinterest":null,"Youtube":null,"Blog":null,"Address":"118 Caldwell Street Rock Hill, SC 29730","State":"South Carolina","City":"Rock Hill","Street":"118 Caldwell Street","Zip":"29730","Longitude":"-81.02572608657688","Latitude":"34.92530230464583","Dates":null,"Products":""},{"Type":"farmers market","ModifyDate":"Mar 27th, 2023","Image":"default-farmersmarket-4-3.jpg","ListingID":"312708","Name":"Orangeburg County Farmers Market","Description":null,"ContactName":null,"ContactEmail":null,"ContactPhone":"803-536-9726","Website":null,"Facebook":null,"Twitter":null,"Instagram":null,"Pinterest":null,"Youtube":null,"Blog":null,"Address":"350 Magnolia St, Orangeburg County Fairground Orangeburg, SC 29115","State":"South Carolina","City":"Orangeburg","Street":"350 Magnolia St","Zip":"29115","Longitude":"-80.85324713027157","Latitude":"33.480585045007665","Dates":null,"Products":""},{"Type":"farmers market","ModifyDate":"Mar 27th, 2023","Image":"default-farmersmarket-4-3.jpg","ListingID":"312709","Name":"Palmetto Farmers Market","Description":null,"ContactName":null,"ContactEmail":null,"ContactPhone":"864-414-5337","Website":"http:\/\/www.scorganicliving.com","Facebook":"http:\/\/www.facebook.com\/palmettomarket","Twitter":null,"Instagram":null,"Pinterest":null,"Youtube":null,"Blog":null,"Address":"121 W. Main Street Mineral Spring Park Williamston, SC 29697 Open from May through September from 4 - 7 on Thursdays.","State":"South Carolina","City":"WILLIAMSTON","Street":"121 W MAIN ST","Zip":"29697","Longitude":"-82.47922262268204","Latitude":"34.61821373821564","Dates":null,"Products":""},{"Type":"farmers market","ModifyDate":"Mar 27th, 2023","Image":"default-farmersmarket-4-3.jpg","ListingID":"312710","Name":"Pee Dee Farmers Market","Description":null,"ContactName":null,"ContactEmail":null,"ContactPhone":"843-665-5154","Website":null,"Facebook":null,"Twitter":null,"Instagram":null,"Pinterest":null,"Youtube":null,"Blog":null,"Address":"2513 W. Lucas St. Florence, SC 29501","State":"South Carolina","City":"FLORENCE","Street":"2513 W LUCAS ST","Zip":"29501","Longitude":"-79.81427255490453","Latitude":"34.241538179173745","Dates":null,"Products":""},{"Type":"farmers market","ModifyDate":"Mar 27th, 2023","Image":"default-farmersmarket-4-3.jpg","ListingID":"312711","Name":"Pee Dee State Farmers Market","Description":null,"ContactName":null,"ContactEmail":null,"ContactPhone":"843-665-5154","Website":"https:\/\/agriculture.sc.gov\/divisions\/agency-operations\/state-farmers-markets\/pee-dee-state-farmers-market\/","Facebook":"https:\/\/www.facebook.com\/SCDAgriculture\/","Twitter":null,"Instagram":null,"Pinterest":null,"Youtube":null,"Blog":null,"Address":"2513 West Lucas Street Florence, SC 29501","State":"South Carolina","City":"Florence","Street":"2513 West Lucas Street","Zip":"29501","Longitude":"-79.81427255490453","Latitude":"34.241538179173745","Dates":null,"Products":""},{"Type":"farmers market","ModifyDate":"Mar 27th, 2023","Image":"default-farmersmarket-4-3.jpg","ListingID":"312712","Name":"Pendleton Farmers Market","Description":null,"ContactName":null,"ContactEmail":null,"ContactPhone":"864-933-5303","Website":null,"Facebook":"https:\/\/www.facebook.com\/home.php?src=fftb#!\/pages\/Pendleton-SC\/Pendleton-Farmers-Market\/123792054302940?ref","Twitter":null,"Instagram":null,"Pinterest":null,"Youtube":null,"Blog":null,"Address":"310 Greenville St Physical Address: Downtown Village Green Pendleton, SC 29670","State":"South Carolina","City":"Pendleton","Street":"310 Greenville St","Zip":"29670","Longitude":"-82.77842622952552","Latitude":"34.65155788231487","Dates":null,"Products":""},{"Type":"farmers market","ModifyDate":"Mar 27th, 2023","Image":"default-farmersmarket-4-3.jpg","ListingID":"312713","Name":"Pick Pocket Plantation Farrmers Market","Description":null,"ContactName":null,"ContactEmail":null,"ContactPhone":"203-417-7512","Website":"http:\/\/pickpocketplntation.com\/farmers-market","Facebook":null,"Twitter":null,"Instagram":null,"Pinterest":null,"Youtube":null,"Blog":null,"Address":"93 Trask Farm Rd. Beaufort, SC 29906","State":"South Carolina","City":"BEAUFORT","Street":"93 TRASK FARM RD","Zip":"29906","Longitude":"-80.71060272560653","Latitude":"32.437943378044515","Dates":null,"Products":""},{"Type":"farmers market","ModifyDate":"Mar 27th, 2023","Image":"default-farmersmarket-4-3.jpg","ListingID":"312714","Name":"Port Royal Farmers Market","Description":null,"ContactName":null,"ContactEmail":null,"ContactPhone":"843-470-0699","Website":null,"Facebook":null,"Twitter":null,"Instagram":null,"Pinterest":null,"Youtube":null,"Blog":null,"Address":"1214 Paris Avenue Port Royal, SC 29935","State":"South Carolina","City":"Port Royal","Street":"1214 Paris Avenue","Zip":"29935","Longitude":"-80.69262998507902","Latitude":"32.37763708165039","Dates":null,"Products":""},{"Type":"farmers market","ModifyDate":"Mar 27th, 2023","Image":"default-farmersmarket-4-3.jpg","ListingID":"312715","Name":"Ralph H. Johnson Medical Center Farmers Market","Description":null,"ContactName":null,"ContactEmail":null,"ContactPhone":"843-789-7607","Website":null,"Facebook":null,"Twitter":null,"Instagram":null,"Pinterest":null,"Youtube":null,"Blog":null,"Address":"109 Bee St Charleston, SC 29401","State":"South Carolina","City":"Charleston","Street":"109 Bee St","Zip":"29401","Longitude":"-79.95398254293846","Latitude":"32.78509745952655","Dates":null,"Products":""},{"Type":"farmers market","ModifyDate":"Mar 27th, 2023","Image":"default-farmersmarket-4-3.jpg","ListingID":"312716","Name":"Right Choice, Fresh Start Farmers' Market","Description":null,"ContactName":null,"ContactEmail":null,"ContactPhone":null,"Website":null,"Facebook":"https:\/\/www.facebook.com\/Right-Choice-Fresh-Start-Farmers-Market-216908111667843","Twitter":null,"Instagram":null,"Pinterest":null,"Youtube":null,"Blog":null,"Address":"3310 Magnolia St., Orangeburg, SC, 29115","State":"South Carolina","City":"Orangeburg","Street":"3310 Magnolia St.","Zip":"29115","Longitude":"-80.84000793400529","Latitude":"33.52708030023306","Dates":null,"Products":""},{"Type":"farmers market","ModifyDate":"Mar 27th, 2023","Image":"default-farmersmarket-4-3.jpg","ListingID":"312717","Name":"Rosewood Market and Deli Farmers' Market","Description":null,"ContactName":null,"ContactEmail":null,"ContactPhone":null,"Website":null,"Facebook":null,"Twitter":null,"Instagram":null,"Pinterest":null,"Youtube":null,"Blog":null,"Address":"2803 Rosewood Dr., Columbia, SC, 29205","State":"South Carolina","City":"Columbia","Street":"2803 Rosewood Dr.","Zip":"29205","Longitude":"-81.00423119161096","Latitude":"33.98745686396477","Dates":null,"Products":""},{"Type":"farmers market","ModifyDate":"Mar 27th, 2023","Image":"default-farmersmarket-4-3.jpg","ListingID":"312718","Name":"Saint Stephens Farmers Market","Description":null,"ContactName":null,"ContactEmail":null,"ContactPhone":"843-257-4426","Website":null,"Facebook":null,"Twitter":null,"Instagram":null,"Pinterest":null,"Youtube":null,"Blog":null,"Address":"113 Ravenell Dr Saint Stephen, SC 29479","State":"South Carolina","City":"Saint Stephen","Street":"113 Ravenell Dr","Zip":"29479","Longitude":"-79.92730329536278","Latitude":"33.40541156949974","Dates":null,"Products":""},{"Type":"farmers market","ModifyDate":"Mar 27th, 2023","Image":"default-farmersmarket-4-3.jpg","ListingID":"312719","Name":"Sandhill Farmers Market","Description":null,"ContactName":null,"ContactEmail":"OWS@CLEMSON.EDU","ContactPhone":"803-699-3190","Website":"https:\/\/www.clemson.edu\/cafls\/research\/sandhill\/programs\/farmers_market.html","Facebook":null,"Twitter":null,"Instagram":null,"Pinterest":null,"Youtube":null,"Blog":null,"Address":"900 Clemson Road Clemson Sandhill REC Columbia, SC 29229","State":"South Carolina","City":"Columbia","Street":"900 Clemson Road","Zip":"29229","Longitude":"-80.87223072551699","Latitude":"34.129909528224665","Dates":null,"Products":""},{"Type":"farmers market","ModifyDate":"Mar 27th, 2023","Image":"default-farmersmarket-4-3.jpg","ListingID":"312720","Name":"SC State Farmers' Market","Description":null,"ContactName":null,"ContactEmail":"info@scstatefarmersmarket.com","ContactPhone":"803-737-4664","Website":"http:\/\/agriculture.sc.gov\/divisions\/agency-services\/state-farmers-markets\/sc-state-farmers-market\/","Facebook":"https:\/\/www.facebook.com\/SCFarmersMarket","Twitter":null,"Instagram":null,"Pinterest":null,"Youtube":null,"Blog":null,"Address":"3483 Charleston Hwy., West Columbia, SC, 29172","State":"South Carolina","City":"West Columbia","Street":"3483 Charleston Hwy.","Zip":"29172","Longitude":"-81.06541145597802","Latitude":"33.90475657291727","Dates":null,"Products":""},{"Type":"farmers market","ModifyDate":"Mar 27th, 2023","Image":"default-farmersmarket-4-3.jpg","ListingID":"312721","Name":"Shandon United Methodist Church Farmers Market","Description":null,"ContactName":null,"ContactEmail":"dhbryan@bellsouth.net","ContactPhone":"803-256-8383","Website":"https:\/\/agriculture.sc.gov\/farmers-markets\/shandon-united-methodist-church-farmers-market-seeds-of-h","Facebook":null,"Twitter":null,"Instagram":null,"Pinterest":null,"Youtube":null,"Blog":null,"Address":"3407 Devine Street Columbia, SC 29205","State":"South Carolina","City":"Columbia","Street":"3407 Devine Street","Zip":"29205","Longitude":"-80.99273645337057","Latitude":"33.99738969188674","Dates":null,"Products":""},{"Type":"farmers market","ModifyDate":"Mar 27th, 2023","Image":"default-farmersmarket-4-3.jpg","ListingID":"312722","Name":"Six Mile Farmers' Market","Description":null,"ContactName":null,"ContactEmail":"sixmiletownof@bellsouth.net","ContactPhone":"864-868-2653","Website":null,"Facebook":"https:\/\/www.facebook.com\/Six-Mile-Farmers-Depot-524019027657870","Twitter":null,"Instagram":null,"Pinterest":null,"Youtube":null,"Blog":null,"Address":"102 S. Main St., Six Mile, SC, 29682","State":"South Carolina","City":"Six Mile","Street":"102 S. Main St.","Zip":"29682","Longitude":"-82.81870700800128","Latitude":"34.80459098222937","Dates":null,"Products":""},{"Type":"farmers market","ModifyDate":"Mar 27th, 2023","Image":"default-farmersmarket-4-3.jpg","ListingID":"312723","Name":"Soda City Market","Description":null,"ContactName":null,"ContactEmail":"sodacitysc@gmail.com","ContactPhone":"803-250-5801","Website":"http:\/\/www.sodacitysc.com\/","Facebook":"https:\/\/www.facebook.com\/SodaCity\/","Twitter":null,"Instagram":null,"Pinterest":null,"Youtube":null,"Blog":null,"Address":"1500 Main St., Columbia, SC, 29201","State":"South Carolina","City":"Columbia","Street":"1500 Main St.","Zip":"29201","Longitude":"-81.03534875272416","Latitude":"34.00539812280771","Dates":null,"Products":""},{"Type":"farmers market","ModifyDate":"Mar 27th, 2023","Image":"default-farmersmarket-4-3.jpg","ListingID":"312724","Name":"South Sumter Farmers Market","Description":null,"ContactName":null,"ContactEmail":null,"ContactPhone":"803-436-2575","Website":null,"Facebook":null,"Twitter":null,"Instagram":null,"Pinterest":null,"Youtube":null,"Blog":null,"Address":"327 Manning Avenue Sumter, SC 29151","State":"South Carolina","City":"Sumter","Street":"327 Manning Avenue","Zip":"29151","Longitude":"-80.34116150125787","Latitude":"33.91034479501787","Dates":null,"Products":""},{"Type":"farmers market","ModifyDate":"Mar 27th, 2023","Image":"default-farmersmarket-4-3.jpg","ListingID":"312725","Name":"Springs Farm Farmers Market","Description":null,"ContactName":null,"ContactEmail":"market@springsfarm.com","ContactPhone":"803-371-6044","Website":"https:\/\/www.springsfarm.com\/","Facebook":null,"Twitter":null,"Instagram":null,"Pinterest":null,"Youtube":null,"Blog":null,"Address":"1002 Springfield Parkway Fort Mill, SC 29715","State":"South Carolina","City":"Fort Mill","Street":"1002 Springfield Parkway","Zip":"29715","Longitude":"-80.9164387965644","Latitude":"35.04187088844536","Dates":null,"Products":""},{"Type":"farmers market","ModifyDate":"Mar 27th, 2023","Image":"default-farmersmarket-4-3.jpg","ListingID":"312726","Name":"Sumter County Farmers Market","Description":null,"ContactName":null,"ContactEmail":null,"ContactPhone":"803-468-1590","Website":null,"Facebook":null,"Twitter":null,"Instagram":null,"Pinterest":null,"Youtube":null,"Blog":null,"Address":"700 West Liberty Street Sumter, SC 29153","State":"South Carolina","City":"Sumter","Street":"700 West Liberty Street","Zip":"29153","Longitude":"-80.36431842338372","Latitude":"33.91965922654975","Dates":null,"Products":""},{"Type":"farmers market","ModifyDate":"Mar 27th, 2023","Image":"default-farmersmarket-4-3.jpg","ListingID":"312727","Name":"Sumter Farmers Market","Description":null,"ContactName":null,"ContactEmail":null,"ContactPhone":"803-495-2639","Website":"http:\/\/www.sumterfarmersmarket.com\/","Facebook":"http:\/\/www.facebook.com\/sumterfarmersmarket\/","Twitter":null,"Instagram":null,"Pinterest":null,"Youtube":null,"Blog":null,"Address":"200 Miller Road Sumter, SC 29150 The Sumter Farmers Market is located at the University of South Carolina-Sumter on their campus on Miller Road","State":"South Carolina","City":"SUMTER","Street":"200 MILLER RD","Zip":"29150","Longitude":"-80.37286727689518","Latitude":"33.93248206062888","Dates":null,"Products":""},{"Type":"farmers market","ModifyDate":"Mar 27th, 2023","Image":"default-farmersmarket-4-3.jpg","ListingID":"312728","Name":"Sunday Brunch Farmers Market","Description":null,"ContactName":null,"ContactEmail":null,"ContactPhone":"843-000-0000","Website":null,"Facebook":"https:\/\/www.facebook.com\/SundayBrunchFarmersMarket","Twitter":null,"Instagram":null,"Pinterest":null,"Youtube":null,"Blog":null,"Address":"2101 Medway Road Charleston, SC 29412","State":"South Carolina","City":"Charleston","Street":"2101 Medway Road","Zip":"29412","Longitude":"-79.99292598090602","Latitude":"32.761148178143685","Dates":null,"Products":""},{"Type":"farmers market","ModifyDate":"Mar 27th, 2023","Image":"default-farmersmarket-4-3.jpg","ListingID":"312729","Name":"The Market at Inman Farms","Description":null,"ContactName":null,"ContactEmail":null,"ContactPhone":"803-684-6675","Website":"http:\/\/inmanfarms.org","Facebook":"http:\/\/www.facebook.com\/inmanfarmmarket","Twitter":null,"Instagram":null,"Pinterest":null,"Youtube":null,"Blog":null,"Address":"1169 Black Hwy York, SC 29745","State":"South Carolina","City":"YORK","Street":"1169 BLACK HWY","Zip":"29745","Longitude":"-81.25842444264804","Latitude":"35.00501161706968","Dates":null,"Products":""},{"Type":"farmers market","ModifyDate":"Mar 27th, 2023","Image":"default-farmersmarket-4-3.jpg","ListingID":"312730","Name":"The Open Market","Description":null,"ContactName":null,"ContactEmail":null,"ContactPhone":"864-474-9174","Website":"http:\/\/www.localharvest.org\/member\/M14708","Facebook":null,"Twitter":null,"Instagram":null,"Pinterest":null,"Youtube":null,"Blog":null,"Address":"1420 SUNNY ACRES ROAD PACOLET MILLS, SC 29372","State":"South Carolina","City":"PACOLET","Street":"1420 SUNNY ACRES RD","Zip":"29372","Longitude":"-81.745128447928","Latitude":"34.919740086916605","Dates":null,"Products":""},{"Type":"farmers market","ModifyDate":"Mar 27th, 2023","Image":"default-farmersmarket-4-3.jpg","ListingID":"312731","Name":"Travelers Rest Community Farmers Market","Description":null,"ContactName":null,"ContactEmail":null,"ContactPhone":"864-414-1966","Website":"https:\/\/www.trfarmersmarket.org\/","Facebook":null,"Twitter":null,"Instagram":null,"Pinterest":null,"Youtube":null,"Blog":null,"Address":"1 Center St. Travelers Rest, SC 29690","State":"South Carolina","City":"Travelers Rest","Street":"1 Center St.","Zip":"29690","Longitude":"-82.44331335970622","Latitude":"34.967800489289836","Dates":null,"Products":""},{"Type":"farmers market","ModifyDate":"Mar 27th, 2023","Image":"default-farmersmarket-4-3.jpg","ListingID":"312732","Name":"Travelers Rest Farmers' Market","Description":null,"ContactName":null,"ContactEmail":"farmersmarketinfo@gmail.com","ContactPhone":"864-907-6924","Website":"http:\/\/travelersrestfarmersmarket.com\/","Facebook":"https:\/\/www.facebook.com\/TravelersRestFarmersMarket","Twitter":null,"Instagram":null,"Pinterest":null,"Youtube":null,"Blog":null,"Address":"225 Wilhelm Winter St., Travelers Rest, SC, 29690","State":"South Carolina","City":"Travelers Rest","Street":"225 Wilhelm Winter St.","Zip":"29690","Longitude":"-82.44701336780992","Latitude":"34.954206340513245","Dates":null,"Products":""},{"Type":"farmers market","ModifyDate":"Mar 27th, 2023","Image":"default-farmersmarket-4-3.jpg","ListingID":"312733","Name":"Tree of Life Congregation Farmers Market","Description":null,"ContactName":null,"ContactEmail":"info@tolsc.org","ContactPhone":"803-787-2182","Website":"https:\/\/agriculture.sc.gov\/farmers-markets\/tree-of-life-congregation-farmers-market-seeds-of-hope\/","Facebook":null,"Twitter":null,"Instagram":null,"Pinterest":null,"Youtube":null,"Blog":null,"Address":"6719 N. Trenholm Rd Columbia, SC 29206","State":"South Carolina","City":"Columbia","Street":"6719 N. Trenholm Rd","Zip":"29206","Longitude":"-80.95889443072596","Latitude":"34.05260711185811","Dates":null,"Products":""},{"Type":"farmers market","ModifyDate":"Mar 27th, 2023","Image":"default-farmersmarket-4-3.jpg","ListingID":"312734","Name":"Trinity Episcopal Church Farmers Market","Description":null,"ContactName":null,"ContactEmail":"bjames@trinitysc.org","ContactPhone":"803-771-7300","Website":"https:\/\/agriculture.sc.gov\/farmers-markets\/trinity-episcopal-church-farmers-market-seeds-of-hope\/","Facebook":null,"Twitter":null,"Instagram":null,"Pinterest":null,"Youtube":null,"Blog":null,"Address":"1100 Sumter Street Columbia, SC 29201","State":"South Carolina","City":"Columbia","Street":"1100 Sumter Street","Zip":"29201","Longitude":"-81.0312627631106","Latitude":"34.00031830716184","Dates":null,"Products":""},{"Type":"farmers market","ModifyDate":"Mar 27th, 2023","Image":"default-farmersmarket-4-3.jpg","ListingID":"312735","Name":"Tuesday Local Farmers' Market","Description":null,"ContactName":null,"ContactEmail":null,"ContactPhone":"864-335-2300","Website":"https:\/\/www.wholefoodsmarket.com\/stores\/greenville","Facebook":null,"Twitter":null,"Instagram":null,"Pinterest":null,"Youtube":null,"Blog":null,"Address":"1140 Woodruff Rd Greenville, SC 29607","State":"South Carolina","City":"Greenville","Street":"1140 Woodruff Rd","Zip":"29607","Longitude":"-82.30617558451391","Latitude":"34.83107000187991","Dates":null,"Products":""},{"Type":"farmers market","ModifyDate":"Mar 27th, 2023","Image":"default-farmersmarket-4-3.jpg","ListingID":"312736","Name":"Unitarian Universal Fellowship Farmers Market","Description":null,"ContactName":null,"ContactEmail":"socialaction@uucolumbia.org","ContactPhone":"478-335-1670","Website":"https:\/\/agriculture.sc.gov\/farmers-markets\/unitarian-universal-fellowship-farmers-market-seeds-of-hope\/","Facebook":null,"Twitter":null,"Instagram":null,"Pinterest":null,"Youtube":null,"Blog":null,"Address":"2701 Heyward Street Columbia, SC 29205","State":"South Carolina","City":"Columbia","Street":"2701 Heyward Street","Zip":"29205","Longitude":"-81.00607944583136","Latitude":"33.99088603915348","Dates":null,"Products":""},{"Type":"farmers market","ModifyDate":"Mar 27th, 2023","Image":"default-farmersmarket-4-3.jpg","ListingID":"312737","Name":"Upstate Locally Grown online Farmer's Market","Description":null,"ContactName":null,"ContactEmail":null,"ContactPhone":"864-901-2692","Website":"https:\/\/www.upstatesc.locallygrown.net\/","Facebook":null,"Twitter":null,"Instagram":null,"Pinterest":null,"Youtube":null,"Blog":null,"Address":"1624 Taylor Road Honea Path, SC 29654","State":"South Carolina","City":"Honea Path","Street":"1624 Taylor Road","Zip":"29654","Longitude":"-82.36356019869707","Latitude":"34.501758788971074","Dates":null,"Products":""},{"Type":"farmers market","ModifyDate":"Mar 27th, 2023","Image":"default-farmersmarket-4-3.jpg","ListingID":"312738","Name":"Virginia Wingard United Methodist Farmers' Market","Description":null,"ContactName":null,"ContactEmail":null,"ContactPhone":"803-782-3840","Website":null,"Facebook":null,"Twitter":null,"Instagram":null,"Pinterest":null,"Youtube":null,"Blog":null,"Address":"1500 Broad River Rd., Columbia, SC, 29201","State":"South Carolina","City":"Columbia","Street":"1500 Broad River Rd.","Zip":"29201","Longitude":"-81.08666676874029","Latitude":"34.03082309334341","Dates":null,"Products":""},{"Type":"farmers market","ModifyDate":"Mar 27th, 2023","Image":"default-farmersmarket-4-3.jpg","ListingID":"312739","Name":"Washington Street United Church Farmers Market","Description":null,"ContactName":null,"ContactEmail":null,"ContactPhone":"803-782-3840","Website":null,"Facebook":null,"Twitter":null,"Instagram":null,"Pinterest":null,"Youtube":null,"Blog":null,"Address":"1401 Bull Street Columbia, SC 29201","State":"South Carolina","City":"Columbia","Street":"1401 Bull Street","Zip":"29201","Longitude":"-81.02997504018249","Latitude":"34.00554210592427","Dates":null,"Products":""},{"Type":"farmers market","ModifyDate":"Mar 27th, 2023","Image":"default-farmersmarket-4-3.jpg","ListingID":"312740","Name":"Whaley Street United Methodist Church Farmers Market","Description":null,"ContactName":null,"ContactEmail":null,"ContactPhone":"803-799-4104","Website":null,"Facebook":null,"Twitter":null,"Instagram":null,"Pinterest":null,"Youtube":null,"Blog":null,"Address":"517 Whaley Street Columbia, SC 29201","State":"South Carolina","City":"Columbia","Street":"517 Whaley Street","Zip":"29201","Longitude":"-81.03859756685308","Latitude":"33.984434939623256","Dates":null,"Products":""},{"Type":"farmers market","ModifyDate":"Sep 15th, 2020","Image":"default-farmersmarket-4-3.jpg","ListingID":"300147","Name":"Farmers Market of Bluffton","Description":null,"ContactName":"Kim Viljac","ContactEmail":"manager@farmersmarketbluffton.org","ContactPhone":"843-415-2447","Website":"www.farmersmarketbluffton.org","Facebook":"farmersmarketbluffton","Twitter":null,"Instagram":null,"Pinterest":null,"Youtube":null,"Blog":null,"Address":"40 Calhoun Street, Bluffton, South Carolina 29910","State":"South Carolina","City":"Bluffton","Street":"40 Calhoun Street","Zip":"29910","Longitude":"-80.862568","Latitude":"32.234811","Dates":"Year-round","Products":"Fresh fruits, Fresh vegetables, Baked goods, Bedding plants, Canned or preserved fruits\/vegetables, Coffee\/tea, Cut flowers, Dairy products., Dry beans, Eggs, Fish\/seafood, Fresh\/dried herbs, Grains\/flour, Honey, Mushrooms, Nursery stock, Nuts, Pet food, Poultry\/fowl meat and products, Prepared foods, Red\/other non-poultry meat and products"}]