[{"Type":"on-farm market","ModifyDate":"Jul 11th, 2016","Image":"default-onfarmmarket-4-3.jpg","ListingID":"701352","Name":"Southbridge Youth Farm Stand","Description":null,"ContactName":"Randi Novakoff","ContactEmail":"rnovakoff@wilmapco.org","ContactPhone":"302-299-2583","Website":"https:\/\/swpn.org\/southbridgecommunitygarden\/","Facebook":"https:\/\/www.facebook.com\/YouthFarmStandandPopupMarket\/","Twitter":null,"Instagram":null,"Pinterest":null,"Youtube":null,"Blog":null,"Address":"1218 B. Street, Wilmington, Delaware 19801","State":"Delaware","City":"Wilmington","Street":"1218 B. Street","Zip":"19801","Longitude":"-75.542868","Latitude":"39.7284250","Dates":null,"Products":""},{"Type":"on-farm market","ModifyDate":"Mar 10th, 2015","Image":"default-onfarmmarket-4-3.jpg","ListingID":"701223","Name":"Cook Family Farm's - CoolRockStock","Description":null,"ContactName":"Steve and Rhonda Cook","ContactEmail":"Orders@coolrockstock.com","ContactPhone":"302-584-8743","Website":"coolrockstock.com","Facebook":"Cook Family Farm","Twitter":null,"Instagram":null,"Pinterest":null,"Youtube":null,"Blog":null,"Address":"3300 Frazer Rd, Newark , Delaware 19702","State":"Delaware","City":"Newark","Street":"3300 Frazer Rd","Zip":"19702","Longitude":"-75.764456","Latitude":"39.5560199","Dates":null,"Products":""},{"Type":"on-farm market","ModifyDate":"Mar 24th, 2015","Image":"default-onfarmmarket-4-3.jpg","ListingID":"700903","Name":"Maebrook Produce","Description":null,"ContactName":"Ashley Snyder","ContactEmail":"ashley@maebrookproduce.com","ContactPhone":"302-858-3435","Website":"www.maebrookproduce.com","Facebook":"https:\/\/www.facebook.com\/MaebrookProduce","Twitter":null,"Instagram":null,"Pinterest":null,"Youtube":null,"Blog":null,"Address":"Hearns Pond Rd, Seaford, Delaware 19973","State":"Delaware","City":"Seaford","Street":"Hearns Pond Rd","Zip":"19973","Longitude":"-75.614455","Latitude":"38.6834350","Dates":null,"Products":""},{"Type":"on-farm market","ModifyDate":"May 19th, 2015","Image":"default-onfarmmarket-4-3.jpg","ListingID":"701265","Name":"Highland Orchards Farm Market","Description":null,"ContactName":null,"ContactEmail":"highlandcsa@gmail.com","ContactPhone":"302-478-4042","Website":"www.highlandorchardsfarmmarket.com","Facebook":"https:\/\/www.facebook.com\/highlandorchards","Twitter":"https:\/\/twitter.com\/highlandcsa","Instagram":null,"Pinterest":null,"Youtube":null,"Blog":"http:\/\/highlandorchards.blogspot.com\/","Address":"1431 Foulk Rd, Wilmington, Delaware 19803","State":"Delaware","City":"Wilmington","Street":"1431 Foulk Rd","Zip":"19803","Longitude":"-75.521104","Latitude":"39.801994","Dates":null,"Products":""}]