[{"Type":"on-farm market","ModifyDate":"Aug 28th, 2014","Image":"default-onfarmmarket-4-3.jpg","ListingID":"700975","Name":"Brook-Lin Jerseys","Description":null,"ContactName":"Linda Stone","ContactEmail":"brooklinjerseys@yahoo.com","ContactPhone":"5028570066","Website":null,"Facebook":null,"Twitter":null,"Instagram":null,"Pinterest":null,"Youtube":null,"Blog":"www.brook-linjerseys.blogspot.com","Address":"445 Eagle Creek Trail, Sadieville , Kentucky 40370","State":"Kentucky","City":"Sadieville","Street":"445 Eagle Creek Trail","Zip":"40370","Longitude":"-84.603351","Latitude":"38.430411","Dates":null,"Products":""},{"Type":"on-farm market","ModifyDate":"Aug 3rd, 2014","Image":"default-onfarmmarket-4-3.jpg","ListingID":"700291","Name":"Brookview Beef","Description":null,"ContactName":"Jenny Owens","ContactEmail":"jenny@brookviewbeef.com","ContactPhone":"859-509-4236","Website":"www.brookviewbeef.com","Facebook":"https:\/\/www.facebook.com\/kygrassfedbeef","Twitter":null,"Instagram":null,"Pinterest":null,"Youtube":null,"Blog":null,"Address":"7700 Colby Road, Winchester, Kentucky 40391","State":"Kentucky","City":"Winchester","Street":"7700 Colby Road","Zip":"40391","Longitude":"-84.315719","Latitude":"38.002120","Dates":null,"Products":""},{"Type":"on-farm market","ModifyDate":"Aug 4th, 2014","Image":"default-onfarmmarket-4-3.jpg","ListingID":"700800","Name":"Coffey Farms","Description":null,"ContactName":"Coffey Farms","ContactEmail":"coffeyfarms@windstream.net","ContactPhone":"6063486367","Website":null,"Facebook":"www.facebook.com\/coffeyfarms","Twitter":null,"Instagram":null,"Pinterest":null,"Youtube":null,"Blog":null,"Address":"1175 Highway 1619, Monticello, Kentucky 42633","State":"Kentucky","City":"Monticello","Street":"1175 Highway 1619","Zip":"42633","Longitude":"-84.719738","Latitude":"36.9259869","Dates":null,"Products":""},{"Type":"on-farm market","ModifyDate":"Feb 4th, 2017","Image":"default-onfarmmarket-4-3.jpg","ListingID":"701388","Name":"Second Season Produce","Description":null,"ContactName":"Jim Farber","ContactEmail":"jcfarber@yahoo.com","ContactPhone":"8599408703","Website":null,"Facebook":null,"Twitter":null,"Instagram":null,"Pinterest":null,"Youtube":null,"Blog":null,"Address":"2806 KY1547, Liberty, Kentucky 42539","State":"Kentucky","City":"Liberty","Street":"2806 KY1547","Zip":"42539","Longitude":"-84.980021","Latitude":"37.307649","Dates":null,"Products":""},{"Type":"on-farm market","ModifyDate":"Feb 8th, 2022","Image":"default-onfarmmarket-4-3.jpg","ListingID":"701632","Name":"Pierce Family Farms","Description":null,"ContactName":"Madison Pierce","ContactEmail":"madison_rogers1@icloud.com","ContactPhone":"2705857304","Website":null,"Facebook":"https:\/\/www.facebook.com\/Pierce-Family-Farms-104038342196714\/","Twitter":null,"Instagram":null,"Pinterest":null,"Youtube":null,"Blog":null,"Address":"132 Pinetop Road, Russell Springs, Kentucky 42642","State":"Kentucky","City":"Russell Springs","Street":"132 Pinetop Road","Zip":"42642","Longitude":"-84.913999","Latitude":"37.103273","Dates":null,"Products":""},{"Type":"on-farm market","ModifyDate":"Jan 12th, 2021","Image":"default-onfarmmarket-4-3.jpg","ListingID":"701574","Name":"Echo Valley Farms LLC","Description":null,"ContactName":"Geo Forton","ContactEmail":"echovalleyfarms2019@gmail.com","ContactPhone":"2192523261","Website":"Www.evfky.com","Facebook":"Echovalleyfarms.ky","Twitter":null,"Instagram":null,"Pinterest":null,"Youtube":null,"Blog":null,"Address":", Yosemite , Kentucky 42566","State":"Kentucky","City":"Yosemite","Street":null,"Zip":"42566","Longitude":"-84.785455","Latitude":"37.259988","Dates":null,"Products":""},{"Type":"on-farm market","ModifyDate":"Jun 20th, 2017","Image":"default-onfarmmarket-4-3.jpg","ListingID":"701414","Name":"Halcomb's Knob LLC","Description":null,"ContactName":"Deborah Messenger","ContactEmail":"halcombsknob@windstream.net","ContactPhone":"8599259936","Website":"http:\/\/www.halcombsknob.com","Facebook":"https:\/\/www.facebook.com\/HalcombsKnob\/","Twitter":null,"Instagram":null,"Pinterest":null,"Youtube":null,"Blog":null,"Address":"430 Wallacetown Road, Paint Lick, Kentucky 40461","State":"Kentucky","City":"Paint Lick","Street":"430 Wallacetown Road","Zip":"40461","Longitude":"-84.387953","Latitude":"37.5475873","Dates":null,"Products":""},{"Type":"on-farm market","ModifyDate":"May 25th, 2016","Image":"default-onfarmmarket-4-3.jpg","ListingID":"701339","Name":"Cow-U-Met Farm","Description":null,"ContactName":"Glen Abney","ContactEmail":"glenabney670@gmail.com","ContactPhone":"859-227-1089","Website":null,"Facebook":null,"Twitter":null,"Instagram":null,"Pinterest":null,"Youtube":null,"Blog":null,"Address":"670 Townsend Valley RD, paris, Kentucky 40361","State":"Kentucky","City":"paris","Street":"670 Townsend Valley RD","Zip":"40361","Longitude":"-84.326002","Latitude":"38.285907","Dates":null,"Products":""},{"Type":"on-farm market","ModifyDate":"May 5th, 2021","Image":"default-onfarmmarket-4-3.jpg","ListingID":"701598","Name":"Triple R Pastures","Description":null,"ContactName":"Gilbert Ruegemer","ContactEmail":"Ruegemersregenerativeranch@gmail.com","ContactPhone":"3204927643","Website":"Triplerpastures.com","Facebook":null,"Twitter":null,"Instagram":null,"Pinterest":null,"Youtube":null,"Blog":"https:\/\/triplerpastures.com\/blog","Address":"15317 LEBANON CRITTENDEN RD, VERONA, Kentucky 41092","State":"Kentucky","City":"VERONA","Street":"15317 LEBANON CRITTENDEN RD","Zip":"41092","Longitude":"-84.654261","Latitude":"38.811783","Dates":null,"Products":""},{"Type":"on-farm market","ModifyDate":"Oct 1st, 2021","Image":"default-onfarmmarket-4-3.jpg","ListingID":"701617","Name":"Roaring Shoals Farm","Description":null,"ContactName":"Erik Holbrook","ContactEmail":"roaringshoalsfarm@gmail.com","ContactPhone":"859-429-8336","Website":"https:\/\/www.roaringshoals.farm\/","Facebook":"https:\/\/www.facebook.com\/rsfbeef","Twitter":null,"Instagram":null,"Pinterest":null,"Youtube":null,"Blog":null,"Address":"12205 HWY 30 East, Jackson, Kentucky 41339","State":"Kentucky","City":"Jackson","Street":"12205 HWY 30 East","Zip":"41339","Longitude":"-83.252581","Latitude":"37.581595","Dates":null,"Products":""},{"Type":"on-farm market","ModifyDate":"Oct 20th, 2021","Image":"default-onfarmmarket-4-3.jpg","ListingID":"701620","Name":"Bizzell Bluff Farm","Description":null,"ContactName":"Lynn Rushing","ContactEmail":"pianoman700@gmail.com","ContactPhone":"270-508-1191","Website":null,"Facebook":"Bizzell Bluff Farm","Twitter":null,"Instagram":null,"Pinterest":null,"Youtube":null,"Blog":null,"Address":"774 Bizzell Bluff Road , Burna , Kentucky 42028","State":"Kentucky","City":"Burna","Street":"774 Bizzell Bluff Road","Zip":"42028","Longitude":"-88.357927","Latitude":"37.244895","Dates":null,"Products":""},{"Type":"on-farm market","ModifyDate":"Sep 16th, 2014","Image":"default-onfarmmarket-4-3.jpg","ListingID":"700172","Name":"Benton Family Farm","Description":null,"ContactName":"Mary Benton","ContactEmail":"bentonfamilyfarm@aol.com","ContactPhone":"859-485-7000","Website":"Bentonfamilyfarm@aol.com","Facebook":"https:\/\/www.facebook.com\/bentonfamilyfarm","Twitter":"https:\/\/www.twitter.com\/bentonfarms","Instagram":null,"Pinterest":null,"Youtube":null,"Blog":null,"Address":"11896 Old lexington Pike, Walton, Kentucky 41094","State":"Kentucky","City":"Walton","Street":"11896 Old lexington Pike","Zip":"41094","Longitude":"-84.602742","Latitude":"38.896500","Dates":null,"Products":""},{"Type":"on-farm market","ModifyDate":"Sep 16th, 2014","Image":"default-onfarmmarket-4-3.jpg","ListingID":"700298","Name":"Woodland Farm","Description":null,"ContactName":"Kristopher Kelley","ContactEmail":"info@woodlandfarm.com","ContactPhone":"502-222-7051","Website":"woodlandfarm.com","Facebook":null,"Twitter":null,"Instagram":null,"Pinterest":null,"Youtube":null,"Blog":null,"Address":"4716 , Goshen, Kentucky 40026","State":"Kentucky","City":"Goshen","Street":"4716","Zip":"40026","Longitude":"-85.469026","Latitude":"38.460039","Dates":null,"Products":""},{"Type":"on-farm market","ModifyDate":"Sep 25th, 2014","Image":"default-onfarmmarket-4-3.jpg","ListingID":"701098","Name":"High Spruce Farm","Description":null,"ContactName":"Ellen Cole","ContactEmail":"ellyc85@gmail.com","ContactPhone":"859-559-7034","Website":null,"Facebook":null,"Twitter":null,"Instagram":null,"Pinterest":null,"Youtube":null,"Blog":null,"Address":"1897 Rankin Mill Rd, Falmouth , Kentucky 41040","State":"Kentucky","City":"Falmouth","Street":"1897 Rankin Mill Rd","Zip":"41040","Longitude":"-84.325867","Latitude":"38.568334","Dates":null,"Products":""},{"Type":"on-farm market","ModifyDate":"Sep 6th, 2020","Image":"default-onfarmmarket-4-3.jpg","ListingID":"701555","Name":"Dogwood Farm Natural Beef","Description":null,"ContactName":"Toby & Debby Dulworth","ContactEmail":"dogwood@brtc.net","ContactPhone":"2702242993","Website":"https:\/\/dogwoodherefords.com\/grassfed-beef","Facebook":"https:\/\/www.facebook.com\/dogwoodfarmky","Twitter":null,"Instagram":null,"Pinterest":null,"Youtube":null,"Blog":null,"Address":"2492 S. Kirkman, La Center, Kentucky 42056","State":"Kentucky","City":"La Center","Street":"2492 S. Kirkman","Zip":"42056","Longitude":"-88.975230","Latitude":"37.143082","Dates":null,"Products":""}]