[{"Type":"on-farm market","ModifyDate":"Aug 15th, 2020","Image":"default-onfarmmarket-4-3.jpg","ListingID":"701550","Name":"Magpie Mini-farm","Description":null,"ContactName":"Kim Burnham","ContactEmail":"magpieetc@icloud.com","ContactPhone":"907-612-0565","Website":"https:\/\/magpie-103280.square.site\/","Facebook":"https:\/\/www.facebook.com\/Magpie.etcetera","Twitter":null,"Instagram":null,"Pinterest":null,"Youtube":null,"Blog":null,"Address":"12th & Main st. , Skagway , Alaska 99840","State":"Alaska","City":"Skagway","Street":"12th & Main st.","Zip":"99840","Longitude":"-135.31072","Latitude":"59.460729","Dates":null,"Products":""},{"Type":"on-farm market","ModifyDate":"Aug 17th, 2014","Image":"default-onfarmmarket-4-3.jpg","ListingID":"700846","Name":"Arctic Organics","Description":null,"ContactName":"River Bean","ContactEmail":"info@arcticorganics.com","ContactPhone":"9077461087","Website":"Arctic Organics.com","Facebook":null,"Twitter":null,"Instagram":null,"Pinterest":null,"Youtube":null,"Blog":null,"Address":"1305 N. Smith Rd., Palmer, Alaska 99645","State":"Alaska","City":"Palmer","Street":"1305 N. Smith Rd.","Zip":"99645","Longitude":"-149.02532","Latitude":"61.593207","Dates":null,"Products":""},{"Type":"on-farm market","ModifyDate":"Dec 7th, 2017","Image":"default-onfarmmarket-4-3.jpg","ListingID":"701435","Name":"Serenity Farm","Description":null,"ContactName":"Chad Freeborn","ContactEmail":"farm@thinkserenity.com","ContactPhone":"3345202295","Website":"http:\/\/thinkserenity.com","Facebook":"https:\/\/www.facebook.com\/AlabamaSerenityFarm\/","Twitter":null,"Instagram":null,"Pinterest":null,"Youtube":null,"Blog":"http:\/\/thinkserenity.com\/blog\/","Address":"73 Brown Rd, Phenix City, Alaska 36869","State":"Alaska","City":"Phenix City","Street":"73 Brown Rd","Zip":"36869","Longitude":"-85.182649","Latitude":"32.447297","Dates":null,"Products":""},{"Type":"on-farm market","ModifyDate":"Feb 9th, 2015","Image":"default-onfarmmarket-4-3.jpg","ListingID":"701208","Name":"Monastery Acres","Description":null,"ContactName":"Christopher Grasse","ContactEmail":"jaames1@ak.net","ContactPhone":"9076966836","Website":null,"Facebook":null,"Twitter":null,"Instagram":null,"Pinterest":null,"Youtube":null,"Blog":null,"Address":"19045 Darby Road, Eagle River, Alaska 99577","State":"Alaska","City":"Eagle River","Street":"19045 Darby Road","Zip":"99577","Longitude":"-149.52708","Latitude":"61.360154","Dates":null,"Products":""},{"Type":"on-farm market","ModifyDate":"Jul 26th, 2014","Image":"default-onfarmmarket-4-3.jpg","ListingID":"700006","Name":"White Fireweed Farm","Description":null,"ContactName":"Becky and Tim Hammond","ContactEmail":"hammond@mosquitonet.com","ContactPhone":"907-490-4464","Website":null,"Facebook":"https:\/\/www.facebook.com\/whitefireweedfarm","Twitter":null,"Instagram":null,"Pinterest":null,"Youtube":null,"Blog":null,"Address":"6400 Baseline, Fairbanks, Alaska 99712","State":"Alaska","City":"Fairbanks","Street":"6400 Baseline","Zip":"99712","Longitude":"-146.97699","Latitude":"64.867087","Dates":null,"Products":""}]