[{"Type":"on-farm market","ModifyDate":"Apr 21st, 2015","Image":"default-onfarmmarket-4-3.jpg","ListingID":"701247","Name":"4K Ranch","Description":null,"ContactName":"Teresa Penning","ContactEmail":"terespenning@gmail.com","ContactPhone":"785-541-0095","Website":null,"Facebook":null,"Twitter":null,"Instagram":null,"Pinterest":null,"Youtube":null,"Blog":null,"Address":"1692 18th Road, Washington, Kansas 66968","State":"Kansas","City":"Washington","Street":"1692 18th Road","Zip":"66968","Longitude":"-97.068195","Latitude":"39.828054","Dates":null,"Products":""},{"Type":"on-farm market","ModifyDate":"Aug 18th, 2021","Image":"default-onfarmmarket-4-3.jpg","ListingID":"701609","Name":"Brannan & Reinhardt Polled Herefords","Description":null,"ContactName":"Kent Reinhardt","ContactEmail":"rhinos@gbta.net","ContactPhone":"17853871846","Website":"http:\/\/www.kansaspolledherefords.org\/bandr\/","Facebook":null,"Twitter":null,"Instagram":null,"Pinterest":null,"Youtube":null,"Blog":null,"Address":"418 W DIEL ST, Otis, Kansas 67565","State":"Kansas","City":"Otis","Street":"418 W DIEL ST","Zip":"67565","Longitude":"-99.195495","Latitude":"38.532400","Dates":null,"Products":""},{"Type":"on-farm market","ModifyDate":"Aug 23rd, 2014","Image":"default-onfarmmarket-4-3.jpg","ListingID":"700898","Name":"Synergistic Acres Pasture Raised Meats","Description":null,"ContactName":"Jeff Hamons","ContactEmail":"jeffhamons@gmail.com","ContactPhone":"9137354769","Website":"www.synergisticares.com","Facebook":"www.facebook.com\/synergisticacres","Twitter":null,"Instagram":null,"Pinterest":null,"Youtube":null,"Blog":"http:\/\/www.synergisticacres.com\/blog\/","Address":"21733 Iliff Rd, Parker , Kansas 66072","State":"Kansas","City":"Parker","Street":"21733 Iliff Rd","Zip":"66072","Longitude":"-94.917233","Latitude":"38.341665","Dates":null,"Products":""},{"Type":"on-farm market","ModifyDate":"Aug 24th, 2014","Image":"default-onfarmmarket-4-3.jpg","ListingID":"700918","Name":"Tubby Fruits Orchard","Description":null,"ContactName":"Mark Angermayer","ContactEmail":"mark@tubbyfruits.com","ContactPhone":"913-851-7414","Website":"www.tubbyfruits.com","Facebook":null,"Twitter":null,"Instagram":null,"Pinterest":null,"Youtube":null,"Blog":null,"Address":"6800 W 201st Terr, Bucyrus, Kansas 66013","State":"Kansas","City":"Bucyrus","Street":"6800 W 201st Terr","Zip":"66013","Longitude":"-94.664151","Latitude":"38.7631410","Dates":null,"Products":""},{"Type":"on-farm market","ModifyDate":"Aug 29th, 2014","Image":"default-onfarmmarket-4-3.jpg","ListingID":"700990","Name":"Meier's Market","Description":null,"ContactName":"lenny meier jr","ContactEmail":"farmer325@aol.com","ContactPhone":"7852203335","Website":null,"Facebook":null,"Twitter":null,"Instagram":null,"Pinterest":null,"Youtube":null,"Blog":null,"Address":"2300 lower silver lake rd., topeka, Kansas 66618","State":"Kansas","City":"topeka","Street":"2300 lower silver lake rd.","Zip":"66618","Longitude":"-95.692525","Latitude":"39.076619","Dates":null,"Products":""},{"Type":"on-farm market","ModifyDate":"Feb 28th, 2018","Image":"default-onfarmmarket-4-3.jpg","ListingID":"701444","Name":"WVFarm, LLC","Description":null,"ContactName":"Sonja Wood","ContactEmail":"WVFarm@outlook.com","ContactPhone":"7852554445","Website":"Woodlandvalleyfarm.info","Facebook":"Woodlandvalleyfarm-Kansas","Twitter":"Twitter.com\/wvfarm","Instagram":null,"Pinterest":null,"Youtube":null,"Blog":null,"Address":"774 Stafford Road, Pomona, Kansas 66076","State":"Kansas","City":"Pomona","Street":"774 Stafford Road","Zip":"66076","Longitude":"-95.439204","Latitude":"38.709147","Dates":null,"Products":""},{"Type":"on-farm market","ModifyDate":"Jan 28th, 2018","Image":"default-onfarmmarket-4-3.jpg","ListingID":"701441","Name":"Fanska Farms","Description":null,"ContactName":"Billy Fanska","ContactEmail":"billy.fanska@gmail.com","ContactPhone":"3163239326","Website":"www.FanskaFarms.com","Facebook":"https:\/\/www.facebook.com\/FanskaFarms\/","Twitter":null,"Instagram":null,"Pinterest":null,"Youtube":null,"Blog":null,"Address":"3873 NE 4th, El Dorado, Kansas 67042","State":"Kansas","City":"El Dorado","Street":"3873 NE 4th","Zip":"67042","Longitude":"-96.769746","Latitude":"37.8297640","Dates":null,"Products":""},{"Type":"on-farm market","ModifyDate":"Jul 26th, 2014","Image":"default-onfarmmarket-4-3.jpg","ListingID":"700318","Name":"Kalaya Emu Estates","Description":null,"ContactName":"Betty Augustine","ContactEmail":"info@KalayaEmuEstate.com","ContactPhone":"620-327-4124","Website":"www.KalayaEmuEstate.com","Facebook":null,"Twitter":null,"Instagram":null,"Pinterest":null,"Youtube":null,"Blog":null,"Address":"8 Bentgrass Dr., Hesston, Kansas 67062","State":"Kansas","City":"Hesston","Street":"8 Bentgrass Dr.","Zip":"67062","Longitude":"-97.410670","Latitude":"38.1314260","Dates":null,"Products":""},{"Type":"on-farm market","ModifyDate":"Jul 27th, 2014","Image":"default-onfarmmarket-4-3.jpg","ListingID":"700274","Name":"Underhill Farms","Description":null,"ContactName":"Lynn Kaufman","ContactEmail":"lynn@underhillfarms.com","ContactPhone":"620-345-8415","Website":null,"Facebook":null,"Twitter":null,"Instagram":null,"Pinterest":null,"Youtube":null,"Blog":null,"Address":"187 21st Ave, Moundridge, Kansas 67107","State":"Kansas","City":"Moundridge","Street":"187 21st Ave","Zip":"67107","Longitude":"-97.538240","Latitude":"38.2014760","Dates":null,"Products":""},{"Type":"on-farm market","ModifyDate":"Jul 28th, 2014","Image":"default-onfarmmarket-4-3.jpg","ListingID":"700080","Name":"Boondocker Farms","Description":null,"ContactName":"Steve Finley","ContactEmail":"info@boondockerfarms.com","ContactPhone":"316-350-7785","Website":"www.boondockerfarms.com","Facebook":"https:\/\/www.facebook.com\/pages\/Boondocker-Farms\/213960995309803","Twitter":null,"Instagram":null,"Pinterest":null,"Youtube":null,"Blog":null,"Address":"4772 SW 60th Street, El Dorado, Kansas 67042","State":"Kansas","City":"El Dorado","Street":"4772 SW 60th Street","Zip":"67042","Longitude":"-96.932121","Latitude":"37.738005","Dates":null,"Products":""},{"Type":"on-farm market","ModifyDate":"Jul 28th, 2014","Image":"default-onfarmmarket-4-3.jpg","ListingID":"700161","Name":"Christy's Farm","Description":null,"ContactName":"Christy O\\'Neal","ContactEmail":"christy@christysfarm.org","ContactPhone":"785-477-2480","Website":"http:\/\/www.christysfarm.org\/","Facebook":"https:\/\/www.facebook.com\/Christy\\'sFarm","Twitter":null,"Instagram":null,"Pinterest":null,"Youtube":null,"Blog":"http:\/\/christysfarm.org\/christysfarmblog\/","Address":"3230 McDowell Creek Road, Manhattan, Kansas 66502","State":"Kansas","City":"Manhattan","Street":"3230 McDowell Creek Road","Zip":"66502","Longitude":"-96.582717","Latitude":"39.123231","Dates":null,"Products":""},{"Type":"on-farm market","ModifyDate":"Jul 2nd, 2021","Image":"default-onfarmmarket-4-3.jpg","ListingID":"701604","Name":"Maseualkualli Farms","Description":null,"ContactName":"Pantaleon Florez III","ContactEmail":"maseualkuallifarms@gmail.com","ContactPhone":"785-221-8008","Website":"www.masefarm.org","Facebook":null,"Twitter":null,"Instagram":null,"Pinterest":null,"Youtube":null,"Blog":null,"Address":"916 Pennsylvania St, Lawrence , Kansas 66044","State":"Kansas","City":"Lawrence","Street":"916 Pennsylvania St","Zip":"66044","Longitude":"-95.229148","Latitude":"39.000706","Dates":null,"Products":""},{"Type":"on-farm market","ModifyDate":"Mar 24th, 2015","Image":"default-onfarmmarket-4-3.jpg","ListingID":"701003","Name":"Parks Farm","Description":null,"ContactName":"Darrell Parks","ContactEmail":"parkspasturepork@gmail.com","ContactPhone":"785-770-2835","Website":null,"Facebook":null,"Twitter":null,"Instagram":null,"Pinterest":null,"Youtube":null,"Blog":null,"Address":"1001 East 26th Ave., Manhattan, Kansas 66502","State":"Kansas","City":"Manhattan","Street":"1001 East 26th Ave.","Zip":"66502","Longitude":"-96.492305","Latitude":"39.153204","Dates":null,"Products":""},{"Type":"on-farm market","ModifyDate":"Nov 21st, 2014","Image":"default-onfarmmarket-4-3.jpg","ListingID":"701173","Name":"Meadowlark Acres","Description":null,"ContactName":"Suzanne Frisse","ContactEmail":"sfrisse@kc.rr.com","ContactPhone":"9136815004","Website":"www.meadowlarkacres.com","Facebook":"https:\/\/www.facebook.com\/pages\/Meadowlark-Acres\/298419166130?ref=hl","Twitter":null,"Instagram":null,"Pinterest":null,"Youtube":null,"Blog":null,"Address":"5830 West 167th Street, Stilwell, Kansas 66085","State":"Kansas","City":"Stilwell","Street":"5830 West 167th Street","Zip":"66085","Longitude":"-94.653190","Latitude":"38.826238","Dates":null,"Products":""},{"Type":"on-farm market","ModifyDate":"Oct 12th, 2014","Image":"default-onfarmmarket-4-3.jpg","ListingID":"701135","Name":"B Smart Apiaries","Description":null,"ContactName":"Billy Y. Smart","ContactEmail":"bsmart3762@gmail.com","ContactPhone":"6207829638","Website":null,"Facebook":null,"Twitter":null,"Instagram":null,"Pinterest":null,"Youtube":null,"Blog":null,"Address":"3762 51st Rd., Udall, Kansas 67146","State":"Kansas","City":"Udall","Street":"3762 51st Rd.","Zip":"67146","Longitude":"-97.060063","Latitude":"37.437208","Dates":null,"Products":""},{"Type":"on-farm market","ModifyDate":"Sep 16th, 2014","Image":"default-onfarmmarket-4-3.jpg","ListingID":"700101","Name":"Meadowlark Farm, LLC","Description":null,"ContactName":"Tom Brown","ContactEmail":"tom@themeadowlarkfarm.com","ContactPhone":"316-518-8907","Website":"www.themeadowlarkfarm.com","Facebook":"https:\/\/www.facebook.com\/meadowlarkfarm","Twitter":null,"Instagram":null,"Pinterest":null,"Youtube":null,"Blog":null,"Address":"11249 SW 160th St, Rose Hill, Kansas 67133","State":"Kansas","City":"Rose Hill","Street":"11249 SW 160th St","Zip":"67133","Longitude":"-97.044939","Latitude":"37.591739","Dates":null,"Products":""},{"Type":"on-farm market","ModifyDate":"Sep 16th, 2014","Image":"default-onfarmmarket-4-3.jpg","ListingID":"701078","Name":"Camp Creek Farms","Description":null,"ContactName":"Rick Newson","ContactEmail":"rwn45@embarqmail.com","ContactPhone":"913-884-6374","Website":null,"Facebook":"www.facebook.com\/campcreekfarms","Twitter":null,"Instagram":null,"Pinterest":null,"Youtube":null,"Blog":null,"Address":"29050 W 127th Street, Olathe , Kansas 66061","State":"Kansas","City":"Olathe","Street":"29050 W 127th Street","Zip":"66061","Longitude":"-94.922090","Latitude":"38.9001530","Dates":null,"Products":""},{"Type":"on-farm market","ModifyDate":"Sep 24th, 2014","Image":"default-onfarmmarket-4-3.jpg","ListingID":"701094","Name":"Skyview Farm and Creamery","Description":null,"ContactName":"Sheri Noffke","ContactEmail":"GodsAcre@ckt.net","ContactPhone":"913-352-8727","Website":"skyviewfarm.net","Facebook":"Skyview Farm","Twitter":null,"Instagram":null,"Pinterest":null,"Youtube":null,"Blog":null,"Address":"22722 E 800 Rd, Pleasanton, Kansas 66075","State":"Kansas","City":"Pleasanton","Street":"22722 E 800 Rd","Zip":"66075","Longitude":"-94.681721","Latitude":"38.140017","Dates":null,"Products":""}]