[{"Type":"on-farm market","ModifyDate":"Apr 28th, 2020","Image":"default-onfarmmarket-4-3.jpg","ListingID":"701521","Name":"Our Wyoming Life Farm Store","Description":null,"ContactName":"Erin Galloway","ContactEmail":"erin@ourwyominglife.com","ContactPhone":"3076892223","Website":"ourwyominglife.com","Facebook":"https:\/\/www.facebook.com\/ourwyominglifefarmstore\/","Twitter":null,"Instagram":null,"Pinterest":null,"Youtube":null,"Blog":null,"Address":"1141 State Hwy 50, Gillette, Wyoming 82718","State":"Wyoming","City":"Gillette","Street":"1141 State Hwy 50","Zip":"82718","Longitude":"-105.63268","Latitude":"44.174991","Dates":null,"Products":""},{"Type":"on-farm market","ModifyDate":"Feb 5th, 2022","Image":"default-onfarmmarket-4-3.jpg","ListingID":"701631","Name":"Taste of the Wind LLC","Description":null,"ContactName":"BJ Edwards","ContactEmail":"BJ@tasteofthewind.com","ContactPhone":"3073994893","Website":"www.tasteofthewind.com","Facebook":"www.facebook.com\/tasteofthewind307","Twitter":null,"Instagram":null,"Pinterest":null,"Youtube":null,"Blog":"www.tasteofthewind.com\/blog","Address":"124 Fox Creek Rd, Laramie, Wyoming 82070","State":"Wyoming","City":"Laramie","Street":"124 Fox Creek Rd","Zip":"82070","Longitude":"-106.07469","Latitude":"41.186631","Dates":null,"Products":""},{"Type":"on-farm market","ModifyDate":"Jan 14th, 2022","Image":"default-onfarmmarket-4-3.jpg","ListingID":"701628","Name":"Reed Livestock LLC","Description":null,"ContactName":"THOMAS L REED","ContactEmail":"Trfire2000@gmail.com","ContactPhone":"3073517694","Website":"sagebrushbeef.com","Facebook":"Reed Livestock","Twitter":null,"Instagram":null,"Pinterest":null,"Youtube":null,"Blog":null,"Address":"1003 Dull Center Rd., Douglas, Wyoming 82633","State":"Wyoming","City":"Douglas","Street":"1003 Dull Center Rd.","Zip":"82633","Longitude":"-105.13780","Latitude":"43.290296","Dates":null,"Products":""},{"Type":"on-farm market","ModifyDate":"Oct 6th, 2017","Image":"default-onfarmmarket-4-3.jpg","ListingID":"701431","Name":"Case Custom Meats","Description":null,"ContactName":"Paul Case","ContactEmail":"Caseheritagepork@gmail.com","ContactPhone":"307-286-1626","Website":"www.casecustommeats.com","Facebook":"Www.facebook.com\/casecustommeats","Twitter":null,"Instagram":null,"Pinterest":null,"Youtube":null,"Blog":null,"Address":", Yoder, Wyoming 82244","State":"Wyoming","City":"Yoder","Street":null,"Zip":"82244","Longitude":"-104.28372","Latitude":"41.915028","Dates":null,"Products":""}]