[{"Type":"on-farm market","ModifyDate":"Apr 18th, 2022","Image":"default-onfarmmarket-4-3.jpg","ListingID":"700127","Name":"Hilo Coffee Mill Market @ The Mill","Description":"","ContactName":"Jeanette Baysa","ContactEmail":"hcmcoffee@msn.com","ContactPhone":"808-968-1333","Website":"www.hilocoffeemill.com","Facebook":"https:\/\/www.facebook.com\/hcmcoffee","Twitter":"www.twitter.com\/hilocoffeemill","Instagram":"","Pinterest":"","Youtube":"","Blog":"","Address":"17-995 Volcano Rd, Mountain View, Hawaii 96771","State":"Hawaii","City":"Mountain View","Street":"17-995 Volcano Rd","Zip":"96771","Longitude":"-155.08852","Latitude":"19.564663","Dates":null,"Products":""},{"Type":"on-farm market","ModifyDate":"Jan 27th, 2021","Image":"default-onfarmmarket-4-3.jpg","ListingID":"701578","Name":"Kahumana Farms & Caf Market","Description":null,"ContactName":"Saleh Azizi","ContactEmail":"sazizi@asi-hawaii.org","ContactPhone":"8083835224","Website":"www.kahumana.org","Facebook":"facebook.com\/kahumanafarms\/","Twitter":"www.kahumana.org","Instagram":null,"Pinterest":null,"Youtube":null,"Blog":null,"Address":"86-660 lualualei homestead road, Wai\\'anae, Hawaii 96792","State":"Hawaii","City":"Wai\\'anae","Street":"86-660 lualualei homestead road","Zip":"96792","Longitude":"-158.15596","Latitude":"21.440047","Dates":null,"Products":""},{"Type":"on-farm market","ModifyDate":"Jul 30th, 2014","Image":"default-onfarmmarket-4-3.jpg","ListingID":"700278","Name":"Love Family Farms","Description":null,"ContactName":"Ken and Margy Love","ContactEmail":"ken@mycoffee.net","ContactPhone":"808-323-2417","Website":"http:\/\/www.hawaiifruit.net","Facebook":null,"Twitter":null,"Instagram":null,"Pinterest":null,"Youtube":null,"Blog":null,"Address":"81-639994 lilikalani, Captain Cook, Hawaii 96704","State":"Hawaii","City":"Captain Cook","Street":"81-639994 lilikalani","Zip":"96704","Longitude":"-155.92097","Latitude":"19.499856","Dates":null,"Products":""},{"Type":"on-farm market","ModifyDate":"Sep 30th, 2014","Image":"default-onfarmmarket-4-3.jpg","ListingID":"700204","Name":"Edge of the World","Description":null,"ContactName":"Dr. Kurt Weigelt","ContactEmail":"weigelt@aloha.net","ContactPhone":"(808) 328-7424","Website":"www.konaedge.com","Facebook":null,"Twitter":null,"Instagram":null,"Pinterest":null,"Youtube":null,"Blog":null,"Address":"82-5889 Old Government Rd., Captain Cook, Hawaii 96704","State":"Hawaii","City":"Captain Cook","Street":"82-5889 Old Government Rd.","Zip":"96704","Longitude":"-155.89835","Latitude":"19.477671","Dates":null,"Products":""}]