[{"Type":"on-farm market","ModifyDate":"Apr 13th, 2022","Image":"onfarmmarket_701621_12496_20220414003153.png","ListingID":"701621","Name":"Mountain View Meats","Description":"At Mountain View Meats, our mission is to provide consumers with locally grown, fresh, high-quality beef and pork, at the best possible price.  Staying local is best for the cattle, the consumers, and for our business.","ContactName":"Mace Smyth","ContactEmail":"mace.mvm@gmail.com","ContactPhone":"9708297846","Website":"www.MVmeatsFC.com","Facebook":"www.facebook.com\/mvmeatsfc","Twitter":"","Instagram":"www.instagram.com\/mvmeatsfc","Pinterest":"","Youtube":"","Blog":"","Address":"5200 North County Rd 19, Fort Collins, Colorado 80524","State":"Colorado","City":"Fort Collins","Street":"5200 North County Rd 19","Zip":"80524","Longitude":"-105.11135","Latitude":"40.661499","Dates":null,"Products":""},{"Type":"on-farm market","ModifyDate":"Apr 17th, 2015","Image":"default-onfarmmarket-4-3.jpg","ListingID":"700447","Name":"Uncle Johnnys UPick Farm","Description":null,"ContactName":"johnny bell","ContactEmail":"UNCLEJOHNNYSUPICKFARM@GMAIL.COM","ContactPhone":"970-250-5829","Website":null,"Facebook":"https:\/\/www.facebook.com\/pages\/Uncle-Johnnys-U-Pick-Farm\/152162904866587","Twitter":null,"Instagram":null,"Pinterest":null,"Youtube":null,"Blog":null,"Address":"18561 Surface Creek Road, Cedaredge, Colorado 81413","State":"Colorado","City":"Cedaredge","Street":"18561 Surface Creek Road","Zip":"81413","Longitude":"-107.90992","Latitude":"38.923679","Dates":null,"Products":""},{"Type":"on-farm market","ModifyDate":"Apr 1st, 2015","Image":"default-onfarmmarket-4-3.jpg","ListingID":"701236","Name":"Pitts Family Ranch","Description":null,"ContactName":"Michele Pitts","ContactEmail":"michelepitts56@gmail.com","ContactPhone":"541-778-4271","Website":null,"Facebook":"PittsFamilyRanchGrassfedMilk","Twitter":null,"Instagram":null,"Pinterest":null,"Youtube":null,"Blog":null,"Address":"15238 Rd 21, Cortez, Colorado 81321","State":"Colorado","City":"Cortez","Street":"15238 Rd 21","Zip":"81321","Longitude":"-108.66221","Latitude":"37.4322350","Dates":null,"Products":""},{"Type":"on-farm market","ModifyDate":"Apr 24th, 2015","Image":"default-onfarmmarket-4-3.jpg","ListingID":"701129","Name":"Jenkins Farm, LLC","Description":null,"ContactName":"Curtis Jenkins","ContactEmail":"info.ces@juno.com","ContactPhone":"719-554-4905","Website":null,"Facebook":null,"Twitter":null,"Instagram":null,"Pinterest":null,"Youtube":null,"Blog":null,"Address":"7093  County Road 61, Divide, Colorado 80814","State":"Colorado","City":"Divide","Street":"7093  County Road 61","Zip":"80814","Longitude":"-105.16988","Latitude":"38.847830","Dates":null,"Products":""},{"Type":"on-farm market","ModifyDate":"Aug 13th, 2014","Image":"default-onfarmmarket-4-3.jpg","ListingID":"700324","Name":"Feed Denver: Sunnyside Farm & Market","Description":null,"ContactName":"Lisa Rogers","ContactEmail":"info@feeddenver.com","ContactPhone":"303-513-7548","Website":"www.FeedDenver.com","Facebook":"www.facebook.com\/feeddenver","Twitter":"www.twitter.com\/feeddenver","Instagram":null,"Pinterest":null,"Youtube":null,"Blog":null,"Address":"44th Avenue and Vallejo Street, Denver, Colorado 80211","State":"Colorado","City":"Denver","Street":"44th Avenue and Vallejo Street","Zip":"80211","Longitude":"-105.01348","Latitude":"39.7765630","Dates":null,"Products":""},{"Type":"on-farm market","ModifyDate":"Aug 13th, 2014","Image":"default-onfarmmarket-4-3.jpg","ListingID":"700426","Name":"RoastedChile.com","Description":null,"ContactName":"Pete","ContactEmail":"wizzbizz101@yahoo.com","ContactPhone":"720-329-2946","Website":"Roastedchili.com","Facebook":null,"Twitter":null,"Instagram":null,"Pinterest":null,"Youtube":null,"Blog":null,"Address":"1701 South Cherokee St, Denver, Colorado 80229","State":"Colorado","City":"Denver","Street":"1701 South Cherokee St","Zip":"80229","Longitude":"-104.99152","Latitude":"39.685542","Dates":null,"Products":""},{"Type":"on-farm market","ModifyDate":"Aug 13th, 2014","Image":"default-onfarmmarket-4-3.jpg","ListingID":"700684","Name":"Bartels Land and Livestock Upick and Pumpkin Patch","Description":null,"ContactName":"Nancy","ContactEmail":"llavud@frii.com","ContactPhone":"970-493-3853","Website":"llavud@frii.com","Facebook":"https:\/\/www.facebook.com\/pages\/The-Bartels-Pumpkin-Patch\/137755902661","Twitter":null,"Instagram":null,"Pinterest":null,"Youtube":null,"Blog":null,"Address":"3424 E. Douglas Road, Ft. Collins, Colorado 80524","State":"Colorado","City":"Ft. Collins","Street":"3424 E. Douglas Road","Zip":"80524","Longitude":"-105.03118","Latitude":"40.694011","Dates":null,"Products":""},{"Type":"on-farm market","ModifyDate":"Aug 13th, 2014","Image":"default-onfarmmarket-4-3.jpg","ListingID":"700795","Name":"Everitt Farms","Description":null,"ContactName":"Derek Mullen","ContactEmail":"Derek@everittfarms.com","ContactPhone":"303-525-1116","Website":"www.everittfarms.com","Facebook":"https:\/\/www.facebook.com\/everittfarms","Twitter":"https:\/\/twitter.com\/EverittFarms","Instagram":null,"Pinterest":null,"Youtube":null,"Blog":null,"Address":"9400 W Alameda Ave, Lakewood, Colorado 80226","State":"Colorado","City":"Lakewood","Street":"9400 W Alameda Ave","Zip":"80226","Longitude":"-105.10169","Latitude":"39.710797","Dates":null,"Products":""},{"Type":"on-farm market","ModifyDate":"Aug 1st, 2014","Image":"default-onfarmmarket-4-3.jpg","ListingID":"700207","Name":"Dragonfly Farm","Description":null,"ContactName":"Topsy Holmes","ContactEmail":"topsy@dragonflychurros.com","ContactPhone":"970-874-0367","Website":"dragonflychurros.com","Facebook":null,"Twitter":null,"Instagram":null,"Pinterest":null,"Youtube":null,"Blog":null,"Address":"823 1400 Lane, Delta, Colorado 81416","State":"Colorado","City":"Delta","Street":"823 1400 Lane","Zip":"81416","Longitude":"-108.10809","Latitude":"38.773807","Dates":null,"Products":""},{"Type":"on-farm market","ModifyDate":"Aug 1st, 2014","Image":"default-onfarmmarket-4-3.jpg","ListingID":"700357","Name":"Bolton's Orchards","Description":null,"ContactName":"Josie Bolton","ContactEmail":"fortbolton@aol.com","ContactPhone":"970-241-9398","Website":null,"Facebook":"https:\/\/www.facebook.com\/pages\/Boltons-Orchards-and-Farm-Market\/342817158274","Twitter":null,"Instagram":null,"Pinterest":null,"Youtube":null,"Blog":null,"Address":"2257 L Road, Grand Junction, Colorado 81505","State":"Colorado","City":"Grand Junction","Street":"2257 L Road","Zip":"81505","Longitude":"-108.63187","Latitude":"39.1768720","Dates":null,"Products":""},{"Type":"on-farm market","ModifyDate":"Aug 23rd, 2014","Image":"default-onfarmmarket-4-3.jpg","ListingID":"700902","Name":"Life Cycles Pasture","Description":null,"ContactName":"John Mercer","ContactEmail":"batw2012@gmail.com","ContactPhone":"5413504261","Website":"www.lifecyclespasture.com","Facebook":"https:\/\/www.facebook.com\/pages\/Life-Cycles-Pasture\/400632466741298?ref=bookmarks","Twitter":null,"Instagram":null,"Pinterest":null,"Youtube":null,"Blog":"http:\/\/www.lifecyclespasture.com\/blog\/","Address":"1875 Locust Rd, MONTROSE, Colorado 81401","State":"Colorado","City":"MONTROSE","Street":"1875 Locust Rd","Zip":"81401","Longitude":"-107.86060","Latitude":"38.4917080","Dates":null,"Products":""},{"Type":"on-farm market","ModifyDate":"Aug 24th, 2014","Image":"default-onfarmmarket-4-3.jpg","ListingID":"700911","Name":"Upper Beaver Creek Ranch","Description":null,"ContactName":"Upper Beaver Creek Ranch","ContactEmail":"mvh876@gmail.com","ContactPhone":"719-372-6677","Website":null,"Facebook":null,"Twitter":null,"Instagram":null,"Pinterest":null,"Youtube":null,"Blog":null,"Address":"116 Red Rock Dr., Penrose, Colorado 81240","State":"Colorado","City":"Penrose","Street":"116 Red Rock Dr.","Zip":"81240","Longitude":"-105.05136","Latitude":"38.534429","Dates":null,"Products":""},{"Type":"on-farm market","ModifyDate":"Aug 25th, 2014","Image":"default-onfarmmarket-4-3.jpg","ListingID":"700340","Name":"Morton's Organic Orchards","Description":null,"ContactName":"David Morton","ContactEmail":"hburtness1@msn.com","ContactPhone":"970-464-7854 or 720-","Website":"www.mortonsorchards.com","Facebook":null,"Twitter":null,"Instagram":null,"Pinterest":null,"Youtube":null,"Blog":null,"Address":"3651 E 1\/2 Road, Palisade, Colorado 81526","State":"Colorado","City":"Palisade","Street":"3651 E 1\/2 Road","Zip":"81526","Longitude":"-108.37491","Latitude":"39.0835220","Dates":null,"Products":""},{"Type":"on-farm market","ModifyDate":"Aug 4th, 2016","Image":"default-onfarmmarket-4-3.jpg","ListingID":"701367","Name":"Crooked Clove Farm & Ranch LLC","Description":null,"ContactName":"David Smit","ContactEmail":"Info@crookedclove.com","ContactPhone":"720-569-0955","Website":"www.crookedclove.com","Facebook":"www.facebook.com\/crookedclove","Twitter":"www.twitter.com\/crookedclove","Instagram":null,"Pinterest":null,"Youtube":null,"Blog":null,"Address":"8222 S Perry Park Rd, Larkspur, Colorado 80118","State":"Colorado","City":"Larkspur","Street":"8222 S Perry Park Rd","Zip":"80118","Longitude":"-104.95600","Latitude":"39.241712","Dates":null,"Products":""},{"Type":"on-farm market","ModifyDate":"Aug 6th, 2020","Image":"default-onfarmmarket-4-3.jpg","ListingID":"701547","Name":"Delyaks","Description":null,"ContactName":"Bob Hasse","ContactEmail":"orders@yakmeat.us","ContactPhone":"970-249-1734","Website":"www.yakmeat.us  , www.yaksale.com","Facebook":"DELYAKS","Twitter":null,"Instagram":null,"Pinterest":null,"Youtube":null,"Blog":null,"Address":"14679 5875 Rd, Montrose, Colorado 81403","State":"Colorado","City":"Montrose","Street":"14679 5875 Rd","Zip":"81403","Longitude":"-107.99123","Latitude":"38.480011","Dates":null,"Products":""},{"Type":"on-farm market","ModifyDate":"Aug 7th, 2014","Image":"default-onfarmmarket-4-3.jpg","ListingID":"700821","Name":"Hugs Farm","Description":null,"ContactName":"Brian Rosino","ContactEmail":"editor.gazelle@gmail.com","ContactPhone":"7203650767","Website":"www.HugsFarm.weebly.com","Facebook":null,"Twitter":null,"Instagram":null,"Pinterest":null,"Youtube":null,"Blog":null,"Address":"616 Stout St, Walsenburg , Colorado 81089","State":"Colorado","City":"Walsenburg","Street":"616 Stout St","Zip":"81089","Longitude":"-104.79355","Latitude":"37.6300888","Dates":null,"Products":""},{"Type":"on-farm market","ModifyDate":"Jan 14th, 2015","Image":"default-onfarmmarket-4-3.jpg","ListingID":"701195","Name":"Heritage Lavender, LLC","Description":null,"ContactName":"Trudy Perry","ContactEmail":"heritagelavender@gmail.com","ContactPhone":"303-514-6504","Website":"http:\/\/heritagelavender.com\/","Facebook":"https:\/\/www.facebook.com\/HeritageLavender?ref=hl","Twitter":null,"Instagram":null,"Pinterest":null,"Youtube":null,"Blog":"http:\/\/heritagelavender.com\/","Address":"4809 Foothills Drive, Berthoud, Colorado 80513","State":"Colorado","City":"Berthoud","Street":"4809 Foothills Drive","Zip":"80513","Longitude":"-105.16339","Latitude":"40.287934","Dates":null,"Products":""},{"Type":"on-farm market","ModifyDate":"Jan 15th, 2019","Image":"default-onfarmmarket-4-3.jpg","ListingID":"701468","Name":"Harvest Moon Produce LLC","Description":null,"ContactName":"Emily Adie","ContactEmail":"emilydeanadie80@gmail.com","ContactPhone":"4065299129","Website":"https:\/\/harvestmoonproduce.farm","Facebook":"https:\/\/facebook.com\/harvestmoonproduce","Twitter":null,"Instagram":null,"Pinterest":null,"Youtube":null,"Blog":"https:\/\/harvestmoonproduce.farm\/blog\/","Address":"28881 Road P, Dolores, Colorado 81323","State":"Colorado","City":"Dolores","Street":"28881 Road P","Zip":"81323","Longitude":"-108.52200","Latitude":"37.421268","Dates":null,"Products":""},{"Type":"on-farm market","ModifyDate":"Jan 15th, 2021","Image":"default-onfarmmarket-4-3.jpg","ListingID":"701576","Name":"Ponderosa Plains Farm","Description":null,"ContactName":"Sheila Zuschek","ContactEmail":"ponderosaplains@gmail.com","ContactPhone":"3039185700","Website":"https:\/\/ponderosaplains.square.site","Facebook":"https:\/\/www.facebook.com\/PonderosaPlains","Twitter":null,"Instagram":null,"Pinterest":null,"Youtube":null,"Blog":null,"Address":"4999 Spruce Court, Elizabeth, Colorado 80107","State":"Colorado","City":"Elizabeth","Street":"4999 Spruce Court","Zip":"80107","Longitude":"-104.57081","Latitude":"39.362073","Dates":null,"Products":""},{"Type":"on-farm market","ModifyDate":"Jul 26th, 2014","Image":"default-onfarmmarket-4-3.jpg","ListingID":"700116","Name":"Laughing Buck Farm","Description":null,"ContactName":"Rosemary Graff","ContactEmail":"laughingbuckfarm@gmail.com","ContactPhone":"970-203-4568","Website":"www.laughingbuckfarm.com","Facebook":"https:\/\/www.facebook.com\/laughingbuckfarm","Twitter":null,"Instagram":null,"Pinterest":null,"Youtube":null,"Blog":null,"Address":"3724 North County Road 13, Fort Collins , Colorado 80524","State":"Colorado","City":"Fort Collins","Street":"3724 North County Road 13","Zip":"80524","Longitude":"-105.05668","Latitude":"40.6404242","Dates":null,"Products":""},{"Type":"on-farm market","ModifyDate":"Jul 26th, 2014","Image":"default-onfarmmarket-4-3.jpg","ListingID":"700465","Name":"Fresh Start Family Farms LLC.","Description":null,"ContactName":"Tony Cobosco","ContactEmail":"tcobosco@freshstartfamilyfarms.com","ContactPhone":"720-298-3361","Website":"http:\/\/www.freshstartfamilyfarms.com","Facebook":"https:\/\/www.facebook.com\/pages\/Fresh-Start-Family-Farms\/199168826774078?ref=hl","Twitter":null,"Instagram":null,"Pinterest":null,"Youtube":null,"Blog":null,"Address":"23700 E 42nd Avenue, Aurora, Colorado 80019","State":"Colorado","City":"Aurora","Street":"23700 E 42nd Avenue","Zip":"80019","Longitude":"-104.71048","Latitude":"39.7746330","Dates":null,"Products":""},{"Type":"on-farm market","ModifyDate":"Jul 27th, 2014","Image":"default-onfarmmarket-4-3.jpg","ListingID":"700538","Name":"Colon Orchards","Description":null,"ContactName":"Britt Colon","ContactEmail":"brittalex@hotmail.com","ContactPhone":"719-275-6359","Website":"www.colonorchards.com","Facebook":"www.facebook.com\/colonorchards","Twitter":null,"Instagram":null,"Pinterest":null,"Youtube":null,"Blog":null,"Address":"3175 Grandview Avenue, Canon City, Colorado 81212","State":"Colorado","City":"Canon City","Street":"3175 Grandview Avenue","Zip":"81212","Longitude":"-105.18516","Latitude":"38.435304","Dates":null,"Products":""},{"Type":"on-farm market","ModifyDate":"Jul 27th, 2014","Image":"default-onfarmmarket-4-3.jpg","ListingID":"700607","Name":"On the Vine at Richmond Farms Urban Market","Description":null,"ContactName":"Bob Miller","ContactEmail":"otvatrichmondfarms@yahoo.com","ContactPhone":"970-443-4011","Website":"www.onthevineatrichmondfarms.com","Facebook":"www.facebook.com\/onthevinefarm","Twitter":null,"Instagram":null,"Pinterest":null,"Youtube":null,"Blog":null,"Address":"W. Horsetooth and Richmond Dr, Fort Collins, Colorado 80526","State":"Colorado","City":"Fort Collins","Street":"W. Horsetooth and Richmond Dr","Zip":"80526","Longitude":"-105.09942","Latitude":"40.538248","Dates":null,"Products":""},{"Type":"on-farm market","ModifyDate":"Jul 28th, 2014","Image":"default-onfarmmarket-4-3.jpg","ListingID":"700704","Name":"Just What Grows Gardens","Description":null,"ContactName":"stacey poland","ContactEmail":"justwhatgrowsgardens@gmail.com","ContactPhone":"970-370-1712","Website":null,"Facebook":null,"Twitter":null,"Instagram":null,"Pinterest":null,"Youtube":null,"Blog":null,"Address":"25641 County Road T.9, Brush, Colorado 80723","State":"Colorado","City":"Brush","Street":"25641 County Road T.9","Zip":"80723","Longitude":"-103.66679","Latitude":"40.275803","Dates":null,"Products":""},{"Type":"on-farm market","ModifyDate":"Jul 29th, 2014","Image":"default-onfarmmarket-4-3.jpg","ListingID":"700730","Name":"Palombo Farms Market","Description":null,"ContactName":"Joe Palombo","ContactEmail":"Info@PalomboMarket.com","ContactPhone":"3032870134","Website":"www.PalomboMarket.com","Facebook":"https:\/\/www.facebook.com\/PalomboMarket","Twitter":"https:\/\/twitter.com\/@palombomarket","Instagram":null,"Pinterest":null,"Youtube":null,"Blog":"http:\/\/palombomarket.wordpress.com\/","Address":"11500 Havana Street, Henderson, Colorado 80640","State":"Colorado","City":"Henderson","Street":"11500 Havana Street","Zip":"80640","Longitude":"-104.86412","Latitude":"39.9030356","Dates":null,"Products":""},{"Type":"on-farm market","ModifyDate":"Jul 30th, 2014","Image":"default-onfarmmarket-4-3.jpg","ListingID":"700496","Name":"High Altitude Rhubarb--Organic Farm & Nursery","Description":null,"ContactName":"Dennis Duncan","ContactEmail":"Dennis.Duncan@HighAltitudeRhubarb.com","ContactPhone":"(719)494-8424","Website":"http:\/\/www.highaltituderhubarb.com","Facebook":"https:\/\/www.facebook.com\/#!\/pages\/High-Altitude-Rhubarb-LLC\/161735683855277","Twitter":null,"Instagram":null,"Pinterest":null,"Youtube":null,"Blog":null,"Address":"7225 Wildridge Road, Black Forest, Colorado 80908","State":"Colorado","City":"Black Forest","Street":"7225 Wildridge Road","Zip":"80908","Longitude":"-104.69274","Latitude":"39.039318","Dates":null,"Products":""},{"Type":"on-farm market","ModifyDate":"Jun 7th, 2015","Image":"default-onfarmmarket-4-3.jpg","ListingID":"700845","Name":"Desert Weyr, LLC","Description":null,"ContactName":"Oogie McGuire","ContactEmail":"Sales@desertweyr.com","ContactPhone":"970-527-3573","Website":"http:\/\/www.desertweyr.com","Facebook":"https:\/\/www.facebook.com\/pages\/Desert-Weyr-LLC\/56496179294","Twitter":"https:\/\/twitter.com\/Oogiem","Instagram":null,"Pinterest":null,"Youtube":null,"Blog":"http:\/\/desertweyr.com\/blog\/","Address":"16870 Garvin Mesa Road, Paonia, Colorado 81428","State":"Colorado","City":"Paonia","Street":"16870 Garvin Mesa Road","Zip":"81428","Longitude":"-107.57408","Latitude":"38.898061","Dates":null,"Products":""},{"Type":"on-farm market","ModifyDate":"Mar 23rd, 2015","Image":"default-onfarmmarket-4-3.jpg","ListingID":"700233","Name":"Searle Ranch","Description":null,"ContactName":"Stan Searle","ContactEmail":"stan@searleranch.com","ContactPhone":"719-481-3735","Website":"searleranch.com","Facebook":"https:\/\/www.facebook.com\/pages\/Searle-Ranch-Grass-Fed-Beef","Twitter":null,"Instagram":null,"Pinterest":null,"Youtube":null,"Blog":null,"Address":"18911 Cherry Springs Ranch Dr., Monument, Colorado 80132","State":"Colorado","City":"Monument","Street":"18911 Cherry Springs Ranch Dr.","Zip":"80132","Longitude":"-104.78193","Latitude":"39.107269","Dates":null,"Products":""},{"Type":"on-farm market","ModifyDate":"Sep 16th, 2014","Image":"default-onfarmmarket-4-3.jpg","ListingID":"700179","Name":"A Wren's Nest Farm","Description":null,"ContactName":"Paul Alhadef","ContactEmail":"palhadef@gmail.com","ContactPhone":"719-214-6686","Website":"http:\/\/awrensnest.com\/nest\/","Facebook":"https:\/\/www.facebook.com\/AWrensNestFarm","Twitter":null,"Instagram":null,"Pinterest":null,"Youtube":null,"Blog":null,"Address":"402 S Neilson Ave, Pueblo, Colorado 81001","State":"Colorado","City":"Pueblo","Street":"402 S Neilson Ave","Zip":"81001","Longitude":"-104.55794","Latitude":"38.2639407","Dates":null,"Products":""},{"Type":"on-farm market","ModifyDate":"Sep 1st, 2020","Image":"default-onfarmmarket-4-3.jpg","ListingID":"701554","Name":"Hansen Family Barnyard","Description":null,"ContactName":"Marcie Hansen","ContactEmail":"hansenfamilybarnyard@gmail.com","ContactPhone":"970-590-1416","Website":"Hansenfamilybarnyard.com","Facebook":null,"Twitter":null,"Instagram":null,"Pinterest":null,"Youtube":null,"Blog":null,"Address":"4425 83rd Ave, Greeley, Colorado 80634","State":"Colorado","City":"Greeley","Street":"4425 83rd Ave","Zip":"80634","Longitude":"-104.81344","Latitude":"40.369227","Dates":null,"Products":""},{"Type":"on-farm market","ModifyDate":"Sep 26th, 2014","Image":"default-onfarmmarket-4-3.jpg","ListingID":"701101","Name":"Dottie's Garden Spot","Description":null,"ContactName":"Mike Coen","ContactEmail":"Mike@peoplehelpers.org","ContactPhone":"303 941 0292","Website":null,"Facebook":null,"Twitter":null,"Instagram":null,"Pinterest":null,"Youtube":null,"Blog":null,"Address":"22440 County Road 1, Berthoud , Colorado 80513","State":"Colorado","City":"Berthoud","Street":"22440 County Road 1","Zip":"80513","Longitude":"-105.05417","Latitude":"40.3268060","Dates":null,"Products":""}]