[{"Type":"on-farm market","ModifyDate":"Apr 10th, 2022","Image":"onfarmmarket_701412_10201_20220410225050.png","ListingID":"701412","Name":"Old Time Farm","Description":"Grass-fed beef and pastured poultry from endangered heritage breed cattle, chickens & turkeys.\nFarm is closed to visitors.\nOrder online and pick up at the Bloomfield Farmers Market in Pittsburgh or choose home delivery.\nSmall scale birth-to-harvest operation.","ContactName":"Shelly Oswald","ContactEmail":"OldTimeFlavor@gmail.com","ContactPhone":"724-316-0148","Website":"www.OldTime.Farm","Facebook":"https:\/\/www.facebook.com\/Shelly.OldTimeFarm\/","Twitter":"","Instagram":"","Pinterest":"","Youtube":"","Blog":"","Address":"1919 Harrisville Rd, Stoneboro, Pennsylvania 16153","State":"Pennsylvania","City":"Stoneboro","Street":"1919 Harrisville Rd","Zip":"16153","Longitude":"-80.046348","Latitude":"41.289557","Dates":null,"Products":""},{"Type":"on-farm market","ModifyDate":"Apr 6th, 2015","Image":"default-onfarmmarket-4-3.jpg","ListingID":"700900","Name":"Bialecki Farms","Description":null,"ContactName":"Stanley Biaecki","ContactEmail":"Stanb888@gmail.com","ContactPhone":"570 727 2775","Website":null,"Facebook":"https:\/\/www.facebook.com\/homesteadinghobnobbery","Twitter":null,"Instagram":null,"Pinterest":null,"Youtube":null,"Blog":null,"Address":"3299 Wrighter Lake Rd, Thompson, Pennsylvania 18465","State":"Pennsylvania","City":"Thompson","Street":"3299 Wrighter Lake Rd","Zip":"18465","Longitude":"-75.428190","Latitude":"41.851223","Dates":null,"Products":""},{"Type":"on-farm market","ModifyDate":"Aug 10th, 2014","Image":"default-onfarmmarket-4-3.jpg","ListingID":"700367","Name":"Foxtail Farmstead LLC","Description":null,"ContactName":"Greg & Teri Eberhart","ContactEmail":"eberhart@foxtailfarmstead.com","ContactPhone":"814-624-2410","Website":"www.foxtailfarmstead.com","Facebook":null,"Twitter":null,"Instagram":null,"Pinterest":null,"Youtube":null,"Blog":null,"Address":"1927 Cumberland Road, Bedford, Pennsylvania 15522","State":"Pennsylvania","City":"Bedford","Street":"1927 Cumberland Road","Zip":"15522","Longitude":"-78.550945","Latitude":"39.9776974","Dates":null,"Products":""},{"Type":"on-farm market","ModifyDate":"Aug 13th, 2014","Image":"default-onfarmmarket-4-3.jpg","ListingID":"700036","Name":"Simmons Farm","Description":null,"ContactName":"Scot Simmons","ContactEmail":"market@simmonsfarm.com","ContactPhone":"724-941-1490","Website":null,"Facebook":"https:\/\/www.facebook.com\/SimmonsFarm","Twitter":null,"Instagram":null,"Pinterest":null,"Youtube":null,"Blog":null,"Address":"170 Simmons Road, McMurray, Pennsylvania 15317","State":"Pennsylvania","City":"McMurray","Street":"170 Simmons Road","Zip":"15317","Longitude":"-80.083087","Latitude":"40.2682","Dates":null,"Products":""},{"Type":"on-farm market","ModifyDate":"Aug 13th, 2014","Image":"default-onfarmmarket-4-3.jpg","ListingID":"700121","Name":"Jamboree Farm","Description":null,"ContactName":"Todd Fasnacht","ContactEmail":"jamboreefarm@gmail.com","ContactPhone":"724-995-8490","Website":"http:\/\/jamboreefarm.blogspot.com\/","Facebook":"https:\/\/www.facebook.com\/jamboreefarm","Twitter":"https:\/\/twitter.com\/JamboreeFarm","Instagram":null,"Pinterest":null,"Youtube":null,"Blog":"http:\/\/jamboreefarm.blogspot.com\/","Address":"270 Wilpen Rd, Ligonier, Pennsylvania 15658","State":"Pennsylvania","City":"Ligonier","Street":"270 Wilpen Rd","Zip":"15658","Longitude":"-79.203738","Latitude":"40.275947","Dates":null,"Products":""},{"Type":"on-farm market","ModifyDate":"Aug 13th, 2014","Image":"default-onfarmmarket-4-3.jpg","ListingID":"700269","Name":"McConnell's Christmas Tree Farm","Description":null,"ContactName":"Richard McConnell","ContactEmail":"mcconnellsnursery@yahoo.com","ContactPhone":"7247302569","Website":"www.mcconnellsnursery.com","Facebook":"https:\/\/www.facebook.com\/pages\/McConnells-Christmas-Tree-Farm\/136507896405104?ref=br_tf","Twitter":null,"Instagram":null,"Pinterest":null,"Youtube":null,"Blog":null,"Address":"836 Cleland Mill Road, New Castle, Pennsylvania 16102","State":"Pennsylvania","City":"New Castle","Street":"836 Cleland Mill Road","Zip":"16102","Longitude":"-80.407753","Latitude":"40.956053","Dates":null,"Products":""},{"Type":"on-farm market","ModifyDate":"Aug 14th, 2014","Image":"default-onfarmmarket-4-3.jpg","ListingID":"700839","Name":"Blue Moon Acres: Certified Organic Farm and Market","Description":null,"ContactName":"Natalie Rockwell","ContactEmail":"nrockwell@bluemoonacres.net","ContactPhone":"215-794-3093","Website":"http:\/\/bluemoonacres.com\/contact-us\/","Facebook":"https:\/\/www.facebook.com\/BlueMoonAcresFarm","Twitter":"https:\/\/twitter.com\/bmacres","Instagram":null,"Pinterest":null,"Youtube":null,"Blog":"http:\/\/bluemoonacres.com\/category\/news\/","Address":"2287 Durham Road, Buckingham, Pennsylvania 18912","State":"Pennsylvania","City":"Buckingham","Street":"2287 Durham Road","Zip":"18912","Longitude":"-75.052641","Latitude":"40.318708","Dates":null,"Products":""},{"Type":"on-farm market","ModifyDate":"Aug 15th, 2018","Image":"default-onfarmmarket-4-3.jpg","ListingID":"701459","Name":"Hardler Farms","Description":null,"ContactName":"Mike ,Tami","ContactEmail":"hardlerfarm@yahoo.com","ContactPhone":"570-251-7937","Website":null,"Facebook":"Hardlerfarms@facebook","Twitter":null,"Instagram":null,"Pinterest":null,"Youtube":null,"Blog":null,"Address":"11 Hardler Farm Rd, Honesdale, Pennsylvania 18431","State":"Pennsylvania","City":"Honesdale","Street":"11 Hardler Farm Rd","Zip":"18431","Longitude":"-75.259646","Latitude":"41.697583","Dates":null,"Products":""},{"Type":"on-farm market","ModifyDate":"Aug 20th, 2020","Image":"default-onfarmmarket-4-3.jpg","ListingID":"701552","Name":"Cherish Creamery LLC","Description":null,"ContactName":"Paula Keswick","ContactEmail":"paulakeswick@yahoo.com","ContactPhone":"574-298-2022","Website":"cherishcreamery.com","Facebook":"cherish creamery","Twitter":null,"Instagram":null,"Pinterest":null,"Youtube":null,"Blog":null,"Address":", 2771 Paradise Rd, Pennsylvania 15841","State":"Pennsylvania","City":"2771 Paradise Rd","Street":null,"Zip":"15841","Longitude":"-78.831249","Latitude":"41.059349","Dates":null,"Products":""},{"Type":"on-farm market","ModifyDate":"Aug 22nd, 2014","Image":"default-onfarmmarket-4-3.jpg","ListingID":"700881","Name":"Lowden Farm LLC","Description":null,"ContactName":"David Lowden","ContactEmail":"lowden_d@hotmail.com","ContactPhone":"724-239-5233","Website":null,"Facebook":null,"Twitter":null,"Instagram":null,"Pinterest":null,"Youtube":null,"Blog":null,"Address":"136 California Drive, Coal Center, Pennsylvania 15423","State":"Pennsylvania","City":"Coal Center","Street":"136 California Drive","Zip":"15423","Longitude":"-79.980474","Latitude":"40.1059950","Dates":null,"Products":""},{"Type":"on-farm market","ModifyDate":"Aug 23rd, 2021","Image":"default-onfarmmarket-4-3.jpg","ListingID":"701610","Name":"Kepner's Produce","Description":null,"ContactName":"Nathan Kepner","ContactEmail":"kepper34@yahoo.com","ContactPhone":"7243763652","Website":null,"Facebook":"https:\/\/www.facebook.com\/KepnersProduce","Twitter":null,"Instagram":null,"Pinterest":null,"Youtube":null,"Blog":null,"Address":"3755 Sandy Lake Rd, Sandy Lake, Pennsylvania 16145","State":"Pennsylvania","City":"Sandy Lake","Street":"3755 Sandy Lake Rd","Zip":"16145","Longitude":"-80.071675","Latitude":"41.377985","Dates":null,"Products":""},{"Type":"on-farm market","ModifyDate":"Aug 25th, 2014","Image":"default-onfarmmarket-4-3.jpg","ListingID":"700923","Name":"Greener Acres Farm","Description":null,"ContactName":"Cathie Dibert","ContactEmail":"greeneracresfarm@atlanticbb.net","ContactPhone":"greeneracresfarm@atl","Website":null,"Facebook":"https:\/\/www.facebook.com\/greeneracresfarm","Twitter":null,"Instagram":null,"Pinterest":null,"Youtube":null,"Blog":null,"Address":"747 Buttermilk Hollow Rd, Claysburg, Pennsylvania 16625","State":"Pennsylvania","City":"Claysburg","Street":"747 Buttermilk Hollow Rd","Zip":"16625","Longitude":"-78.488254","Latitude":"40.303651","Dates":null,"Products":""},{"Type":"on-farm market","ModifyDate":"Aug 25th, 2014","Image":"default-onfarmmarket-4-3.jpg","ListingID":"700936","Name":"Meadow Mountain Farm","Description":null,"ContactName":"Neal McNutt","ContactEmail":"neal@meadowmountainfarm.com","ContactPhone":"610.693.5604","Website":"www.meadowmountainfarm.com","Facebook":"https:\/\/www.facebook.com\/pages\/Meadow-Mountain-Farm\/158613630836462?v=wall","Twitter":null,"Instagram":null,"Pinterest":null,"Youtube":null,"Blog":null,"Address":"691 Furnace St., Robesonia, Pennsylvania 19551","State":"Pennsylvania","City":"Robesonia","Street":"691 Furnace St.","Zip":"19551","Longitude":"-76.157888","Latitude":"40.333923","Dates":null,"Products":""},{"Type":"on-farm market","ModifyDate":"Aug 28th, 2014","Image":"default-onfarmmarket-4-3.jpg","ListingID":"700978","Name":"Hilliards Fruit Farm","Description":null,"ContactName":"Bruce Hilliard","ContactEmail":"brucehilliard@rocketmail.com","ContactPhone":"5702330507","Website":null,"Facebook":null,"Twitter":null,"Instagram":null,"Pinterest":null,"Youtube":null,"Blog":null,"Address":"217 Rock Glen Rd., Sugarloaf, Pennsylvania 18249","State":"Pennsylvania","City":"Sugarloaf","Street":"217 Rock Glen Rd.","Zip":"18249","Longitude":"-76.084909","Latitude":"40.986051","Dates":null,"Products":""},{"Type":"on-farm market","ModifyDate":"Aug 29th, 2014","Image":"default-onfarmmarket-4-3.jpg","ListingID":"700984","Name":"Hartman's Oz Farm","Description":null,"ContactName":"Julia Delpino","ContactEmail":"delpinoj@yahoo.com","ContactPhone":"717-344-6277","Website":null,"Facebook":null,"Twitter":null,"Instagram":null,"Pinterest":null,"Youtube":null,"Blog":null,"Address":"962 Martin Road, Needmore, Pennsylvania 17238","State":"Pennsylvania","City":"Needmore","Street":"962 Martin Road","Zip":"17238","Longitude":"-78.127732","Latitude":"39.843541","Dates":null,"Products":""},{"Type":"on-farm market","ModifyDate":"Aug 29th, 2014","Image":"default-onfarmmarket-4-3.jpg","ListingID":"700985","Name":"Solebury Orchards","Description":null,"ContactName":"Brian Smith","ContactEmail":"mail@soleburyorchards.com","ContactPhone":"215-297-8079","Website":"soleburyorchards.com","Facebook":"www.facebook.com\/soleburyorchards","Twitter":"twitter.com\/SoleburyOrch","Instagram":null,"Pinterest":null,"Youtube":null,"Blog":null,"Address":"3325 Creamery Road, New Hope, Pennsylvania 18938","State":"Pennsylvania","City":"New Hope","Street":"3325 Creamery Road","Zip":"18938","Longitude":"-75.025891","Latitude":"40.3846846","Dates":null,"Products":""},{"Type":"on-farm market","ModifyDate":"Aug 31st, 2014","Image":"default-onfarmmarket-4-3.jpg","ListingID":"700999","Name":"Foxy Farms","Description":null,"ContactName":"Anna Wagner","ContactEmail":"ranger_jer@hotmail.com","ContactPhone":"570-934-1191","Website":"http:\/\/www.localharvest.org\/foxy-farms-M38482","Facebook":null,"Twitter":null,"Instagram":null,"Pinterest":null,"Youtube":null,"Blog":null,"Address":"3147 Griffis Hill Road, Montrose, Pennsylvania 18801","State":"Pennsylvania","City":"Montrose","Street":"3147 Griffis Hill Road","Zip":"18801","Longitude":"-75.995723","Latitude":"41.841607","Dates":null,"Products":""},{"Type":"on-farm market","ModifyDate":"Aug 6th, 2014","Image":"default-onfarmmarket-4-3.jpg","ListingID":"700619","Name":"Normans Orchard","Description":null,"ContactName":"jeffrey norman","ContactEmail":"normansorchard@gmail.com","ContactPhone":"724-224-9491","Website":"www.normansorchard.com","Facebook":null,"Twitter":null,"Instagram":null,"Pinterest":null,"Youtube":null,"Blog":null,"Address":"2318 Butler Logan Road Frazer Township, Tarentum, Pennsylvania 15084","State":"Pennsylvania","City":"Tarentum","Street":"2318 Butler Logan Road Frazer Township","Zip":"15084","Longitude":"-79.803454","Latitude":"40.587205","Dates":null,"Products":""},{"Type":"on-farm market","ModifyDate":"Aug 6th, 2014","Image":"default-onfarmmarket-4-3.jpg","ListingID":"700813","Name":"Rohrbach's Farm Market","Description":null,"ContactName":"Denise Bosworth","ContactEmail":"rohrbachs.farm.market@gmail.com","ContactPhone":"570-356-7654","Website":"rohrbachsfarm.net","Facebook":"https:\/\/www.facebook.com\/pages\/Rohrbachs-Farm-Market-Bakery-and-Gift-Shop\/63601237131?ref=hl&ref_type=bookmark","Twitter":null,"Instagram":null,"Pinterest":null,"Youtube":null,"Blog":null,"Address":"240 Southern Drive, Catawissa, Pennsylvania 17820","State":"Pennsylvania","City":"Catawissa","Street":"240 Southern Drive","Zip":"17820","Longitude":"-76.459363","Latitude":"40.9299950","Dates":null,"Products":""},{"Type":"on-farm market","ModifyDate":"Aug 7th, 2014","Image":"default-onfarmmarket-4-3.jpg","ListingID":"700819","Name":"Path of Light Farm","Description":null,"ContactName":"Jay Kuzminsky","ContactEmail":"pathoflight@comcast.net","ContactPhone":"240-401-6787","Website":null,"Facebook":"https:\/\/www.facebook.com\/pages\/Path-of-Light-Farm\/","Twitter":null,"Instagram":null,"Pinterest":null,"Youtube":null,"Blog":null,"Address":"225 Laidig Road, Harrisonville, Pennsylvania 17228","State":"Pennsylvania","City":"Harrisonville","Street":"225 Laidig Road","Zip":"17228","Longitude":"-78.094771","Latitude":"40.037076","Dates":null,"Products":""},{"Type":"on-farm market","ModifyDate":"Dec 10th, 2020","Image":"default-onfarmmarket-4-3.jpg","ListingID":"701570","Name":"Chapel Ford Farm","Description":null,"ContactName":"Alexander Bates","ContactEmail":"chapelfordalex@gmail.com","ContactPhone":"7039695595","Website":null,"Facebook":"https:\/\/www.facebook.com\/chapelfordfarms","Twitter":null,"Instagram":null,"Pinterest":null,"Youtube":null,"Blog":null,"Address":"2345 Taneytown Road, Gettysburg, Pennsylvania 17325","State":"Pennsylvania","City":"Gettysburg","Street":"2345 Taneytown Road","Zip":"17325","Longitude":"-77.230185","Latitude":"39.754261","Dates":null,"Products":""},{"Type":"on-farm market","ModifyDate":"Dec 29th, 2014","Image":"default-onfarmmarket-4-3.jpg","ListingID":"701184","Name":"Gilbert Hill Farm","Description":null,"ContactName":"Peggy Gilbert","ContactEmail":"egglady814@verizon.net","ContactPhone":"814-375-0864","Website":null,"Facebook":null,"Twitter":null,"Instagram":null,"Pinterest":null,"Youtube":null,"Blog":null,"Address":"1395 Clear Run Road, DuBois, Pennsylvania 15801","State":"Pennsylvania","City":"DuBois","Street":"1395 Clear Run Road","Zip":"15801","Longitude":"-78.742389","Latitude":"41.1530840","Dates":null,"Products":""},{"Type":"on-farm market","ModifyDate":"Feb 14th, 2021","Image":"default-onfarmmarket-4-3.jpg","ListingID":"701583","Name":"Redrange Farm","Description":null,"ContactName":"Rogers Clawson","ContactEmail":"redrangefarm@yahoo.com","ContactPhone":"724-912-1533","Website":"https:\/\/www.redrangefarm.com\/","Facebook":"https:\/\/www.facebook.com\/redrangefarm","Twitter":null,"Instagram":null,"Pinterest":null,"Youtube":null,"Blog":null,"Address":"604 Footedale Rd, New Salem , Pennsylvania 15468","State":"Pennsylvania","City":"New Salem","Street":"604 Footedale Rd","Zip":"15468","Longitude":"-79.836409","Latitude":"39.916362","Dates":null,"Products":""},{"Type":"on-farm market","ModifyDate":"Feb 4th, 2015","Image":"default-onfarmmarket-4-3.jpg","ListingID":"701176","Name":"TLM Hillside Farm","Description":null,"ContactName":"Tony Shetter","ContactEmail":"TLMHillsideFarm@yahoo.com","ContactPhone":"469-554-8873","Website":"http:\/\/www.tlmhillsidefarm.com\/","Facebook":null,"Twitter":"https:\/\/twitter.com\/TLMHillsideFarm","Instagram":null,"Pinterest":null,"Youtube":null,"Blog":null,"Address":"14066 Wayne Hwy, Waynesboro, Pennsylvania 17268","State":"Pennsylvania","City":"Waynesboro","Street":"14066 Wayne Hwy","Zip":"17268","Longitude":"-77.595770","Latitude":"39.739070","Dates":null,"Products":""},{"Type":"on-farm market","ModifyDate":"Jan 13th, 2017","Image":"default-onfarmmarket-4-3.jpg","ListingID":"701383","Name":"Phoenix Farms","Description":null,"ContactName":"Guin","ContactEmail":"thephoenixfarms@gmail.com","ContactPhone":"2152087325","Website":"www.phoenixfarms.us","Facebook":"http:\/\/facebook.com\/thephoenixfarm","Twitter":null,"Instagram":null,"Pinterest":null,"Youtube":null,"Blog":null,"Address":"150 Trenton Ave, Hulmeville borough, Pennsylvania 19047","State":"Pennsylvania","City":"Hulmeville borough","Street":"150 Trenton Ave","Zip":"19047","Longitude":"-74.906944","Latitude":"40.143277","Dates":null,"Products":""},{"Type":"on-farm market","ModifyDate":"Jan 26th, 2021","Image":"default-onfarmmarket-4-3.jpg","ListingID":"701577","Name":"Humming Hills Farm, LLC","Description":null,"ContactName":"Judy Henderson","ContactEmail":"judyh@humminghillsfarm.com","ContactPhone":"4845091339","Website":"https:\/\/humminghillsfarm.com","Facebook":"https:\/\/facebook.com\/humminghillsfarm.com","Twitter":null,"Instagram":null,"Pinterest":null,"Youtube":null,"Blog":null,"Address":"50 Lake Rd, Hamburg, Pennsylvania 19526","State":"Pennsylvania","City":"Hamburg","Street":"50 Lake Rd","Zip":"19526","Longitude":"-75.887804","Latitude":"40.498031","Dates":null,"Products":""},{"Type":"on-farm market","ModifyDate":"Jan 27th, 2022","Image":"default-onfarmmarket-4-3.jpg","ListingID":"701630","Name":"Nev & Nise Produce Greenhouse LLC","Description":null,"ContactName":"Denise Frey","ContactEmail":"nevandniseproduce@ptd.net","ContactPhone":"15707780596","Website":null,"Facebook":"Nev & Nise Produce Greenhouse LLC","Twitter":null,"Instagram":null,"Pinterest":null,"Youtube":null,"Blog":null,"Address":"445 stewart creek road, Lehighton, Pennsylvania 18235","State":"Pennsylvania","City":"Lehighton","Street":"445 stewart creek road","Zip":"18235","Longitude":"-75.776928","Latitude":"40.829530","Dates":null,"Products":""},{"Type":"on-farm market","ModifyDate":"Jan 28th, 2015","Image":"default-onfarmmarket-4-3.jpg","ListingID":"701200","Name":"Brenckle's Organic Farm & Greenhouse","Description":null,"ContactName":"Jennifer Brenckle","ContactEmail":"brencklec@yahoo.com","ContactPhone":"724-453-6773","Website":"http:\/\/www.brencklesfarm.com\/","Facebook":"https:\/\/www.facebook.com\/BrencklesOrganicFarm","Twitter":null,"Instagram":null,"Pinterest":null,"Youtube":null,"Blog":"http:\/\/www.brencklesfarm.com\/blog","Address":"768 Glen Eden Rd., Zelienople, Pennsylvania 16063","State":"Pennsylvania","City":"Zelienople","Street":"768 Glen Eden Rd.","Zip":"16063","Longitude":"-80.153536","Latitude":"40.7249880","Dates":null,"Products":""},{"Type":"on-farm market","ModifyDate":"Jan 30th, 2015","Image":"default-onfarmmarket-4-3.jpg","ListingID":"701201","Name":"Creekside Farm Market LLC","Description":null,"ContactName":"Josh Heller","ContactEmail":"josh@hellersmarket.com","ContactPhone":"717-940-5440","Website":"http:\/\/www.thecreeksidemarket.com","Facebook":"https:\/\/www.facebook.com\/CreeksideFarmMarket","Twitter":null,"Instagram":null,"Pinterest":null,"Youtube":null,"Blog":null,"Address":"1436 Mount Joy Rd., Manheim, Pennsylvania 17545","State":"Pennsylvania","City":"Manheim","Street":"1436 Mount Joy Rd.","Zip":"17545","Longitude":"-76.427558","Latitude":"40.138632","Dates":null,"Products":""},{"Type":"on-farm market","ModifyDate":"Jan 31st, 2015","Image":"default-onfarmmarket-4-3.jpg","ListingID":"701202","Name":"Valley Road Farm","Description":null,"ContactName":"Lou Anne Bachert","ContactEmail":"labachert@gmail.com","ContactPhone":"570-578-3047","Website":"Http:\/\/valleyroadfarm.com","Facebook":"Valley road farm tamaqua","Twitter":null,"Instagram":null,"Pinterest":null,"Youtube":null,"Blog":null,"Address":"880 Valley Rd , Tamaqua, Pennsylvania 18252","State":"Pennsylvania","City":"Tamaqua","Street":"880 Valley Rd","Zip":"18252","Longitude":"-76.013023","Latitude":"40.755474","Dates":null,"Products":""},{"Type":"on-farm market","ModifyDate":"Jul 10th, 2019","Image":"default-onfarmmarket-4-3.jpg","ListingID":"701487","Name":"Weatherbury Farm","Description":null,"ContactName":"Marcy Tudor","ContactEmail":"info@weatherburyfarm.com","ContactPhone":"724.587.3763","Website":"http:\/\/weatherburyfarm.com\/","Facebook":"https:\/\/www.facebook.com\/WeatherburyFarm\/","Twitter":null,"Instagram":null,"Pinterest":null,"Youtube":null,"Blog":null,"Address":"1061 Sugar Run Road, Avella, Pennsylvania 15312","State":"Pennsylvania","City":"Avella","Street":"1061 Sugar Run Road","Zip":"15312","Longitude":"-80.469051","Latitude":"40.253648","Dates":null,"Products":""},{"Type":"on-farm market","ModifyDate":"Jul 26th, 2014","Image":"default-onfarmmarket-4-3.jpg","ListingID":"700143","Name":"Enon Valley Garlic","Description":null,"ContactName":"Rosemary Stidmon","ContactEmail":"EnonValleyGarlic@gmail.com","ContactPhone":"724-336-0501","Website":"www.EnonValleyGarlic.com","Facebook":"https:\/\/www.facebook.com\/enonvallleygarlic","Twitter":null,"Instagram":null,"Pinterest":null,"Youtube":null,"Blog":null,"Address":"214 Little Beaver Rd, Enon Valley, Pennsylvania 16120","State":"Pennsylvania","City":"Enon Valley","Street":"214 Little Beaver Rd","Zip":"16120","Longitude":"-80.490268","Latitude":"40.844265","Dates":null,"Products":""},{"Type":"on-farm market","ModifyDate":"Jul 26th, 2014","Image":"default-onfarmmarket-4-3.jpg","ListingID":"700197","Name":"Windy Hill Farm","Description":null,"ContactName":"Sherry Trunzo","ContactEmail":"windyhillfarms@windstream.net","ContactPhone":"814-328-5346","Website":"www.windyhillfarmnaturals.com","Facebook":null,"Twitter":null,"Instagram":null,"Pinterest":null,"Youtube":null,"Blog":null,"Address":"10445 Route 28 North, Brockway, Pennsylvania 15824","State":"Pennsylvania","City":"Brockway","Street":"10445 Route 28 North","Zip":"15824","Longitude":"-78.902435","Latitude":"41.232380","Dates":null,"Products":""},{"Type":"on-farm market","ModifyDate":"Jul 27th, 2014","Image":"default-onfarmmarket-4-3.jpg","ListingID":"700029","Name":"Stryker Farm","Description":null,"ContactName":"Nolan Thevenet","ContactEmail":"info@strykerfarm.com","ContactPhone":"570-269-2995","Website":"www.strykerfarm.com","Facebook":"https:\/\/www.facebook.com\/strykerfarm","Twitter":"https:\/\/twitter.com\/strykerfarm","Instagram":null,"Pinterest":null,"Youtube":null,"Blog":null,"Address":"3045 Mountain Road, Saylorsburg, Pennsylvania 18353","State":"Pennsylvania","City":"Saylorsburg","Street":"3045 Mountain Road","Zip":"18353","Longitude":"-75.328785","Latitude":"40.8608203","Dates":null,"Products":""},{"Type":"on-farm market","ModifyDate":"Jul 27th, 2014","Image":"default-onfarmmarket-4-3.jpg","ListingID":"700422","Name":"Yellow Hill Farm","Description":null,"ContactName":"Craig Bishop","ContactEmail":"info@YellowHillBerries.com","ContactPhone":"(717) 677-8188","Website":"www.yellowhillfarm.com","Facebook":"www.facebook.com\/YellowHillFarmBerries","Twitter":null,"Instagram":null,"Pinterest":null,"Youtube":null,"Blog":null,"Address":"670 Yellow Hill Road, Biglerville, Pennsylvania 17307","State":"Pennsylvania","City":"Biglerville","Street":"670 Yellow Hill Road","Zip":"17307","Longitude":"-77.264554","Latitude":"39.939328","Dates":null,"Products":""},{"Type":"on-farm market","ModifyDate":"Jul 27th, 2014","Image":"default-onfarmmarket-4-3.jpg","ListingID":"700470","Name":"Tom Styer Farm  & Market","Description":null,"ContactName":"THOMAS STYER","ContactEmail":"Styerfarm@windstream.net","ContactPhone":"570-546-5861","Website":null,"Facebook":null,"Twitter":null,"Instagram":null,"Pinterest":null,"Youtube":null,"Blog":null,"Address":"215 Shady Lane, Muncy, Pennsylvania 17756","State":"Pennsylvania","City":"Muncy","Street":"215 Shady Lane","Zip":"17756","Longitude":"-76.775489","Latitude":"41.212668","Dates":null,"Products":""},{"Type":"on-farm market","ModifyDate":"Jul 27th, 2014","Image":"default-onfarmmarket-4-3.jpg","ListingID":"700788","Name":"Soergel Orchards","Description":null,"ContactName":null,"ContactEmail":"quality@soergels.com","ContactPhone":"724-935-1743","Website":"www.soergels.com","Facebook":null,"Twitter":null,"Instagram":null,"Pinterest":null,"Youtube":null,"Blog":null,"Address":"2573 Brandt School Road, Wexford, Pennsylvania 15237","State":"Pennsylvania","City":"Wexford","Street":"2573 Brandt School Road","Zip":"15237","Longitude":"-80.092730","Latitude":"40.613911","Dates":null,"Products":""},{"Type":"on-farm market","ModifyDate":"Jul 28th, 2014","Image":"default-onfarmmarket-4-3.jpg","ListingID":"700107","Name":"Manoff Market Gardens","Description":null,"ContactName":"Amy Manoff","ContactEmail":"info@MANOFFMARKETGARDENS.COM","ContactPhone":"215-297-8220","Website":"www.manoffmarketgardens.com","Facebook":"https:\/\/www.facebook.com\/manoffmarketgardens","Twitter":null,"Instagram":null,"Pinterest":null,"Youtube":null,"Blog":"www.manoffmarketgardens.blogspot.com","Address":"3157 Comfort Road, Solebury, Pennsylvania 18963","State":"Pennsylvania","City":"Solebury","Street":"3157 Comfort Road","Zip":"18963","Longitude":"-75.006565","Latitude":"40.395989","Dates":null,"Products":""},{"Type":"on-farm market","ModifyDate":"Jul 28th, 2014","Image":"default-onfarmmarket-4-3.jpg","ListingID":"700219","Name":"Beccari's Farm Market","Description":null,"ContactName":"Pete Beccari","ContactEmail":"support@beccaris.com","ContactPhone":"412-221-8768","Website":"beccaris.com","Facebook":"www.facebook\/beccaris","Twitter":null,"Instagram":null,"Pinterest":null,"Youtube":null,"Blog":null,"Address":"5095 Thoms Run Road, Oakdale, Pennsylvania 15071","State":"Pennsylvania","City":"Oakdale","Street":"5095 Thoms Run Road","Zip":"15071","Longitude":"-80.133093","Latitude":"40.3739713","Dates":null,"Products":""},{"Type":"on-farm market","ModifyDate":"Jul 28th, 2014","Image":"default-onfarmmarket-4-3.jpg","ListingID":"700796","Name":"Flinchbaughs Orchard and Farm Market","Description":null,"ContactName":"Julie Flinchbaugh","ContactEmail":"enjoy@flinchbaughsorchard.com","ContactPhone":"717-252-2540","Website":"http:\/\/www.flinchbaughsorchard.com","Facebook":"https:\/\/www.facebook.com\/FlinchbaughsOrchard","Twitter":"https:\/\/twitter.com\/FlinchsOrchard","Instagram":null,"Pinterest":null,"Youtube":null,"Blog":null,"Address":"110 Ducktown Road, York, Pennsylvania 17347","State":"Pennsylvania","City":"York","Street":"110 Ducktown Road","Zip":"17347","Longitude":"-76.580711","Latitude":"40.008422","Dates":null,"Products":""},{"Type":"on-farm market","ModifyDate":"Jul 30th, 2014","Image":"default-onfarmmarket-4-3.jpg","ListingID":"700302","Name":"Stramba Farm Alpacas & More","Description":null,"ContactName":"Roger Stramba","ContactEmail":"info@strambafarmalpacas.com","ContactPhone":"724-752-4146","Website":null,"Facebook":null,"Twitter":null,"Instagram":null,"Pinterest":null,"Youtube":null,"Blog":null,"Address":"2331 Chewton Wurtemburg Rd, Wampum, Pennsylvania 16157","State":"Pennsylvania","City":"Wampum","Street":"2331 Chewton Wurtemburg Rd","Zip":"16157","Longitude":"-80.290508","Latitude":"40.885714","Dates":null,"Products":""},{"Type":"on-farm market","ModifyDate":"Jul 31st, 2014","Image":"default-onfarmmarket-4-3.jpg","ListingID":"700312","Name":"Mount Pleasant Herbary","Description":null,"ContactName":"Gudrun Feigl","ContactEmail":"info@mountpleasantherbary.com","ContactPhone":"570-448-3094","Website":"www.mountpleasantherbary.com","Facebook":"https:\/\/www.facebook.com\/MountPleasantHerbary","Twitter":null,"Instagram":null,"Pinterest":null,"Youtube":null,"Blog":null,"Address":"31 Riverdale Road, Forest City, Pennsylvania 18421","State":"Pennsylvania","City":"Forest City","Street":"31 Riverdale Road","Zip":"18421","Longitude":"-75.394530","Latitude":"41.694289","Dates":null,"Products":""},{"Type":"on-farm market","ModifyDate":"Jul 31st, 2014","Image":"default-onfarmmarket-4-3.jpg","ListingID":"700466","Name":"Swartz's Pumpkin Patch","Description":null,"ContactName":"Chris Swartz","ContactEmail":"swartzspumpkinpatch@gmail.com","ContactPhone":"717-677-0831","Website":"www.swartzspumpkinpatch.com","Facebook":"https:\/\/www.facebook.com\/pages\/Swartzs-Pumpkin-Patch-in-Arendtsville-PA\/278268028879283","Twitter":null,"Instagram":null,"Pinterest":null,"Youtube":null,"Blog":"www.swartzspumpkinpatch.blogspot.com","Address":"232 North High Street in Arendtsville, Biglerville, Pennsylvania 17307","State":"Pennsylvania","City":"Biglerville","Street":"232 North High Street in Arendtsville","Zip":"17307","Longitude":"-77.302631","Latitude":"39.926690","Dates":null,"Products":""},{"Type":"on-farm market","ModifyDate":"Jun 21st, 2017","Image":"default-onfarmmarket-4-3.jpg","ListingID":"701416","Name":"Mazur's Greenhouse and Farm","Description":null,"ContactName":"Jerry Mazur","ContactEmail":"Mazursgreenhouse@msn.com","ContactPhone":"412-298-1672","Website":null,"Facebook":"Mazur\\'s Greenhouse and Farm","Twitter":null,"Instagram":null,"Pinterest":null,"Youtube":null,"Blog":null,"Address":"329 BenVenue Rd, Zelienople, Pennsylvania 16123","State":"Pennsylvania","City":"Zelienople","Street":"329 BenVenue Rd","Zip":"16123","Longitude":"-80.157104","Latitude":"40.786906","Dates":null,"Products":""},{"Type":"on-farm market","ModifyDate":"Jun 8th, 2016","Image":"default-onfarmmarket-4-3.jpg","ListingID":"701341","Name":"Maple Glen Farm","Description":null,"ContactName":"Mary Kay Hilyer","ContactEmail":"mary_kay9@yahoo.com","ContactPhone":"814-837-6459","Website":null,"Facebook":"Maple Glen Farm","Twitter":null,"Instagram":null,"Pinterest":null,"Youtube":null,"Blog":null,"Address":"543 Jo Jo Rd, Kane, Pennsylvania 16735","State":"Pennsylvania","City":"Kane","Street":"543 Jo Jo Rd","Zip":"16735","Longitude":"-78.837090","Latitude":"41.643853","Dates":null,"Products":""},{"Type":"on-farm market","ModifyDate":"Mar 17th, 2017","Image":"default-onfarmmarket-4-3.jpg","ListingID":"701397","Name":"Serenity Hills Farms","Description":null,"ContactName":"Brent Nice","ContactEmail":"brent.nice89@gmail.com","ContactPhone":"717-919-8449","Website":null,"Facebook":"https:\/\/www.facebook.com\/frmrfrd\/","Twitter":null,"Instagram":null,"Pinterest":null,"Youtube":null,"Blog":null,"Address":"429 Happy Hollow Road, Mifflintown, Pennsylvania 17059","State":"Pennsylvania","City":"Mifflintown","Street":"429 Happy Hollow Road","Zip":"17059","Longitude":"-77.350194","Latitude":"40.590023","Dates":null,"Products":""},{"Type":"on-farm market","ModifyDate":"Mar 23rd, 2015","Image":"default-onfarmmarket-4-3.jpg","ListingID":"700383","Name":"Twin Brook Farms","Description":null,"ContactName":"Cassie Schweighofer","ContactEmail":"cms346@cornell.edu","ContactPhone":"570-224-4381","Website":"http:\/\/www.twinbrookfarmsandlivestock.com","Facebook":"https:\/\/www.facebook.com\/TwinBrookFarms","Twitter":null,"Instagram":null,"Pinterest":null,"Youtube":null,"Blog":null,"Address":"678 Cochecton Tpke, Tyler Hill, Pennsylvania 18469","State":"Pennsylvania","City":"Tyler Hill","Street":"678 Cochecton Tpke","Zip":"18469","Longitude":"-75.168551","Latitude":"41.698768","Dates":null,"Products":""},{"Type":"on-farm market","ModifyDate":"Mar 23rd, 2016","Image":"default-onfarmmarket-4-3.jpg","ListingID":"701321","Name":"Triple B Farms","Description":null,"ContactName":"Suzanne C Beinlich","ContactEmail":"info@triplebfarms.com","ContactPhone":"724.258.3557","Website":"http:\/\/www.triplebfarms.com\/","Facebook":"https:\/\/www.facebook.com\/TripleBFarmsFreshLocalFoodandFun\/?ref=hl","Twitter":"https:\/\/twitter.com\/TripleBFarmsFUN","Instagram":null,"Pinterest":null,"Youtube":null,"Blog":null,"Address":"823 Berry Lane, Monongahela , Pennsylvania 15063","State":"Pennsylvania","City":"Monongahela","Street":"823 Berry Lane","Zip":"15063","Longitude":"-79.946589","Latitude":"40.2276750","Dates":null,"Products":""},{"Type":"on-farm market","ModifyDate":"Mar 24th, 2015","Image":"default-onfarmmarket-4-3.jpg","ListingID":"700328","Name":"Brookfield Maple Products","Description":null,"ContactName":"Bud Bowers","ContactEmail":"info@brookfieldmapleproducts.com","ContactPhone":"814-367-5284","Website":"www.brookfieldmapleproducts.com","Facebook":"https:\/\/www.facebook.com\/pages\/Brookfield-Maple-Products\/322566231113004","Twitter":null,"Instagram":null,"Pinterest":null,"Youtube":null,"Blog":null,"Address":"111 Plank Road, Westfield, Pennsylvania 16950","State":"Pennsylvania","City":"Westfield","Street":"111 Plank Road","Zip":"16950","Longitude":"-77.594692","Latitude":"41.955620","Dates":null,"Products":""},{"Type":"on-farm market","ModifyDate":"Mar 25th, 2020","Image":"default-onfarmmarket-4-3.jpg","ListingID":"701511","Name":"Myer Hill Chicken","Description":null,"ContactName":"Elizabeth Boone","ContactEmail":"ejboone76@gmail.com","ContactPhone":"7175724805","Website":"https:\/\/www.myerhillchicken.com\/","Facebook":null,"Twitter":null,"Instagram":null,"Pinterest":null,"Youtube":null,"Blog":null,"Address":"429 Strasburg Road, Paradise, Pennsylvania 17562","State":"Pennsylvania","City":"Paradise","Street":"429 Strasburg Road","Zip":"17562","Longitude":"-76.122298","Latitude":"40.00623","Dates":null,"Products":""},{"Type":"on-farm market","ModifyDate":"Mar 27th, 2015","Image":"default-onfarmmarket-4-3.jpg","ListingID":"701233","Name":"Scholl Orchards","Description":null,"ContactName":"Ben or Martha Scholl","ContactEmail":"info@schollorchards.com","ContactPhone":"n\/a, please email or","Website":"http:\/\/schollorchards.com\/","Facebook":"www.facebook.com\/schollorchardsPA","Twitter":null,"Instagram":null,"Pinterest":null,"Youtube":null,"Blog":null,"Address":"3057 Center Street, Bethlehem, Pennsylvania 18017","State":"Pennsylvania","City":"Bethlehem","Street":"3057 Center Street","Zip":"18017","Longitude":"-75.378204","Latitude":"40.656316","Dates":null,"Products":""},{"Type":"on-farm market","ModifyDate":"Mar 27th, 2015","Image":"default-onfarmmarket-4-3.jpg","ListingID":"701234","Name":"Blue Slate Farm","Description":null,"ContactName":"Jason Mesiarik","ContactEmail":"jmesiarik@verizon.net","ContactPhone":"484-343-0949","Website":null,"Facebook":"https:\/\/www.facebook.com\/blueslatefarm","Twitter":"@blueslatefarm","Instagram":null,"Pinterest":null,"Youtube":null,"Blog":null,"Address":"3669 Coventryville Road, East Nantmeal, Pennsylvania 19465","State":"Pennsylvania","City":"East Nantmeal","Street":"3669 Coventryville Road","Zip":"19465","Longitude":"-75.692628","Latitude":"40.160960","Dates":null,"Products":""},{"Type":"on-farm market","ModifyDate":"Mar 4th, 2021","Image":"default-onfarmmarket-4-3.jpg","ListingID":"701591","Name":"Redd Hott Cattle Co.","Description":null,"ContactName":"Charles P. Hottle","ContactEmail":"reddhottcattleco@gmail.com","ContactPhone":"7173725761","Website":null,"Facebook":"https:\/\/www.facebook.com\/reddhottcattleco\/","Twitter":null,"Instagram":null,"Pinterest":null,"Youtube":null,"Blog":null,"Address":"17800 Dry Run Road South, Dry Run, Pennsylvania 17220","State":"Pennsylvania","City":"Dry Run","Street":"17800 Dry Run Road South","Zip":"17220","Longitude":"-77.749344","Latitude":"40.155559","Dates":null,"Products":""},{"Type":"on-farm market","ModifyDate":"Mar 6th, 2020","Image":"default-onfarmmarket-4-3.jpg","ListingID":"701507","Name":"Mazurs Greenhouse and Farm","Description":null,"ContactName":"Jerry Mazur","ContactEmail":"Mazursgreenhouse@msn.com","ContactPhone":"412-296-1972","Website":null,"Facebook":"https:\/\/www.facebook.com\/Mazurs-Greenhouse-and-Farm-225721554196893\/","Twitter":null,"Instagram":null,"Pinterest":null,"Youtube":null,"Blog":null,"Address":"329 BenVenue Rd, Zelienople , Pennsylvania 16123","State":"Pennsylvania","City":"Zelienople","Street":"329 BenVenue Rd","Zip":"16123","Longitude":"-80.156903","Latitude":"40.787197","Dates":null,"Products":""},{"Type":"on-farm market","ModifyDate":"Nov 1st, 2014","Image":"default-onfarmmarket-4-3.jpg","ListingID":"701159","Name":"Flint Hill Farm Educational Center, Inc","Description":null,"ContactName":"Kathleen Fields","ContactEmail":"kathy@flinthill-farm.org","ContactPhone":"610-838-2928","Website":"www.flinthillfarm.org","Facebook":"FlintHillFarmEducationalCenter, Inc.","Twitter":null,"Instagram":null,"Pinterest":null,"Youtube":null,"Blog":null,"Address":"1922 Flint Hill Road , Coopersburg, Pennsylvania 18036","State":"Pennsylvania","City":"Coopersburg","Street":"1922 Flint Hill Road","Zip":"18036","Longitude":"-75.349214","Latitude":"40.530732","Dates":null,"Products":""},{"Type":"on-farm market","ModifyDate":"Oct 26th, 2016","Image":"default-onfarmmarket-4-3.jpg","ListingID":"701373","Name":"Four Sisters Farm","Description":null,"ContactName":"Jason Mesiarik","ContactEmail":"4sistersfarmpa@gmail.com","ContactPhone":"4843430949","Website":"http:\/\/www.foursisters.farm","Facebook":"https:\/\/www.facebook.com\/FourSistersFarmPA\/","Twitter":"https:\/\/twitter.com\/4SistersFarm","Instagram":null,"Pinterest":null,"Youtube":null,"Blog":null,"Address":"3669 Coventryville Road, Pottstown, Pennsylvania 19465","State":"Pennsylvania","City":"Pottstown","Street":"3669 Coventryville Road","Zip":"19465","Longitude":"-75.692445","Latitude":"40.161075","Dates":null,"Products":""},{"Type":"on-farm market","ModifyDate":"Oct 28th, 2015","Image":"default-onfarmmarket-4-3.jpg","ListingID":"701302","Name":"Running Bear Farm Stand","Description":null,"ContactName":"Clifford A. Bruszewski","ContactEmail":"runningbearfarm@yahoo.com","ContactPhone":"5702973701","Website":null,"Facebook":"https:\/\/www.facebook.com\/Running-Bear-Farm-245849665535840\/","Twitter":null,"Instagram":null,"Pinterest":null,"Youtube":null,"Blog":null,"Address":"848 Wallace Rd, Troy, Pennsylvania 16947","State":"Pennsylvania","City":"Troy","Street":"848 Wallace Rd","Zip":"16947","Longitude":"-76.670417","Latitude":"41.769243","Dates":null,"Products":""},{"Type":"on-farm market","ModifyDate":"Oct 6th, 2014","Image":"default-onfarmmarket-4-3.jpg","ListingID":"701126","Name":"Yesterdays Favorites Farm","Description":null,"ContactName":"Kim Mullen","ContactEmail":"yesterday@innernet.net","ContactPhone":"717-658-2501","Website":"www.yesterdaysfavoritesfarm.com","Facebook":"https:\/\/www.facebook.com\/yesterdaysfavorites","Twitter":null,"Instagram":null,"Pinterest":null,"Youtube":null,"Blog":null,"Address":"9327 Gap Rd, Waynesboro, Pennsylvania 17268","State":"Pennsylvania","City":"Waynesboro","Street":"9327 Gap Rd","Zip":"17268","Longitude":"-77.537243","Latitude":"39.783349","Dates":null,"Products":""},{"Type":"on-farm market","ModifyDate":"Sep 12th, 2014","Image":"default-onfarmmarket-4-3.jpg","ListingID":"701059","Name":"Many Springs Farm","Description":null,"ContactName":"David & Elizabeth Wilson","ContactEmail":"ewtracker@zoominternet.net","ContactPhone":"724-924-2045","Website":null,"Facebook":null,"Twitter":null,"Instagram":null,"Pinterest":null,"Youtube":null,"Blog":null,"Address":"171 Many Springs Farm Road, Portersville, Pennsylvania 16051","State":"Pennsylvania","City":"Portersville","Street":"171 Many Springs Farm Road","Zip":"16051","Longitude":"-80.188447","Latitude":"40.9541520","Dates":null,"Products":""},{"Type":"on-farm market","ModifyDate":"Sep 12th, 2014","Image":"default-onfarmmarket-4-3.jpg","ListingID":"701061","Name":"Hill Creek Farm","Description":null,"ContactName":"Dorene Pasekoff","ContactEmail":"info@hillcreekfarmpa.com","ContactPhone":"610-506-3372","Website":"http:\/\/www.hillcreekfarmpa.com","Facebook":"https:\/\/www.facebook.com\/pages\/Hill-Creek-Farm\/145650775611864?ref=bookmarks","Twitter":null,"Instagram":null,"Pinterest":null,"Youtube":null,"Blog":"http:\/\/www.hillcreekfarmpa.com\/blog","Address":"75 Creamery Road, Pottstown, Pennsylvania 19465","State":"Pennsylvania","City":"Pottstown","Street":"75 Creamery Road","Zip":"19465","Longitude":"-75.607324","Latitude":"40.1896470","Dates":null,"Products":""},{"Type":"on-farm market","ModifyDate":"Sep 12th, 2014","Image":"default-onfarmmarket-4-3.jpg","ListingID":"701062","Name":"Gauker Farms","Description":null,"ContactName":"Jodi Gauker","ContactEmail":"gaukerfarms@gmail.com","ContactPhone":"724-454-3674","Website":"www.gaukerfarms.com","Facebook":"www.facebook.com\/gaukerfarms","Twitter":null,"Instagram":null,"Pinterest":null,"Youtube":null,"Blog":null,"Address":"846 Fleetwood Lyons Rd, Fleetwood, Pennsylvania 19522","State":"Pennsylvania","City":"Fleetwood","Street":"846 Fleetwood Lyons Rd","Zip":"19522","Longitude":"-75.797004","Latitude":"40.4716450","Dates":null,"Products":""},{"Type":"on-farm market","ModifyDate":"Sep 13th, 2014","Image":"default-onfarmmarket-4-3.jpg","ListingID":"701067","Name":"small valley milling","Description":null,"ContactName":"Joel or Elaine  Steigman","ContactEmail":"steigman@epix.net","ContactPhone":"717-362-9850","Website":"small valley milling.com","Facebook":null,"Twitter":null,"Instagram":null,"Pinterest":null,"Youtube":null,"Blog":null,"Address":"917 small valley road, halifax, Pennsylvania 17032","State":"Pennsylvania","City":"halifax","Street":"917 small valley road","Zip":"17032","Longitude":"-76.806737","Latitude":"40.496228","Dates":null,"Products":""},{"Type":"on-farm market","ModifyDate":"Sep 15th, 2014","Image":"default-onfarmmarket-4-3.jpg","ListingID":"701071","Name":"Acorn Hollow Farm","Description":null,"ContactName":"Jan McClure","ContactEmail":"janmcclure@email.com","ContactPhone":"7247836966","Website":"www.acornhollowfarm.com","Facebook":"Acorn Hollow Farm","Twitter":null,"Instagram":null,"Pinterest":null,"Youtube":null,"Blog":null,"Address":"310 Kunkle Rd, Kittanning borough, Pennsylvania 16201","State":"Pennsylvania","City":"Kittanning borough","Street":"310 Kunkle Rd","Zip":"16201","Longitude":"-79.379299","Latitude":"40.774383","Dates":null,"Products":""},{"Type":"on-farm market","ModifyDate":"Sep 15th, 2014","Image":"default-onfarmmarket-4-3.jpg","ListingID":"701074","Name":"Wholesome Dairy Farms","Description":null,"ContactName":"Mark Lopez","ContactEmail":"healthycows@yahoo.com","ContactPhone":"6106210508","Website":"http:\/\/www.wholesomedairyfarms.com\/","Facebook":"http:\/\/www.facebook.com\/pages\/Wholesome-Dairy-Farms\/77319243038","Twitter":"https:\/\/twitter.com\/WholesomeDairy","Instagram":null,"Pinterest":null,"Youtube":null,"Blog":null,"Address":"181 Camp Road, Douglassville, Pennsylvania 19518","State":"Pennsylvania","City":"Douglassville","Street":"181 Camp Road","Zip":"19518","Longitude":"-75.739851","Latitude":"40.332461","Dates":null,"Products":""},{"Type":"on-farm market","ModifyDate":"Sep 15th, 2014","Image":"default-onfarmmarket-4-3.jpg","ListingID":"701076","Name":"Fairman Farm","Description":null,"ContactName":"David Fairman","ContactEmail":"skipfairman@yahoo.com","ContactPhone":"610-759-7829 or 610-","Website":"www.fairmanfarm.com","Facebook":null,"Twitter":null,"Instagram":null,"Pinterest":null,"Youtube":null,"Blog":null,"Address":"Snoopy Barn At 515 Knauss Rd., Nazareth, Pennsylvania 18064","State":"Pennsylvania","City":"Nazareth","Street":"Snoopy Barn At 515 Knauss Rd.","Zip":"18064","Longitude":"-75.350858","Latitude":"40.760277","Dates":null,"Products":""},{"Type":"on-farm market","ModifyDate":"Sep 24th, 2014","Image":"default-onfarmmarket-4-3.jpg","ListingID":"701096","Name":"Yeehaw Farm Store and Local Foods Co Op","Description":null,"ContactName":"Judi F. Radel","ContactEmail":"yeehawfarm@yahoo.com","ContactPhone":"(717) 834-9667","Website":"www.yeehawfarms.com","Facebook":"https:\/\/www.facebook.com\/pages\/Yeehaw-Farm\/179809875371755","Twitter":null,"Instagram":null,"Pinterest":null,"Youtube":null,"Blog":null,"Address":"1600 State Road, Duncannon, Pennsylvania 17020","State":"Pennsylvania","City":"Duncannon","Street":"1600 State Road","Zip":"17020","Longitude":"-76.989257","Latitude":"40.3557289","Dates":null,"Products":""},{"Type":"on-farm market","ModifyDate":"Sep 26th, 2014","Image":"default-onfarmmarket-4-3.jpg","ListingID":"701102","Name":"Hulings Blueberries and Farm Market","Description":null,"ContactName":"Rick Hall","ContactEmail":"brenrickstables@aol.com","ContactPhone":"814-450-6107","Website":"hulingsblueberries.com","Facebook":"Hulings Blueberries","Twitter":null,"Instagram":null,"Pinterest":null,"Youtube":null,"Blog":null,"Address":"5095 old state rd, Edinboro, Pennsylvania 16412","State":"Pennsylvania","City":"Edinboro","Street":"5095 old state rd","Zip":"16412","Longitude":"-80.130026","Latitude":"41.932811","Dates":null,"Products":""},{"Type":"on-farm market","ModifyDate":"Sep 2nd, 2014","Image":"default-onfarmmarket-4-3.jpg","ListingID":"701004","Name":"Riverview Farms","Description":null,"ContactName":"David and Marjorie Manning","ContactEmail":"riverviewfarms@verizon.net","ContactPhone":"814-484-7202","Website":"http:\/\/www.riverviewfarmspa.com","Facebook":null,"Twitter":null,"Instagram":null,"Pinterest":null,"Youtube":null,"Blog":null,"Address":"47 Jefferson St., Tidioute, Pennsylvania 16351","State":"Pennsylvania","City":"Tidioute","Street":"47 Jefferson St.","Zip":"16351","Longitude":"-79.395038","Latitude":"41.6849289","Dates":null,"Products":""},{"Type":"on-farm market","ModifyDate":"Sep 2nd, 2014","Image":"default-onfarmmarket-4-3.jpg","ListingID":"701009","Name":"Kistaco Farm Market","Description":null,"ContactName":"Suzanne Boyce","ContactEmail":"kistaco@comcast.net","ContactPhone":"724-478-4361","Website":"http:\/\/kistacofarm.com\/","Facebook":"https:\/\/www.facebook.com\/pages\/Kistaco-Farm\/151290458223231?fref=ts","Twitter":null,"Instagram":null,"Pinterest":null,"Youtube":null,"Blog":"http:\/\/kistacofarm.wordpress.com\/","Address":"3403 N. Balsiger Road, Apollo borough, Pennsylvania 15613","State":"Pennsylvania","City":"Apollo borough","Street":"3403 N. Balsiger Road","Zip":"15613","Longitude":"-79.503008","Latitude":"40.603351","Dates":null,"Products":""},{"Type":"on-farm market","ModifyDate":"Sep 30th, 2014","Image":"default-onfarmmarket-4-3.jpg","ListingID":"700096","Name":"Mondjack Apiaries","Description":null,"ContactName":"Bill Mondjack","ContactEmail":"billzbeez@mondjackapiaries.com","ContactPhone":"610-264-0494","Website":"www.Mondjackapiaries.com","Facebook":"https:\/\/www.facebook.com\/Mondjackapiaries","Twitter":null,"Instagram":null,"Pinterest":null,"Youtube":null,"Blog":null,"Address":"2236 N. 1st Ave., Whitehall, Pennsylvania 18052","State":"Pennsylvania","City":"Whitehall","Street":"2236 N. 1st Ave.","Zip":"18052","Longitude":"-75.478814","Latitude":"40.6495300","Dates":null,"Products":""},{"Type":"on-farm market","ModifyDate":"Sep 30th, 2014","Image":"default-onfarmmarket-4-3.jpg","ListingID":"700306","Name":"Owens Farm","Description":null,"ContactName":"Caroline and David Owens","ContactEmail":"info@owensfarm.com","ContactPhone":"570-286-5309","Website":"www.owensfarm.com","Facebook":"www.facebook.com\/pages\/Owens-Farm\/168876806466611","Twitter":null,"Instagram":null,"Pinterest":null,"Youtube":null,"Blog":null,"Address":"2611 Mile Post Rd., Sunbury, Pennsylvania 17801","State":"Pennsylvania","City":"Sunbury","Street":"2611 Mile Post Rd.","Zip":"17801","Longitude":"-76.704561","Latitude":"40.909558","Dates":null,"Products":""},{"Type":"on-farm market","ModifyDate":"Sep 3rd, 2014","Image":"default-onfarmmarket-4-3.jpg","ListingID":"701015","Name":"Firefly Farm PA","Description":null,"ContactName":"Kelly Przylepa","ContactEmail":"fireflyfarmpa@me.com","ContactPhone":"717-227-1705","Website":null,"Facebook":"https:\/\/www.facebook.com\/pages\/Firefly-Farm-PA\/117241838301654","Twitter":null,"Instagram":null,"Pinterest":null,"Youtube":null,"Blog":null,"Address":"5537 Wool Mill Road, Glenville, Pennsylvania 17329","State":"Pennsylvania","City":"Glenville","Street":"5537 Wool Mill Road","Zip":"17329","Longitude":"-76.841368","Latitude":"39.7516830","Dates":null,"Products":""},{"Type":"on-farm market","ModifyDate":"Sep 5th, 2014","Image":"default-onfarmmarket-4-3.jpg","ListingID":"701025","Name":"Glenn Troyer Farms","Description":null,"ContactName":"Ellery Troyer","ContactEmail":"etroyer@ymail.com","ContactPhone":"814.796.2641","Website":"www.glenntroyerfarms.com","Facebook":"troyersstrawberryacres","Twitter":null,"Instagram":null,"Pinterest":null,"Youtube":null,"Blog":null,"Address":"13021 Flatts Rd., Waterford, Pennsylvania 16441","State":"Pennsylvania","City":"Waterford","Street":"13021 Flatts Rd.","Zip":"16441","Longitude":"-79.971958","Latitude":"41.9219327","Dates":null,"Products":""}]