[{"Type":"on-farm market","ModifyDate":"Apr 11th, 2022","Image":"onfarmmarket_701606_12510_20220412030613.png","ListingID":"701606","Name":"Mexico Premium Meats","Description":null,"ContactName":"Melinda Bastian","ContactEmail":"mexicopremiummeats@gmail.com","ContactPhone":"5732536104","Website":"http:\/\/mexicopremiummeats.com","Facebook":"https:\/\/www.facebook.com\/MexicoPremiumMeats","Twitter":null,"Instagram":null,"Pinterest":null,"Youtube":null,"Blog":null,"Address":"26189 Audrain Rd 408, Mexico, Missouri 65265","State":"Missouri","City":"Mexico","Street":"26189 Audrain Rd 408","Zip":"65265","Longitude":"-91.815349","Latitude":"39.176942","Dates":null,"Products":""},{"Type":"on-farm market","ModifyDate":"Apr 18th, 2017","Image":"default-onfarmmarket-4-3.jpg","ListingID":"701402","Name":"Palme Acres Farms","Description":null,"ContactName":"Douglas W. Palme","ContactEmail":"info@palmeacres.com","ContactPhone":"314-677-5586","Website":"http:\/\/www.palmeacres.com","Facebook":null,"Twitter":null,"Instagram":null,"Pinterest":null,"Youtube":null,"Blog":null,"Address":"12650 State Highway M, Wright City, Missouri 63390","State":"Missouri","City":"Wright City","Street":"12650 State Highway M","Zip":"63390","Longitude":"-91.012318","Latitude":"38.785607","Dates":null,"Products":""},{"Type":"on-farm market","ModifyDate":"Apr 20th, 2015","Image":"default-onfarmmarket-4-3.jpg","ListingID":"700518","Name":"Millers Berry Farm","Description":null,"ContactName":"Gerald and Connie Miller","ContactEmail":"circle4connie@yahoo.com","ContactPhone":"417-859-4373","Website":null,"Facebook":"Millers Berry Farm","Twitter":null,"Instagram":null,"Pinterest":null,"Youtube":null,"Blog":null,"Address":"11425 Street Highway KK, Marshfield, Missouri 65706","State":"Missouri","City":"Marshfield","Street":"11425 Street Highway KK","Zip":"65706","Longitude":"-92.927052","Latitude":"37.294758","Dates":null,"Products":""},{"Type":"on-farm market","ModifyDate":"Aug 13th, 2014","Image":"default-onfarmmarket-4-3.jpg","ListingID":"700301","Name":"Thistle Hill Plantation","Description":null,"ContactName":"Bruce Denslow","ContactEmail":"INFO@THISTLEHILLPLANTATION.COM","ContactPhone":"314-739-0001","Website":"thistlehillplantation.com","Facebook":null,"Twitter":null,"Instagram":null,"Pinterest":null,"Youtube":null,"Blog":null,"Address":"21505 Hwy OO, Eolia, Missouri 63344","State":"Missouri","City":"Eolia","Street":"21505 Hwy OO","Zip":"63344","Longitude":"-96.690674","Latitude":"36.544949","Dates":null,"Products":""},{"Type":"on-farm market","ModifyDate":"Aug 13th, 2014","Image":"default-onfarmmarket-4-3.jpg","ListingID":"700836","Name":"Hinkebein Hills Farm","Description":null,"ContactName":"Karlios Hinkebein \/ Hinkebein Hills Farm","ContactEmail":"hinkebeinhillsfarm@wildblue.net","ContactPhone":"573-332-8530","Website":null,"Facebook":"https:\/\/www.facebook.com\/hinkebeins?rf=110698638992813","Twitter":null,"Instagram":null,"Pinterest":null,"Youtube":null,"Blog":null,"Address":"434 Whispering Wind Lane, Cape Girardeau, Missouri 63701","State":"Missouri","City":"Cape Girardeau","Street":"434 Whispering Wind Lane","Zip":"63701","Longitude":"-89.494019","Latitude":"37.371078","Dates":null,"Products":""},{"Type":"on-farm market","ModifyDate":"Aug 13th, 2019","Image":"default-onfarmmarket-4-3.jpg","ListingID":"701489","Name":"Davis Farm","Description":null,"ContactName":"Davis Farm","ContactEmail":"charliedavisfarms@gmail.com","ContactPhone":"6608339329","Website":null,"Facebook":null,"Twitter":null,"Instagram":null,"Pinterest":null,"Youtube":null,"Blog":null,"Address":"13948 Highway 15, Paris, Missouri 65275","State":"Missouri","City":"Paris","Street":"13948 Highway 15","Zip":"65275","Longitude":"-91.997360","Latitude":"39.394888","Dates":null,"Products":""},{"Type":"on-farm market","ModifyDate":"Aug 20th, 2014","Image":"default-onfarmmarket-4-3.jpg","ListingID":"700852","Name":"Centennial Farms and Orchard","Description":null,"ContactName":"Robert Knoernschild","ContactEmail":"centfarmaug@aol.com","ContactPhone":"636 228-4338","Website":"CENTENNIAL FARMS.BIZ","Facebook":null,"Twitter":null,"Instagram":null,"Pinterest":null,"Youtube":null,"Blog":null,"Address":"199 Jackson St., Augusta , Missouri 63332","State":"Missouri","City":"Augusta","Street":"199 Jackson St.","Zip":"63332","Longitude":"-90.887860","Latitude":"38.5742400","Dates":null,"Products":""},{"Type":"on-farm market","ModifyDate":"Aug 21st, 2014","Image":"default-onfarmmarket-4-3.jpg","ListingID":"700061","Name":"PlayHaven Farm LLC","Description":null,"ContactName":"Bobbi Walker","ContactEmail":"bobbi@playhavengreen.com","ContactPhone":"816-304-3317","Website":"http:\/\/www.playhavenfarm.com\/","Facebook":"https:\/\/www.facebook.com\/PlayHavenFarm","Twitter":null,"Instagram":null,"Pinterest":null,"Youtube":null,"Blog":null,"Address":"3194 Oakwood Dr., Napoleon, Missouri 64074","State":"Missouri","City":"Napoleon","Street":"3194 Oakwood Dr.","Zip":"64074","Longitude":"-94.048516","Latitude":"39.0615522","Dates":null,"Products":""},{"Type":"on-farm market","ModifyDate":"Aug 21st, 2014","Image":"default-onfarmmarket-4-3.jpg","ListingID":"700867","Name":"Meramec Bison Farm, LLC","Description":null,"ContactName":"Meramec Bison Farm, LLC","ContactEmail":"Bison@fidnet.com","ContactPhone":"573-247-2775","Website":"www.meramecbison.com","Facebook":"https:\/\/www.facebook.com\/pages\/Meramec-Bison-Farm-LLC\/195576180525013","Twitter":null,"Instagram":null,"Pinterest":null,"Youtube":null,"Blog":null,"Address":"603 South Main Street, Salem, Missouri 65560","State":"Missouri","City":"Salem","Street":"603 South Main Street","Zip":"65560","Longitude":"-91.535215","Latitude":"37.638961","Dates":null,"Products":""},{"Type":"on-farm market","ModifyDate":"Aug 21st, 2014","Image":"default-onfarmmarket-4-3.jpg","ListingID":"700872","Name":"Ozark Country Creations","Description":null,"ContactName":"Dennis Hatfield","ContactEmail":"dhatfield@mo-net.com","ContactPhone":"417 476-5454","Website":null,"Facebook":"www.facebook.com\/hatfieldtomatofarm","Twitter":null,"Instagram":null,"Pinterest":null,"Youtube":null,"Blog":null,"Address":"30226 Holly Rd, Pierce City, Missouri 65723","State":"Missouri","City":"Pierce City","Street":"30226 Holly Rd","Zip":"65723","Longitude":"-94.096171","Latitude":"36.9292199","Dates":null,"Products":""},{"Type":"on-farm market","ModifyDate":"Aug 23rd, 2014","Image":"default-onfarmmarket-4-3.jpg","ListingID":"700891","Name":"Hamra Farms","Description":null,"ContactName":"Steve Hamra","ContactEmail":"hamrafarms@gmail.com","ContactPhone":"573-380-2389","Website":null,"Facebook":"Hamra Farms","Twitter":"https:\/\/www.twitter.com\/HamraFarms","Instagram":null,"Pinterest":null,"Youtube":null,"Blog":null,"Address":"160 county road 831, Sikeston, Missouri 63801","State":"Missouri","City":"Sikeston","Street":"160 county road 831","Zip":"63801","Longitude":"-89.676996","Latitude":"36.828947","Dates":null,"Products":""},{"Type":"on-farm market","ModifyDate":"Aug 25th, 2014","Image":"default-onfarmmarket-4-3.jpg","ListingID":"700927","Name":"Jolliff Farm","Description":null,"ContactName":"Mark R. Jollif","ContactEmail":"jolliff.farm@gmail.com","ContactPhone":"417-293-3317","Website":"http:\/\/jollifffarm.wordpress.com\/","Facebook":null,"Twitter":null,"Instagram":null,"Pinterest":null,"Youtube":null,"Blog":null,"Address":"5550 County Road 1820, West Plains, Missouri 65775","State":"Missouri","City":"West Plains","Street":"5550 County Road 1820","Zip":"65775","Longitude":"-91.861553","Latitude":"36.8335309","Dates":null,"Products":""},{"Type":"on-farm market","ModifyDate":"Aug 26th, 2014","Image":"default-onfarmmarket-4-3.jpg","ListingID":"700344","Name":"Green Gate Family Farm LLC","Description":null,"ContactName":"Ken Barber","ContactEmail":"greengatefamilyfarm@gmail.com","ContactPhone":"3048070336","Website":null,"Facebook":null,"Twitter":null,"Instagram":null,"Pinterest":null,"Youtube":null,"Blog":null,"Address":"RR 71 Box 1168, Wheatland, Missouri 65779","State":"Missouri","City":"Wheatland","Street":"RR 71 Box 1168","Zip":"65779","Longitude":"-93.383060","Latitude":"37.993085","Dates":null,"Products":""},{"Type":"on-farm market","ModifyDate":"Aug 26th, 2014","Image":"default-onfarmmarket-4-3.jpg","ListingID":"700373","Name":"Northern Prairie Alpacas, LLC","Description":null,"ContactName":"Deb Wellinghoff","ContactEmail":"deb@NorthernPrairieAlpacas.com","ContactPhone":"573-627-2341","Website":"http:\/\/www.northernprairiealpacas.com\/","Facebook":"https:\/\/www.facebook.com\/pages\/Northern-Prairie-Alpacas-LLC\/122810441106955?ref=bookmarks","Twitter":null,"Instagram":null,"Pinterest":null,"Youtube":null,"Blog":null,"Address":"7470 Jakes Prairie Road, Sullivan, Missouri 63080","State":"Missouri","City":"Sullivan","Street":"7470 Jakes Prairie Road","Zip":"63080","Longitude":"-91.297884","Latitude":"38.2798417","Dates":null,"Products":""},{"Type":"on-farm market","ModifyDate":"Aug 26th, 2014","Image":"default-onfarmmarket-4-3.jpg","ListingID":"700403","Name":"Benne's Best Meat","Description":null,"ContactName":"Jolene Benne","ContactEmail":"bennes_contact@bennesbest.com","ContactPhone":"636-486-6024","Website":"www.bennesbest.com","Facebook":"https:\/\/www.facebook.com\/bennesbest","Twitter":null,"Instagram":null,"Pinterest":null,"Youtube":null,"Blog":null,"Address":"850 South Breeze, St. Charles, Missouri 63304","State":"Missouri","City":"St. Charles","Street":"850 South Breeze","Zip":"63304","Longitude":"-90.658483","Latitude":"38.718752","Dates":null,"Products":""},{"Type":"on-farm market","ModifyDate":"Aug 26th, 2014","Image":"default-onfarmmarket-4-3.jpg","ListingID":"700756","Name":"Hermans Farm Orchard","Description":null,"ContactName":"Leslie Wittmaier","ContactEmail":"hermansfarmorchard@gmail.com","ContactPhone":"636-925-9969","Website":"www.hermansfarmorchard.com","Facebook":"https:\/\/www.facebook.com\/pages\/Hermans-Farm-Orchard\/159616344096544","Twitter":null,"Instagram":null,"Pinterest":null,"Youtube":null,"Blog":null,"Address":"3663 N. Highway 94, St. Charles, Missouri 63301","State":"Missouri","City":"St. Charles","Street":"3663 N. Highway 94","Zip":"63301","Longitude":"-90.470826","Latitude":"38.832144","Dates":null,"Products":""},{"Type":"on-farm market","ModifyDate":"Aug 27th, 2014","Image":"default-onfarmmarket-4-3.jpg","ListingID":"700955","Name":"haines farms","Description":null,"ContactName":"doug haines","ContactEmail":"hainesfarms@hotmail.com","ContactPhone":"816-516-2312","Website":null,"Facebook":"www.facebook.com\/hainesfarms","Twitter":null,"Instagram":null,"Pinterest":null,"Youtube":null,"Blog":null,"Address":"41903 e. 144th, richmond, Missouri 64085","State":"Missouri","City":"richmond","Street":"41903 e. 144th","Zip":"64085","Longitude":"-93.963643","Latitude":"39.350219","Dates":null,"Products":""},{"Type":"on-farm market","ModifyDate":"Aug 27th, 2014","Image":"default-onfarmmarket-4-3.jpg","ListingID":"700960","Name":"Serendipity Farm & Orchard","Description":null,"ContactName":"Michael Dailey","ContactEmail":"serendipityfarmandorchard@gmail.com","ContactPhone":"816-330-3302","Website":null,"Facebook":"http:\/\/www.facebook.com\/?ref=tn_tnmn#%21\/SerendipityFarmOrchard","Twitter":null,"Instagram":null,"Pinterest":null,"Youtube":null,"Blog":null,"Address":"12780 Jantzen Ln, Platte City, Missouri 64079","State":"Missouri","City":"Platte City","Street":"12780 Jantzen Ln","Zip":"64079","Longitude":"-94.845979","Latitude":"39.321550","Dates":null,"Products":""},{"Type":"on-farm market","ModifyDate":"Aug 5th, 2014","Image":"default-onfarmmarket-4-3.jpg","ListingID":"700346","Name":"Lucky Falling Star Ranch LLC","Description":null,"ContactName":"Gregory Brown","ContactEmail":"gnkbrown@hotmail.com","ContactPhone":"417-256-1809","Website":"www.luckyfallingstarranch.com","Facebook":null,"Twitter":null,"Instagram":null,"Pinterest":null,"Youtube":null,"Blog":null,"Address":"12465 ST RT JJ, West Plains, Missouri 65775","State":"Missouri","City":"West Plains","Street":"12465 ST RT JJ","Zip":"65775","Longitude":"-91.901681","Latitude":"36.591597","Dates":null,"Products":""},{"Type":"on-farm market","ModifyDate":"Aug 6th, 2014","Image":"default-onfarmmarket-4-3.jpg","ListingID":"700451","Name":"Tri-Lakes Orchards","Description":null,"ContactName":"Brian Atchley","ContactEmail":"trilakesorchards@yahoo.com","ContactPhone":"417-546-2850","Website":"www.accounting-taxpros.com","Facebook":"https:\/\/www.facebook.com\/pages\/Tri-Lakes-Orchards-LLC\/279365858871273","Twitter":null,"Instagram":null,"Pinterest":null,"Youtube":null,"Blog":null,"Address":"15920 US highway 160, Forsyth, Missouri 65653","State":"Missouri","City":"Forsyth","Street":"15920 US highway 160","Zip":"65653","Longitude":"-93.032275","Latitude":"36.729878","Dates":null,"Products":""},{"Type":"on-farm market","ModifyDate":"Dec 13th, 2016","Image":"default-onfarmmarket-4-3.jpg","ListingID":"701377","Name":"Homestead Hill Farm & Nursery","Description":null,"ContactName":"Sherry Lambert","ContactEmail":"bigfamilyboss@yahoo.com","ContactPhone":"6604856368","Website":"homesteadhillfarming.com","Facebook":"https:\/\/www.facebook.com\/HomesteadHillFarmandNursery\/","Twitter":null,"Instagram":null,"Pinterest":null,"Youtube":null,"Blog":null,"Address":"26 NE 80th Street, Spickard, Missouri 64679","State":"Missouri","City":"Spickard","Street":"26 NE 80th Street","Zip":"64679","Longitude":"-93.588959","Latitude":"40.189456","Dates":null,"Products":""},{"Type":"on-farm market","ModifyDate":"Dec 26th, 2016","Image":"default-onfarmmarket-4-3.jpg","ListingID":"701380","Name":"Schneider Farms LLC","Description":null,"ContactName":"Cheryl Schneider","ContactEmail":"cdschn@centurylink.net","ContactPhone":"314-740-4445","Website":"www.schneiderfarmsllc.com","Facebook":"https:\/\/www.facebook.com\/Schneider-Farms-162860030399928","Twitter":null,"Instagram":null,"Pinterest":null,"Youtube":null,"Blog":null,"Address":"1784 Doll Road, Hermann, Missouri 65041","State":"Missouri","City":"Hermann","Street":"1784 Doll Road","Zip":"65041","Longitude":"-91.420524","Latitude":"38.5912056","Dates":null,"Products":""},{"Type":"on-farm market","ModifyDate":"Feb 10th, 2020","Image":"default-onfarmmarket-4-3.jpg","ListingID":"701504","Name":"Blue Silo Beef","Description":null,"ContactName":"Kassi Glassman","ContactEmail":"blue.silo.beef@gmail.com","ContactPhone":"4173232659","Website":"https:\/\/bluesilobeef.com\/","Facebook":"https:\/\/www.facebook.com\/bluesilobeef","Twitter":null,"Instagram":null,"Pinterest":null,"Youtube":null,"Blog":"https:\/\/bluesilobeef.com\/blog","Address":"7226 Highway O, Ash Grove, Missouri 65604","State":"Missouri","City":"Ash Grove","Street":"7226 Highway O","Zip":"65604","Longitude":"-93.638307","Latitude":"37.173422","Dates":null,"Products":""},{"Type":"on-farm market","ModifyDate":"Jan 6th, 2015","Image":"default-onfarmmarket-4-3.jpg","ListingID":"701191","Name":"Miles Farms","Description":null,"ContactName":"Karla Miles","ContactEmail":"milesfarms@yahoo.com","ContactPhone":"573-248-9589","Website":null,"Facebook":"www.facebook.com\/MilesFarmsMarket","Twitter":"https:\/\/twitter.com\/Miles_Farms","Instagram":null,"Pinterest":null,"Youtube":null,"Blog":null,"Address":"29286 State Highway C, La Grange , Missouri 63448","State":"Missouri","City":"La Grange","Street":"29286 State Highway C","Zip":"63448","Longitude":"-91.591174","Latitude":"40.048545","Dates":null,"Products":""},{"Type":"on-farm market","ModifyDate":"Jul 13th, 2016","Image":"default-onfarmmarket-4-3.jpg","ListingID":"701358","Name":"OakWoods Farm","Description":null,"ContactName":"Karen Scott","ContactEmail":"karenscott9433@hotmail.com","ContactPhone":"417-472-3859","Website":"oakwoodsfarm.com","Facebook":"https:\/\/www.facebook.com\/pages\/OakWoods-Farm\/260088397378669","Twitter":"https:\/\/twitter.com\/oakwoodsfarm","Instagram":null,"Pinterest":null,"Youtube":null,"Blog":null,"Address":"1775 Old Hwy E, Granby, Missouri 64844","State":"Missouri","City":"Granby","Street":"1775 Old Hwy E","Zip":"64844","Longitude":"-94.263431","Latitude":"36.9352568","Dates":null,"Products":""},{"Type":"on-farm market","ModifyDate":"Jul 20th, 2015","Image":"default-onfarmmarket-4-3.jpg","ListingID":"701289","Name":"Farm Market","Description":null,"ContactName":"Judy Lambeth","ContactEmail":"eating.green@pcsw.org","ContactPhone":"5737653874","Website":null,"Facebook":null,"Twitter":null,"Instagram":null,"Pinterest":null,"Youtube":null,"Blog":null,"Address":"30305 Thrush Drive, Richland, Missouri 65556","State":"Missouri","City":"Richland","Street":"30305 Thrush Drive","Zip":"65556","Longitude":"-92.443898","Latitude":"37.7770030","Dates":null,"Products":""},{"Type":"on-farm market","ModifyDate":"Jul 26th, 2014","Image":"default-onfarmmarket-4-3.jpg","ListingID":"700171","Name":"Beyond Eden","Description":null,"ContactName":"Michael Schafer","ContactEmail":"vintagepoultry@gmail.com","ContactPhone":"417-294-3358","Website":"vintagepoultry.com","Facebook":"https:\/\/www.facebook.com\/beyondeden","Twitter":null,"Instagram":null,"Pinterest":null,"Youtube":null,"Blog":null,"Address":"1804 Burmingham Rd, Forsyth, Missouri 65653","State":"Missouri","City":"Forsyth","Street":"1804 Burmingham Rd","Zip":"65653","Longitude":"-93.077738","Latitude":"36.6569689","Dates":null,"Products":""},{"Type":"on-farm market","ModifyDate":"Jul 26th, 2014","Image":"default-onfarmmarket-4-3.jpg","ListingID":"700630","Name":"Hart Apiaries","Description":null,"ContactName":"Troy Hart","ContactEmail":"berries@hartapiaries.com","ContactPhone":"636-629-5814","Website":"www.hartapiaries.com","Facebook":null,"Twitter":null,"Instagram":null,"Pinterest":null,"Youtube":null,"Blog":null,"Address":"3738 Highway 47, Lonedell, Missouri 63060","State":"Missouri","City":"Lonedell","Street":"3738 Highway 47","Zip":"63060","Longitude":"-90.868656","Latitude":"38.238180","Dates":null,"Products":""},{"Type":"on-farm market","ModifyDate":"Jul 27th, 2014","Image":"default-onfarmmarket-4-3.jpg","ListingID":"700063","Name":"Wind Ridge Farm","Description":null,"ContactName":"Carole Shortt","ContactEmail":"Customerservice@windridgefarm.net","ContactPhone":"636-828-5900","Website":"Http:\/\/www.windridgefarm.net","Facebook":"https:\/\/www.facebook.com\/PickingUpdate?ref=ts","Twitter":"HTTPS:\/\/www.twitter.com\/Pickingupdate","Instagram":null,"Pinterest":null,"Youtube":null,"Blog":null,"Address":"3511 Hwy F, New Melle, Missouri 63365","State":"Missouri","City":"New Melle","Street":"3511 Hwy F","Zip":"63365","Longitude":"-90.878906","Latitude":"38.708905","Dates":null,"Products":""},{"Type":"on-farm market","ModifyDate":"Jul 27th, 2014","Image":"default-onfarmmarket-4-3.jpg","ListingID":"700126","Name":"Heritage Farm and Ranch","Description":null,"ContactName":"Kathy Whitman","ContactEmail":"heritageranch@aol.com","ContactPhone":"417-779-3599","Website":"http:\/\/www.heritageranch.co\/","Facebook":"https:\/\/www.facebook.com\/HeritageRanchBB","Twitter":null,"Instagram":null,"Pinterest":null,"Youtube":null,"Blog":null,"Address":"4738 W. State Hwy 86, Lampe, Missouri 65681","State":"Missouri","City":"Lampe","Street":"4738 W. State Hwy 86","Zip":"65681","Longitude":"-93.495140","Latitude":"36.509845","Dates":null,"Products":""},{"Type":"on-farm market","ModifyDate":"Jul 27th, 2014","Image":"default-onfarmmarket-4-3.jpg","ListingID":"700390","Name":"Canyon Goat Company, Inc.","Description":null,"ContactName":"Michele and Richard Delanty","ContactEmail":"canyongoat@gmail.com","ContactPhone":"573-216-9056","Website":"http:\/\/www.canyongoat.com\/index.html","Facebook":"https:\/\/www.facebook.com\/pages\/Canyon-Goat-Company\/218608414896707?sk=info","Twitter":null,"Instagram":null,"Pinterest":null,"Youtube":null,"Blog":null,"Address":"324 Velvet Antler Road, Camdenton, Missouri 65020","State":"Missouri","City":"Camdenton","Street":"324 Velvet Antler Road","Zip":"65020","Longitude":"-92.855130","Latitude":"38.0903328","Dates":null,"Products":""},{"Type":"on-farm market","ModifyDate":"Jul 28th, 2014","Image":"default-onfarmmarket-4-3.jpg","ListingID":"700081","Name":"Blue Fox Farm","Description":null,"ContactName":"Megan Fox","ContactEmail":"bluefoxfarm@gmx.com","ContactPhone":"573-657-1425","Website":"http:\/\/www.bluefoxfood.com\/","Facebook":"https:\/\/www.facebook.com\/pages\/Blue-Fox-Farm\/357267831061749","Twitter":null,"Instagram":null,"Pinterest":null,"Youtube":null,"Blog":"http:\/\/www.bluefoxfood.com\/blog.html","Address":"120 E Fox Hollow Rd, Ashland, Missouri 65010","State":"Missouri","City":"Ashland","Street":"120 E Fox Hollow Rd","Zip":"65010","Longitude":"-92.345650","Latitude":"38.7866936","Dates":null,"Products":""},{"Type":"on-farm market","ModifyDate":"Jul 28th, 2014","Image":"default-onfarmmarket-4-3.jpg","ListingID":"700434","Name":"Wil farm","Description":null,"ContactName":"wilfarm","ContactEmail":"wilfarmeventually@gmail.com","ContactPhone":"573-486-2191","Website":"wilfarm.org","Facebook":null,"Twitter":null,"Instagram":null,"Pinterest":null,"Youtube":null,"Blog":null,"Address":"1002 Highway 19, Hermann, Missouri 65041","State":"Missouri","City":"Hermann","Street":"1002 Highway 19","Zip":"65041","Longitude":"-91.468241","Latitude":"38.773117","Dates":null,"Products":""},{"Type":"on-farm market","ModifyDate":"Jul 29th, 2014","Image":"default-onfarmmarket-4-3.jpg","ListingID":"700134","Name":"Green Dirt Farm, LLC","Description":null,"ContactName":"Lori Pflugradt","ContactEmail":"info@greendirtfarm.com","ContactPhone":"816-386-2156","Website":null,"Facebook":"https:\/\/www.facebook.com\/greendirtfarm","Twitter":null,"Instagram":null,"Pinterest":null,"Youtube":null,"Blog":null,"Address":"P.O. Box 74, Weston, Missouri 64098","State":"Missouri","City":"Weston","Street":"P.O. Box 74","Zip":"64098","Longitude":"-94.901629","Latitude":"39.4111092","Dates":null,"Products":""},{"Type":"on-farm market","ModifyDate":"Jul 29th, 2014","Image":"default-onfarmmarket-4-3.jpg","ListingID":"700459","Name":"Seven Gables Farm","Description":null,"ContactName":"timothy ortmann","ContactEmail":"timothyortmann@yahoo.com","ContactPhone":"636-451-5745","Website":"sevengablesfarm.com","Facebook":"https:\/\/www.facebook.com\/pages\/Seven-Gables-Farm\/618425231566963?sk=timeline","Twitter":null,"Instagram":null,"Pinterest":null,"Youtube":null,"Blog":null,"Address":"4487 Elder Road Post Office Box 216, Gray Summit, Missouri 63089","State":"Missouri","City":"Gray Summit","Street":"4487 Elder Road Post Office Box 216","Zip":"63089","Longitude":"-90.862958","Latitude":"38.492664","Dates":null,"Products":""},{"Type":"on-farm market","ModifyDate":"Jul 30th, 2014","Image":"default-onfarmmarket-4-3.jpg","ListingID":"700220","Name":"Stone-Leady Farms","Description":null,"ContactName":"Megan & Michael Leady","ContactEmail":"stoneleadyfarms@gmail.com","ContactPhone":"314-809-7222","Website":"www.stoneleadyfarms.com","Facebook":"www.facebook.com\/StoneLeadyFarms","Twitter":null,"Instagram":null,"Pinterest":null,"Youtube":null,"Blog":null,"Address":"8725 N Horseshoe Rd, Dittmer, Missouri 63023","State":"Missouri","City":"Dittmer","Street":"8725 N Horseshoe Rd","Zip":"63023","Longitude":"-90.756135","Latitude":"38.1978360","Dates":null,"Products":""},{"Type":"on-farm market","ModifyDate":"Jul 30th, 2014","Image":"default-onfarmmarket-4-3.jpg","ListingID":"700243","Name":"Peace Valley Poultry","Description":null,"ContactName":"Jim and Judy Jo Protiva Family","ContactEmail":"pvpoultry@pvbroadband.com","ContactPhone":"417-277-5869","Website":"www.freshchickenandturkey.com","Facebook":null,"Twitter":null,"Instagram":null,"Pinterest":null,"Youtube":null,"Blog":null,"Address":"8290 CR 1980, West Plains, Missouri 65775","State":"Missouri","City":"West Plains","Street":"8290 CR 1980","Zip":"65775","Longitude":"-91.738379","Latitude":"36.846826","Dates":null,"Products":""},{"Type":"on-farm market","ModifyDate":"Jul 30th, 2014","Image":"default-onfarmmarket-4-3.jpg","ListingID":"700267","Name":"Missouri's Best Beef Co-Op","Description":null,"ContactName":"Ron McNear","ContactEmail":"mobest@centurylink.net","ContactPhone":"417-867-8501","Website":"www.mobest beef.com","Facebook":null,"Twitter":null,"Instagram":null,"Pinterest":null,"Youtube":null,"Blog":null,"Address":"Rt. 81, Box 149, Koshkonong, Missouri 65692","State":"Missouri","City":"Koshkonong","Street":"Rt. 81, Box 149","Zip":"65692","Longitude":"-91.645699","Latitude":"36.5958946","Dates":null,"Products":""},{"Type":"on-farm market","ModifyDate":"Jul 30th, 2014","Image":"default-onfarmmarket-4-3.jpg","ListingID":"700775","Name":"Greenhill Vineyard and Farm.  We sell grapes.","Description":null,"ContactName":"JOAN AND ED BARRY","ContactEmail":"greenhillfarm@hotmail.com","ContactPhone":"417-741-7396","Website":"www.greenhillgrapes.com","Facebook":null,"Twitter":null,"Instagram":null,"Pinterest":null,"Youtube":null,"Blog":null,"Address":"4905 highway 5, Hartville, Missouri 65667","State":"Missouri","City":"Hartville","Street":"4905 highway 5","Zip":"65667","Longitude":"-92.555292","Latitude":"37.286090","Dates":null,"Products":""},{"Type":"on-farm market","ModifyDate":"Jul 6th, 2017","Image":"default-onfarmmarket-4-3.jpg","ListingID":"701420","Name":"Serendipity Acres, LLC","Description":null,"ContactName":"Angie Evans","ContactEmail":"Serendipityacresfarmstand@gmail.com","ContactPhone":"417-300-1460","Website":null,"Facebook":"https:\/\/www.facebook.com\/Serendipityacresevans\/","Twitter":null,"Instagram":null,"Pinterest":null,"Youtube":null,"Blog":null,"Address":"1068 S Metzletein Rd, Clever, Missouri 65631","State":"Missouri","City":"Clever","Street":"1068 S Metzletein Rd","Zip":"65631","Longitude":"-93.499684","Latitude":"37.0244265","Dates":null,"Products":""},{"Type":"on-farm market","ModifyDate":"Jun 28th, 2016","Image":"default-onfarmmarket-4-3.jpg","ListingID":"701344","Name":"The Blue Hill Company, LLC","Description":null,"ContactName":"Brenda Story","ContactEmail":"bstory@embarqmail.com","ContactPhone":"5735786413","Website":"www.thebluehillco.com","Facebook":"https:\/\/www.facebook.com\/TheBlueHillCo\/","Twitter":null,"Instagram":null,"Pinterest":null,"Youtube":null,"Blog":null,"Address":"19410 State Route O, Rolla, Missouri 65401","State":"Missouri","City":"Rolla","Street":"19410 State Route O","Zip":"65401","Longitude":"-91.743907","Latitude":"37.815275","Dates":null,"Products":""},{"Type":"on-farm market","ModifyDate":"Mar 24th, 2015","Image":"default-onfarmmarket-4-3.jpg","ListingID":"700959","Name":"Meyer farm","Description":null,"ContactName":"Peggy Meyer","ContactEmail":"Meyerpeggy34@yahoo.com","ContactPhone":"5737546540","Website":null,"Facebook":"Meyer farm","Twitter":null,"Instagram":null,"Pinterest":null,"Youtube":null,"Blog":null,"Address":"17819 Hwy UU, Louisiana, Missouri 63353","State":"Missouri","City":"Louisiana","Street":"17819 Hwy UU","Zip":"63353","Longitude":"-91.143758","Latitude":"39.411628","Dates":null,"Products":""},{"Type":"on-farm market","ModifyDate":"Mar 27th, 2015","Image":"default-onfarmmarket-4-3.jpg","ListingID":"700606","Name":"Ozark Berry Farm","Description":null,"ContactName":"Alan Collins","ContactEmail":"ozbf@ozarkberryfarm.com","ContactPhone":"573-677-1130","Website":"Ozarkberryfarm.com","Facebook":"https:\/\/www.facebook.com\/Berries.Bugs.Blooms","Twitter":null,"Instagram":null,"Pinterest":null,"Youtube":null,"Blog":null,"Address":"552 Lick Creek, Leasburg, Missouri 65535","State":"Missouri","City":"Leasburg","Street":"552 Lick Creek","Zip":"65535","Longitude":"-91.308962","Latitude":"38.090853","Dates":null,"Products":""},{"Type":"on-farm market","ModifyDate":"Mar 4th, 2015","Image":"default-onfarmmarket-4-3.jpg","ListingID":"701220","Name":"Lage Farms LLC","Description":null,"ContactName":"Lage Farms, LLC  Wilbur Lage","ContactEmail":"wl@lagefarms.com","ContactPhone":"573-690-6778","Website":"lagefarms.com","Facebook":"lagefarms.com","Twitter":null,"Instagram":null,"Pinterest":null,"Youtube":null,"Blog":null,"Address":"8001 Bode Ferry Rd, Jefferson City, Missouri 65101","State":"Missouri","City":"Jefferson City","Street":"8001 Bode Ferry Rd","Zip":"65101","Longitude":"-92.089989","Latitude":"38.469585","Dates":null,"Products":""},{"Type":"on-farm market","ModifyDate":"Nov 26th, 2015","Image":"default-onfarmmarket-4-3.jpg","ListingID":"701305","Name":"Rachel's Goat & Chicken Farm","Description":null,"ContactName":"Rachel Harris","ContactEmail":"rachel1978@mail.com","ContactPhone":"4178592107","Website":"http:\/\/www.rachelsgoatfarm.com\/","Facebook":null,"Twitter":null,"Instagram":null,"Pinterest":null,"Youtube":null,"Blog":null,"Address":"624 Stringtown Rd, Seymour, Missouri 65746","State":"Missouri","City":"Seymour","Street":"624 Stringtown Rd","Zip":"65746","Longitude":"-92.788761","Latitude":"37.2556817","Dates":null,"Products":""},{"Type":"on-farm market","ModifyDate":"Nov 2nd, 2014","Image":"default-onfarmmarket-4-3.jpg","ListingID":"701161","Name":"Purple Gate Farm","Description":null,"ContactName":"Thomas Pluth","ContactEmail":"purple.gate.farm@gmail.com","ContactPhone":"(417) 443-0303","Website":null,"Facebook":"https:\/\/www.facebook.com\/pages\/Purple-Gate-Farm\/566680560033305","Twitter":null,"Instagram":null,"Pinterest":null,"Youtube":null,"Blog":null,"Address":"416 Poplar Drive, Highlandville, Missouri 65669","State":"Missouri","City":"Highlandville","Street":"416 Poplar Drive","Zip":"65669","Longitude":"-93.317071","Latitude":"36.901720","Dates":null,"Products":""},{"Type":"on-farm market","ModifyDate":"Oct 1st, 2014","Image":"default-onfarmmarket-4-3.jpg","ListingID":"700587","Name":"Lost Branch Blueberry Farm","Description":null,"ContactName":"Robert L Price","ContactEmail":"pricefamilylbbf@gmail.com","ContactPhone":"660-342-2725","Website":"www.lostbranchblueberries.com","Facebook":"www.facebook.com\/lostbranchblueberryfarm","Twitter":"@pricefamilylbbf","Instagram":null,"Pinterest":null,"Youtube":null,"Blog":null,"Address":"21507 Lost Branch Way, Brashear, Missouri 63533","State":"Missouri","City":"Brashear","Street":"21507 Lost Branch Way","Zip":"63533","Longitude":"-92.455074","Latitude":"40.1729085","Dates":null,"Products":""},{"Type":"on-farm market","ModifyDate":"Oct 25th, 2014","Image":"default-onfarmmarket-4-3.jpg","ListingID":"701153","Name":"Lil' Sprouts Farm","Description":null,"ContactName":"Vanessa Thomas","ContactEmail":"lilsproutsfarm@gmail.com","ContactPhone":"(573) 560-0110","Website":"www.EarthSprouts.com","Facebook":"Www.facebook.com\/lilsproutsfarm","Twitter":null,"Instagram":null,"Pinterest":null,"Youtube":null,"Blog":null,"Address":"11529 HWY NN, Louisiana, Missouri 63353","State":"Missouri","City":"Louisiana","Street":"11529 HWY NN","Zip":"63353","Longitude":"-91.076797","Latitude":"39.427775","Dates":null,"Products":""},{"Type":"on-farm market","ModifyDate":"Oct 30th, 2014","Image":"default-onfarmmarket-4-3.jpg","ListingID":"701158","Name":"Rausch's Blueberries","Description":null,"ContactName":"George Rausch","ContactEmail":"amdesigns7@gmail.com","ContactPhone":"417-235-7825","Website":null,"Facebook":null,"Twitter":null,"Instagram":null,"Pinterest":null,"Youtube":null,"Blog":null,"Address":"21655 Hwy H, Monett, Missouri 65708","State":"Missouri","City":"Monett","Street":"21655 Hwy H","Zip":"65708","Longitude":"-93.918396","Latitude":"36.960386","Dates":null,"Products":""},{"Type":"on-farm market","ModifyDate":"Oct 3rd, 2017","Image":"default-onfarmmarket-4-3.jpg","ListingID":"701430","Name":"Fed From The Farm","Description":null,"ContactName":"David Boatright","ContactEmail":"david@fedfromthefarm.com","ContactPhone":"6606209052","Website":"https:\/\/fedfromthefarm.com\/","Facebook":"https:\/\/www.facebook.com\/boatrightfarms\/","Twitter":null,"Instagram":null,"Pinterest":null,"Youtube":null,"Blog":null,"Address":"13906 Osage Valley Rd, Boonville, Missouri 65233","State":"Missouri","City":"Boonville","Street":"13906 Osage Valley Rd","Zip":"65233","Longitude":"-92.757369","Latitude":"38.8851101","Dates":null,"Products":""},{"Type":"on-farm market","ModifyDate":"Oct 4th, 2014","Image":"default-onfarmmarket-4-3.jpg","ListingID":"700284","Name":"John & Linda Fruit and Berry Farm","Description":null,"ContactName":"John White","ContactEmail":"johnj45@hotmail.com","ContactPhone":"816-690-6293","Website":null,"Facebook":null,"Twitter":null,"Instagram":null,"Pinterest":null,"Youtube":null,"Blog":null,"Address":"2428 Texas Prairie Rd, Bates City, Missouri 64011","State":"Missouri","City":"Bates City","Street":"2428 Texas Prairie Rd","Zip":"64011","Longitude":"-94.066232","Latitude":"39.025235","Dates":null,"Products":""},{"Type":"on-farm market","ModifyDate":"Sep 14th, 2014","Image":"default-onfarmmarket-4-3.jpg","ListingID":"700770","Name":"G's Orchard","Description":null,"ContactName":"Mark Graves","ContactEmail":"gsorchard@gmail.com","ContactPhone":"417-669-4583","Website":null,"Facebook":null,"Twitter":null,"Instagram":null,"Pinterest":null,"Youtube":null,"Blog":null,"Address":"2096 Farm Road 1130, Verona, Missouri 65769","State":"Missouri","City":"Verona","Street":"2096 Farm Road 1130","Zip":"65769","Longitude":"-93.827266","Latitude":"36.896851","Dates":null,"Products":""},{"Type":"on-farm market","ModifyDate":"Sep 3rd, 2014","Image":"default-onfarmmarket-4-3.jpg","ListingID":"701018","Name":"Prier Farms Grassfed #0389","Description":null,"ContactName":"Ken Prier","ContactEmail":"prierfarmsgrassfed@gmail.com","ContactPhone":"417-770-2178","Website":null,"Facebook":"Prier Farms Grassfed #0389","Twitter":null,"Instagram":null,"Pinterest":null,"Youtube":null,"Blog":null,"Address":"25717 FR 1168, Eagle Rock , Missouri 65641","State":"Missouri","City":"Eagle Rock","Street":"25717 FR 1168","Zip":"65641","Longitude":"-93.781237","Latitude":"36.5594726","Dates":null,"Products":""}]