[{"Type":"on-farm market","ModifyDate":"Aug 21st, 2014","Image":"default-onfarmmarket-4-3.jpg","ListingID":"700634","Name":"Backyard Orchards","Description":null,"ContactName":null,"ContactEmail":"backyardorchards@hotmail.com","ContactPhone":"33-695-7623","Website":"www. Backyardorchards.com","Facebook":null,"Twitter":null,"Instagram":null,"Pinterest":null,"Youtube":null,"Blog":null,"Address":"6585 Highway 431 North, Eufaula , Alabama 36027","State":"Alabama","City":"Eufaula","Street":"6585 Highway 431 North","Zip":"36027","Longitude":"-85.140352","Latitude":"32.073484","Dates":null,"Products":""},{"Type":"on-farm market","ModifyDate":"Aug 22nd, 2014","Image":"default-onfarmmarket-4-3.jpg","ListingID":"700879","Name":"Northern Lights Farm","Description":null,"ContactName":"Northern Lights Farm","ContactEmail":"nlfarm@yahoo.com","ContactPhone":"205-266-0746","Website":"http:\/\/sites.google.com\/site\/Nlightsfarm","Facebook":"https:\/\/www.facebook.com\/northern.farm","Twitter":null,"Instagram":null,"Pinterest":null,"Youtube":null,"Blog":null,"Address":"173 Fowler Road, Empire, Alabama 35063","State":"Alabama","City":"Empire","Street":"173 Fowler Road","Zip":"35063","Longitude":"-86.999158","Latitude":"33.792266","Dates":null,"Products":""},{"Type":"on-farm market","ModifyDate":"Aug 26th, 2014","Image":"default-onfarmmarket-4-3.jpg","ListingID":"700117","Name":"LA Berry Farms Inc","Description":null,"ContactName":"Jenny Klein","ContactEmail":"jenny@weeksbayplantation.com","ContactPhone":"251-279-8745","Website":"www.weeksbayplantation.com","Facebook":"https:\/\/www.facebook.com\/laberryfarms","Twitter":null,"Instagram":null,"Pinterest":null,"Youtube":null,"Blog":null,"Address":"12562 Mary Ann Beach Road, Fairhope, Alabama 36532","State":"Alabama","City":"Fairhope","Street":"12562 Mary Ann Beach Road","Zip":"36532","Longitude":"-87.850596","Latitude":"30.4070580","Dates":null,"Products":""},{"Type":"on-farm market","ModifyDate":"Jul 26th, 2014","Image":"default-onfarmmarket-4-3.jpg","ListingID":"700624","Name":"Bixler Farms","Description":null,"ContactName":null,"ContactEmail":"bixlerd@bellsouth.net","ContactPhone":"256-659-3016","Website":null,"Facebook":null,"Twitter":null,"Instagram":null,"Pinterest":null,"Youtube":null,"Blog":null,"Address":"358 County Road 204, Dawson, Alabama 35963","State":"Alabama","City":"Dawson","Street":"358 County Road 204","Zip":"35963","Longitude":"-85.917537","Latitude":"34.33139","Dates":null,"Products":""},{"Type":"on-farm market","ModifyDate":"Jul 27th, 2014","Image":"default-onfarmmarket-4-3.jpg","ListingID":"700100","Name":"Meme's Poultry and Quail Sales","Description":null,"ContactName":"Rose McCurdy","ContactEmail":"rose@memespoultry.com","ContactPhone":"251-716-1460","Website":"www.memespoultry.com","Facebook":"https:\/\/www.facebook.com\/memespoultryandquailsales","Twitter":null,"Instagram":null,"Pinterest":null,"Youtube":null,"Blog":null,"Address":"21985 Koier Rd, Robertsdale, Alabama 36567","State":"Alabama","City":"Robertsdale","Street":"21985 Koier Rd","Zip":"36567","Longitude":"-87.564760","Latitude":"30.545974","Dates":null,"Products":""},{"Type":"on-farm market","ModifyDate":"Jul 27th, 2014","Image":"default-onfarmmarket-4-3.jpg","ListingID":"700416","Name":"Mountain View Orchards","Description":null,"ContactName":"Andy Millard","ContactEmail":"andy@mountainvieworchards.com","ContactPhone":"205-351-1931","Website":"www.mountainvieworchards.com","Facebook":null,"Twitter":null,"Instagram":null,"Pinterest":null,"Youtube":null,"Blog":null,"Address":"16045 County Road 29, Jemison, Alabama 35085","State":"Alabama","City":"Jemison","Street":"16045 County Road 29","Zip":"35085","Longitude":"-86.684533","Latitude":"32.966311","Dates":null,"Products":""},{"Type":"on-farm market","ModifyDate":"Jul 27th, 2014","Image":"default-onfarmmarket-4-3.jpg","ListingID":"700446","Name":"Oakachoy Nursery and Blueberry Farm","Description":null,"ContactName":"George Brown","ContactEmail":"upickblueberry@gmail.com","ContactPhone":"334-541-3208","Website":"www.facebook.com\/OakachoyBlueberryFarm?fref=ts","Facebook":null,"Twitter":null,"Instagram":null,"Pinterest":null,"Youtube":null,"Blog":null,"Address":"363 Coosa County Road 98, Equality, Alabama 36026","State":"Alabama","City":"Equality","Street":"363 Coosa County Road 98","Zip":"36026","Longitude":"-86.108406","Latitude":"32.761773","Dates":null,"Products":""},{"Type":"on-farm market","ModifyDate":"Jul 29th, 2014","Image":"default-onfarmmarket-4-3.jpg","ListingID":"700071","Name":"SheerLark Farm","Description":null,"ContactName":"Sherry Johnson","ContactEmail":"gentlemom@farmerstel.com","ContactPhone":"256-632-2465","Website":"http:\/\/sheerlarkfarm.com\/","Facebook":"https:\/\/www.facebook.com\/pages\/SheerLark-Farm\/341548307271","Twitter":null,"Instagram":null,"Pinterest":null,"Youtube":null,"Blog":null,"Address":"367 County Road 327, Flat Rock, Alabama 35966","State":"Alabama","City":"Flat Rock","Street":"367 County Road 327","Zip":"35966","Longitude":"-85.675347","Latitude":"34.7662994","Dates":null,"Products":""},{"Type":"on-farm market","ModifyDate":"Jun 24th, 2015","Image":"default-onfarmmarket-4-3.jpg","ListingID":"701262","Name":"Bagwell Blueberry farm","Description":null,"ContactName":"darrell bagwell","ContactEmail":"dbagwell412@yahoo.com","ContactPhone":"256-590-6152 , 256-3","Website":null,"Facebook":"bagwell blueberry farm","Twitter":null,"Instagram":null,"Pinterest":null,"Youtube":null,"Blog":null,"Address":"228 county road 721, Cullman , Alabama 35055","State":"Alabama","City":"Cullman","Street":"228 county road 721","Zip":"35055","Longitude":"-86.773041","Latitude":"34.160014","Dates":null,"Products":""},{"Type":"on-farm market","ModifyDate":"Mar 23rd, 2015","Image":"default-onfarmmarket-4-3.jpg","ListingID":"700177","Name":"Barber Berry Farm, LLC","Description":null,"ContactName":"Ken Barber","ContactEmail":"kenandanida@barberberryfarm.com","ContactPhone":"334-549-4710","Website":"http:\/\/www.barberberryfarm.com","Facebook":"http:\/\/www.facebook.com\/barberberryfarmupick","Twitter":null,"Instagram":null,"Pinterest":null,"Youtube":null,"Blog":null,"Address":"2362 Alabama River Parkway, Millbrook, Alabama 36054","State":"Alabama","City":"Millbrook","Street":"2362 Alabama River Parkway","Zip":"36054","Longitude":"-86.324675","Latitude":"32.435541","Dates":null,"Products":""},{"Type":"on-farm market","ModifyDate":"Mar 23rd, 2015","Image":"default-onfarmmarket-4-3.jpg","ListingID":"700931","Name":"Hill View Farms","Description":null,"ContactName":"Wanda Merritt","ContactEmail":"HillViewFarmsAlabama@yahoo.com","ContactPhone":"2055597799","Website":null,"Facebook":null,"Twitter":null,"Instagram":null,"Pinterest":null,"Youtube":null,"Blog":null,"Address":"949 Phillips Rd, Cleveland, Alabama 35049","State":"Alabama","City":"Cleveland","Street":"949 Phillips Rd","Zip":"35049","Longitude":"-86.608803","Latitude":"33.965800","Dates":null,"Products":""},{"Type":"on-farm market","ModifyDate":"Mar 28th, 2015","Image":"default-onfarmmarket-4-3.jpg","ListingID":"700457","Name":"Moody Family Farm","Description":null,"ContactName":"Lynn and Teresa Moody","ContactEmail":"tmoody1119@gmail.com","ContactPhone":"205-559-2809","Website":null,"Facebook":null,"Twitter":null,"Instagram":null,"Pinterest":null,"Youtube":null,"Blog":null,"Address":"311 Ellen Street, Oneonta, Alabama 35121","State":"Alabama","City":"Oneonta","Street":"311 Ellen Street","Zip":"35121","Longitude":"-86.452663","Latitude":"33.962313","Dates":null,"Products":""},{"Type":"on-farm market","ModifyDate":"Nov 4th, 2015","Image":"default-onfarmmarket-4-3.jpg","ListingID":"701303","Name":"Gardner'S Berry Farm","Description":null,"ContactName":"LAWRENCE A. GARDNER","ContactEmail":"dewberries@gulftel.com","ContactPhone":"251 960 5317","Website":"www.gardnersberryfarm.com","Facebook":"Gardners Berry Farm","Twitter":null,"Instagram":null,"Pinterest":null,"Youtube":null,"Blog":null,"Address":"21909 COUNTY ROAD 68 NORTH, ROBERTSDALE, Alabama 36567","State":"Alabama","City":"ROBERTSDALE","Street":"21909 COUNTY ROAD 68 NORTH","Zip":"36567","Longitude":"-87.649709","Latitude":"30.6497850","Dates":null,"Products":""},{"Type":"on-farm market","ModifyDate":"Sep 2nd, 2014","Image":"default-onfarmmarket-4-3.jpg","ListingID":"701008","Name":"Old Field Farm General Store","Description":null,"ContactName":"Suzy Lowry Geno","ContactEmail":"slgt@yahoo.com","ContactPhone":"205-625-3268","Website":"www.suzysfarm.com","Facebook":"https:\/\/www.facebook.com\/pages\/Old-Field-Farm-General-Store\/115315242053","Twitter":null,"Instagram":null,"Pinterest":null,"Youtube":null,"Blog":null,"Address":"3142 State Highway 132, Oneonta, Alabama 35121","State":"Alabama","City":"Oneonta","Street":"3142 State Highway 132","Zip":"35121","Longitude":"-86.420852","Latitude":"33.9669593","Dates":null,"Products":""},{"Type":"on-farm market","ModifyDate":"Sep 30th, 2014","Image":"default-onfarmmarket-4-3.jpg","ListingID":"700469","Name":"Suberis Blueberry Farm","Description":null,"ContactName":"Barbara Suberi","ContactEmail":"suberisblueberries@hotmail.com","ContactPhone":"251-228-2322","Website":null,"Facebook":null,"Twitter":null,"Instagram":null,"Pinterest":null,"Youtube":null,"Blog":null,"Address":"27608 County Road 65, Loxley, Alabama 36551","State":"Alabama","City":"Loxley","Street":"27608 County Road 65","Zip":"36551","Longitude":"-87.708242","Latitude":"30.6289090","Dates":null,"Products":""}]