[{"Type":"on-farm market","ModifyDate":"Apr 11th, 2015","Image":"default-onfarmmarket-4-3.jpg","ListingID":"701244","Name":"Raven's Roost Farm","Description":null,"ContactName":"DOUGLAS BEDELL","ContactEmail":"bedell.doug@gmail.com","ContactPhone":"2313506448","Website":null,"Facebook":"https:\/\/www.facebook.com\/pages\/Ravens-Roost-Farm\/244514162293833","Twitter":null,"Instagram":null,"Pinterest":null,"Youtube":null,"Blog":null,"Address":"2398 Vandermark Rd, Bellaire, Michigan 49615","State":"Michigan","City":"Bellaire","Street":"2398 Vandermark Rd","Zip":"49615","Longitude":"-85.241874","Latitude":"44.9987500","Dates":null,"Products":""},{"Type":"on-farm market","ModifyDate":"Apr 1st, 2015","Image":"default-onfarmmarket-4-3.jpg","ListingID":"700926","Name":"Hickory Corners Homestead","Description":null,"ContactName":"Layne Hagerman","ContactEmail":"hickorycornershomestead@gmail.com","ContactPhone":"269-615-1542","Website":"www.hickorycornershomestead.com","Facebook":"www.facebook.com\/HickoryCornersHomestead","Twitter":null,"Instagram":null,"Pinterest":null,"Youtube":null,"Blog":null,"Address":"12751 E Baseline Rd, Hickory Corners , Michigan 49060","State":"Michigan","City":"Hickory Corners","Street":"12751 E Baseline Rd","Zip":"49060","Longitude":"-85.382163","Latitude":"42.419918","Dates":null,"Products":""},{"Type":"on-farm market","ModifyDate":"Apr 22nd, 2022","Image":"onfarmmarket_700137_13898_20220422133913.png","ListingID":"700137","Name":"GCC Organics","Description":"A real down to earth experience. We practice truth in food as we don\\'t spin what we do.","ContactName":"Delbert Garrett","ContactEmail":"info@vraefoods.com","ContactPhone":"989-718-8723","Website":"https:\/\/vraefoods.com","Facebook":"https:\/\/www.facebook.com\/vraefoods","Twitter":"","Instagram":"","Pinterest":"","Youtube":"","Blog":"","Address":"431 S Littlefield Rd, Mount Pleasant, Michigan 48858","State":"Michigan","City":"Mount Pleasant","Street":"431 S Littlefield Rd","Zip":"48858","Longitude":"-84.948278","Latitude":"43.633948","Dates":null,"Products":""},{"Type":"on-farm market","ModifyDate":"Apr 27th, 2016","Image":"default-onfarmmarket-4-3.jpg","ListingID":"701288","Name":"Galloway's Red Clay Ranch","Description":null,"ContactName":"Joanne Galloway","ContactEmail":"galloway.joanne@gmail.com","ContactPhone":"906 322 7501","Website":null,"Facebook":"Galloway\\'s Red Clay Ranch","Twitter":null,"Instagram":null,"Pinterest":null,"Youtube":null,"Blog":null,"Address":"5696 W Townline Rd, Pickford, Michigan 49774","State":"Michigan","City":"Pickford","Street":"5696 W Townline Rd","Zip":"49774","Longitude":"-84.481615","Latitude":"46.1582650","Dates":null,"Products":""},{"Type":"on-farm market","ModifyDate":"Apr 29th, 2016","Image":"default-onfarmmarket-4-3.jpg","ListingID":"701334","Name":"Peaceful Produce","Description":null,"ContactName":"Amy Ball","ContactEmail":"peacefulproducefarm@gmail.com","ContactPhone":"2314361221","Website":null,"Facebook":"Peaceful Produce","Twitter":null,"Instagram":null,"Pinterest":null,"Youtube":null,"Blog":null,"Address":"3565 Elder Rd., Carp Lake, Michigan 49718","State":"Michigan","City":"Carp Lake","Street":"3565 Elder Rd.","Zip":"49718","Longitude":"-84.843103","Latitude":"45.709447","Dates":null,"Products":""},{"Type":"on-farm market","ModifyDate":"Aug 12th, 2014","Image":"default-onfarmmarket-4-3.jpg","ListingID":"700603","Name":"Papaxe2x80x99s Pumpkin Patch","Description":null,"ContactName":"william miller jr.","ContactEmail":"papaspumpkinpatch@yahoo.com","ContactPhone":"989-773-4345","Website":"papaspumpkinpatch@yahoo.com","Facebook":null,"Twitter":null,"Instagram":null,"Pinterest":null,"Youtube":null,"Blog":null,"Address":"3909 S Summerton Road, Mt. Pleasant, Michigan 48858","State":"Michigan","City":"Mt. Pleasant","Street":"3909 S Summerton Road","Zip":"48858","Longitude":"-84.719181","Latitude":"43.571437","Dates":null,"Products":""},{"Type":"on-farm market","ModifyDate":"Aug 13th, 2014","Image":"default-onfarmmarket-4-3.jpg","ListingID":"700062","Name":"Piggott's Farm Market & Bakery","Description":null,"ContactName":"George McManus IV","ContactEmail":"info@piggottsfarmmarket.com","ContactPhone":"269-876-9269","Website":"www.piggottsfarmmarket.com","Facebook":"https:\/\/www.facebook.com\/piggottsfarmmarketbakery","Twitter":"https:\/\/twitter.com\/piggottsproduce","Instagram":null,"Pinterest":null,"Youtube":null,"Blog":null,"Address":"3824 E. Napier Ave., Benton Harbor, Michigan 49022","State":"Michigan","City":"Benton Harbor","Street":"3824 E. Napier Ave.","Zip":"49022","Longitude":"-86.365637","Latitude":"42.0906298","Dates":null,"Products":""},{"Type":"on-farm market","ModifyDate":"Aug 13th, 2014","Image":"default-onfarmmarket-4-3.jpg","ListingID":"700164","Name":"Fresh Whole Rabbit","Description":null,"ContactName":"Catalaya\\'s Rabbitry","ContactEmail":"catalayarabbitry@yahoo.com","ContactPhone":"989-400-2407","Website":"www.catalayarabbitry.weebly.com","Facebook":"https:\/\/www.facebook.com\/catalayasrabbitry","Twitter":null,"Instagram":null,"Pinterest":null,"Youtube":null,"Blog":null,"Address":"Friesian Lane, Lakeview, Michigan 48850","State":"Michigan","City":"Lakeview","Street":"Friesian Lane","Zip":"48850","Longitude":"-85.253005","Latitude":"43.349196","Dates":null,"Products":""},{"Type":"on-farm market","ModifyDate":"Aug 15th, 2014","Image":"default-onfarmmarket-4-3.jpg","ListingID":"700646","Name":"Nye's Apple Barn and Farms","Description":null,"ContactName":"Angela Thompson","ContactEmail":"nyesapplebarn@hotmail.com","ContactPhone":"(269) 429-0596","Website":"www.nyesapplebarn.com","Facebook":"www.facebook.com\/NyesAppleBarn","Twitter":null,"Instagram":null,"Pinterest":null,"Youtube":null,"Blog":null,"Address":"3151 Niles Avenue (M63), Saint Joseph, Michigan 49085","State":"Michigan","City":"Saint Joseph","Street":"3151 Niles Avenue (M63)","Zip":"49085","Longitude":"-86.459915","Latitude":"42.060280","Dates":null,"Products":""},{"Type":"on-farm market","ModifyDate":"Aug 15th, 2014","Image":"default-onfarmmarket-4-3.jpg","ListingID":"700783","Name":"Friends Farm","Description":null,"ContactName":"Mark Mortenson","ContactEmail":"friendsministry@yahoo.com","ContactPhone":"231-839-8816","Website":"friendsministry.net","Facebook":"https:\/\/www.facebook.com\/FriendsMinistryLC","Twitter":null,"Instagram":null,"Pinterest":null,"Youtube":null,"Blog":null,"Address":"3728 S. Morey Road, Lake City, Michigan 49651","State":"Michigan","City":"Lake City","Street":"3728 S. Morey Road","Zip":"49651","Longitude":"-85.215038","Latitude":"44.2847493","Dates":null,"Products":""},{"Type":"on-farm market","ModifyDate":"Aug 15th, 2014","Image":"default-onfarmmarket-4-3.jpg","ListingID":"700843","Name":"Tomac Pumpkins and Farm Market","Description":null,"ContactName":"Pennie Tomac","ContactEmail":"Tomacfarms@juno.com","ContactPhone":"989-845-2792","Website":null,"Facebook":null,"Twitter":null,"Instagram":null,"Pinterest":null,"Youtube":null,"Blog":null,"Address":"19758 S Corunna Road, Chesaning, Michigan 48616","State":"Michigan","City":"Chesaning","Street":"19758 S Corunna Road","Zip":"48616","Longitude":"-84.114169","Latitude":"43.1322360","Dates":null,"Products":""},{"Type":"on-farm market","ModifyDate":"Aug 18th, 2014","Image":"default-onfarmmarket-4-3.jpg","ListingID":"700541","Name":"Dutch Farm Market","Description":null,"ContactName":"Barb Raak","ContactEmail":"braak@shps.org","ContactPhone":"269-806-8154","Website":null,"Facebook":"https:\/\/www.facebook.com\/pages\/Dutch-Farm-Market\/270598596340448","Twitter":null,"Instagram":null,"Pinterest":null,"Youtube":null,"Blog":null,"Address":"6967 109th Avenue, South Haven, Michigan 49090","State":"Michigan","City":"South Haven","Street":"6967 109th Avenue","Zip":"49090","Longitude":"-86.224747","Latitude":"42.4838629","Dates":null,"Products":""},{"Type":"on-farm market","ModifyDate":"Aug 19th, 2014","Image":"default-onfarmmarket-4-3.jpg","ListingID":"700424","Name":"Woodland Enterprises Inc.","Description":null,"ContactName":null,"ContactEmail":"woodlandberries@gmail.com","ContactPhone":"616-875-8853","Website":"www.woodlandberries.com","Facebook":null,"Twitter":null,"Instagram":null,"Pinterest":null,"Youtube":null,"Blog":null,"Address":"10821 Pierce Street, Zeeland, Michigan 49464","State":"Michigan","City":"Zeeland","Street":"10821 Pierce Street","Zip":"49464","Longitude":"-86.048985","Latitude":"42.957257","Dates":null,"Products":""},{"Type":"on-farm market","ModifyDate":"Aug 21st, 2014","Image":"default-onfarmmarket-4-3.jpg","ListingID":"700751","Name":"Mitchell Farm","Description":null,"ContactName":"Glen Mitchell","ContactEmail":"hollytaxcenter@yahoo.com","ContactPhone":"248-935-8328","Website":"www.mitchellfarm.biz","Facebook":null,"Twitter":null,"Instagram":null,"Pinterest":null,"Youtube":null,"Blog":null,"Address":"3404 Mitchell Road, Holly, Michigan 48442","State":"Michigan","City":"Holly","Street":"3404 Mitchell Road","Zip":"48442","Longitude":"-83.630219","Latitude":"42.849441","Dates":null,"Products":""},{"Type":"on-farm market","ModifyDate":"Aug 23rd, 2014","Image":"default-onfarmmarket-4-3.jpg","ListingID":"700904","Name":"Windswept Farm","Description":null,"ContactName":"Jeanne Weaver","ContactEmail":"weaver3@tds.net","ContactPhone":"517-468-2246","Website":null,"Facebook":null,"Twitter":null,"Instagram":null,"Pinterest":null,"Youtube":null,"Blog":null,"Address":"3649 E Sherwood Rd, Williamston, Michigan 48895","State":"Michigan","City":"Williamston","Street":"3649 E Sherwood Rd","Zip":"48895","Longitude":"-84.226917","Latitude":"42.7171210","Dates":null,"Products":""},{"Type":"on-farm market","ModifyDate":"Aug 24th, 2014","Image":"default-onfarmmarket-4-3.jpg","ListingID":"700916","Name":"Brandywine Farm Nursery","Description":null,"ContactName":"Kimberly Pearson","ContactEmail":"brandywinefarm@gmail.com","ContactPhone":"5863377480","Website":"brandywinefarmnursery.com","Facebook":"https:\/\/www.facebook.com\/BrandywineFarmNursery","Twitter":null,"Instagram":null,"Pinterest":null,"Youtube":null,"Blog":"http:\/\/www.brandywinefarmnursery.blogspot.com\/","Address":"5885 Lake George Rd, Dryden, Michigan 48428","State":"Michigan","City":"Dryden","Street":"5885 Lake George Rd","Zip":"48428","Longitude":"-83.181137","Latitude":"42.890544","Dates":null,"Products":""},{"Type":"on-farm market","ModifyDate":"Aug 25th, 2014","Image":"default-onfarmmarket-4-3.jpg","ListingID":"700929","Name":"tanstaafl farmstead","Description":null,"ContactName":"john reuter","ContactEmail":"tanstaafl_farmstead@yahoo.com","ContactPhone":"269 7797985","Website":null,"Facebook":null,"Twitter":null,"Instagram":null,"Pinterest":null,"Youtube":null,"Blog":null,"Address":"39227 fisk lake road, paw apw, Michigan 49079","State":"Michigan","City":"paw apw","Street":"39227 fisk lake road","Zip":"49079","Longitude":"-86.018937","Latitude":"42.2512872","Dates":null,"Products":""},{"Type":"on-farm market","ModifyDate":"Aug 25th, 2014","Image":"default-onfarmmarket-4-3.jpg","ListingID":"700933","Name":"Whitfield's Raw Honey","Description":null,"ContactName":"Bryan Whitfield","ContactEmail":"bryanaw40@aol.com","ContactPhone":"248-535-8967","Website":"wwww.simplyrawhoney.com","Facebook":null,"Twitter":null,"Instagram":null,"Pinterest":null,"Youtube":null,"Blog":null,"Address":"9235 Windemere Court, Clarkston, Michigan 48348","State":"Michigan","City":"Clarkston","Street":"9235 Windemere Court","Zip":"48348","Longitude":"-83.472444","Latitude":"42.7733080","Dates":null,"Products":""},{"Type":"on-farm market","ModifyDate":"Aug 26th, 2014","Image":"default-onfarmmarket-4-3.jpg","ListingID":"700560","Name":"Shangrila Too","Description":null,"ContactName":null,"ContactEmail":"santucci.louis@gmail.com","ContactPhone":"231-499-0106","Website":null,"Facebook":null,"Twitter":null,"Instagram":null,"Pinterest":null,"Youtube":null,"Blog":null,"Address":"12602 Center Road, Traverse City, Michigan 49686","State":"Michigan","City":"Traverse City","Street":"12602 Center Road","Zip":"49686","Longitude":"-85.515246","Latitude":"44.8701943","Dates":null,"Products":""},{"Type":"on-farm market","ModifyDate":"Aug 26th, 2014","Image":"default-onfarmmarket-4-3.jpg","ListingID":"700692","Name":"KlineKrest Certified Organic Produce","Description":null,"ContactName":"Larry Kline","ContactEmail":"LarryEKlines@gmail.com","ContactPhone":"616-902-1587","Website":"http:\/\/www.klinekrestcertifiedorganicproduce.com\/","Facebook":null,"Twitter":null,"Instagram":null,"Pinterest":null,"Youtube":null,"Blog":null,"Address":"1067 Somer Road, Lyons, Michigan 48851","State":"Michigan","City":"Lyons","Street":"1067 Somer Road","Zip":"48851","Longitude":"-84.980334","Latitude":"42.972623","Dates":null,"Products":""},{"Type":"on-farm market","ModifyDate":"Aug 26th, 2014","Image":"default-onfarmmarket-4-3.jpg","ListingID":"700953","Name":"Clor's Greenhouse","Description":null,"ContactName":"Tony Clor","ContactEmail":"agclor@comcast.net","ContactPhone":null,"Website":null,"Facebook":null,"Twitter":null,"Instagram":null,"Pinterest":null,"Youtube":null,"Blog":null,"Address":"3000 Brown Lane, Highland, Michigan 48357","State":"Michigan","City":"Highland","Street":"3000 Brown Lane","Zip":"48357","Longitude":"-83.662443","Latitude":"42.661046","Dates":null,"Products":""},{"Type":"on-farm market","ModifyDate":"Aug 26th, 2021","Image":"default-onfarmmarket-4-3.jpg","ListingID":"701611","Name":"Genuine Roots Farm","Description":null,"ContactName":"Genuine Roots Farm","ContactEmail":"jeff.scott58@me.com","ContactPhone":"734-846-3833","Website":"www.GenuineRootsFarm.com","Facebook":"https:\/\/www.facebook.com\/genuinerootsfarm","Twitter":null,"Instagram":null,"Pinterest":null,"Youtube":null,"Blog":null,"Address":"10371 Parshall Rd., Fenton, Michigan 48430","State":"Michigan","City":"Fenton","Street":"10371 Parshall Rd.","Zip":"48430","Longitude":"-83.746991","Latitude":"42.693661","Dates":null,"Products":""},{"Type":"on-farm market","ModifyDate":"Aug 27th, 2014","Image":"default-onfarmmarket-4-3.jpg","ListingID":"700964","Name":"Homestead Honey Farm","Description":null,"ContactName":"Joe","ContactEmail":null,"ContactPhone":null,"Website":null,"Facebook":"https:\/\/www.facebook.com\/HomesteadHoneyFarm","Twitter":null,"Instagram":null,"Pinterest":null,"Youtube":null,"Blog":null,"Address":"175 Olsen Rd, Gwinn , Michigan 49841","State":"Michigan","City":"Gwinn","Street":"175 Olsen Rd","Zip":"49841","Longitude":"-87.398745","Latitude":"46.405359","Dates":null,"Products":""},{"Type":"on-farm market","ModifyDate":"Aug 28th, 2014","Image":"default-onfarmmarket-4-3.jpg","ListingID":"700098","Name":"New Mission Organics","Description":null,"ContactName":"Brian Tennis","ContactEmail":"brian@newmissionorganics.com","ContactPhone":"616-403-6880","Website":"http:\/\/www.newmissionorganics.com\/","Facebook":"https:\/\/www.facebook.com\/MI.Hop.Alliance","Twitter":"https:\/\/www.twitter.com\/michiganhops","Instagram":null,"Pinterest":null,"Youtube":null,"Blog":null,"Address":"5790 N. Omena Rise, Omena, Michigan 49674","State":"Michigan","City":"Omena","Street":"5790 N. Omena Rise","Zip":"49674","Longitude":"-85.600037","Latitude":"45.069524","Dates":null,"Products":""},{"Type":"on-farm market","ModifyDate":"Aug 28th, 2014","Image":"default-onfarmmarket-4-3.jpg","ListingID":"700463","Name":"The Extraordinary Berry","Description":null,"ContactName":"Charles McCallum","ContactEmail":"Theextraordinaryberry@hotmail.com","ContactPhone":"269-470-4645","Website":"Theextraordinaryberry.com","Facebook":"https:\/\/www.facebook.com\/pages\/The-Extraordinary-Berry\/228277483856012","Twitter":null,"Instagram":null,"Pinterest":null,"Youtube":null,"Blog":null,"Address":"3091 Riverside Road, Benton Harbor, Michigan 49022","State":"Michigan","City":"Benton Harbor","Street":"3091 Riverside Road","Zip":"49022","Longitude":"-86.397710","Latitude":"42.167229","Dates":null,"Products":""},{"Type":"on-farm market","ModifyDate":"Aug 29th, 2014","Image":"default-onfarmmarket-4-3.jpg","ListingID":"700175","Name":"Battel's Sugar Bush and Heritage Farm","Description":null,"ContactName":"Sue Stuever Battel","ContactEmail":"BattelSyrup@gmail.com","ContactPhone":"989-872-4794","Website":"www.battelsyrup.weebly.com","Facebook":"https:\/\/www.facebook.com\/battelsyrup","Twitter":null,"Instagram":null,"Pinterest":null,"Youtube":null,"Blog":null,"Address":"7964 Daus Rd., Cass City, Michigan 48726","State":"Michigan","City":"Cass City","Street":"7964 Daus Rd.","Zip":"48726","Longitude":"-83.118298","Latitude":"43.645862","Dates":null,"Products":""},{"Type":"on-farm market","ModifyDate":"Aug 29th, 2014","Image":"default-onfarmmarket-4-3.jpg","ListingID":"700733","Name":"Lewis Farm Market & Petting Farm","Description":null,"ContactName":"Char","ContactEmail":"info@LewisFarmMarket.com","ContactPhone":"231-861-5730","Website":"http:\/\/lewisfarmmarket.com\/","Facebook":"https:\/\/www.facebook.com\/LewisFarmMarket","Twitter":null,"Instagram":null,"Pinterest":null,"Youtube":null,"Blog":"http:\/\/lewisfarmmarket.com\/category\/blog\/","Address":"4180 W. M-20 (stony Lake Road), New Era, Michigan 49446","State":"Michigan","City":"New Era","Street":"4180 W. M-20 (stony Lake Road)","Zip":"49446","Longitude":"-86.388669","Latitude":"43.558496","Dates":null,"Products":""},{"Type":"on-farm market","ModifyDate":"Aug 2nd, 2014","Image":"default-onfarmmarket-4-3.jpg","ListingID":"700583","Name":"Vertical Paradise Farms","Description":null,"ContactName":"Dan Maslach","ContactEmail":"questions@vpfarms.com","ContactPhone":"5863508672","Website":"www.vpfarms.com","Facebook":"www.facebook.com\/vpfarms","Twitter":null,"Instagram":null,"Pinterest":null,"Youtube":null,"Blog":null,"Address":"7344 Hammond Ave., Caledonia, Michigan 49316","State":"Michigan","City":"Caledonia","Street":"7344 Hammond Ave.","Zip":"49316","Longitude":"-85.575253","Latitude":"42.8309000","Dates":null,"Products":""},{"Type":"on-farm market","ModifyDate":"Aug 30th, 2014","Image":"default-onfarmmarket-4-3.jpg","ListingID":"700994","Name":"Pleasant Hill Farm","Description":null,"ContactName":"Joan Donaldson","ContactEmail":"sparrow3337@gmail.com","ContactPhone":"269-5612850","Website":"http:\/\/www.pleasanthillblueberryfarm.com\/","Facebook":"https:\/\/www.facebook.com\/pages\/Pleasant-Hill-Farm\/82478554686?ref=hl","Twitter":null,"Instagram":null,"Pinterest":null,"Youtube":null,"Blog":"http:\/\/www.joandonaldson.com\/blog\/","Address":"5859 124th Ave., Fennville, Michigan 49408","State":"Michigan","City":"Fennville","Street":"5859 124th Ave.","Zip":"49408","Longitude":"-86.119885","Latitude":"42.5942229","Dates":null,"Products":""},{"Type":"on-farm market","ModifyDate":"Aug 4th, 2014","Image":"default-onfarmmarket-4-3.jpg","ListingID":"700433","Name":"Brookwood Fruit Farm","Description":null,"ContactName":"Charles Bristol","ContactEmail":"will_bristol@hotmail.com","ContactPhone":"810-798-8312","Website":"www.brookwoodfruitfarm.com","Facebook":"http:\/\/www.facebook.com\/pages\/Brookwood-Fruit-Farm\/109942475759366","Twitter":null,"Instagram":null,"Pinterest":null,"Youtube":null,"Blog":null,"Address":"7845 Bordman Road, Almont, Michigan 48003","State":"Michigan","City":"Almont","Street":"7845 Bordman Road","Zip":"48003","Longitude":"-83.029178","Latitude":"42.890456","Dates":null,"Products":""},{"Type":"on-farm market","ModifyDate":"Aug 5th, 2014","Image":"default-onfarmmarket-4-3.jpg","ListingID":"700804","Name":"FlowerEssence of Blue Barn Farm","Description":null,"ContactName":"Marlene Ann Epley","ContactEmail":"floweressence@tds.net","ContactPhone":"517-468-2343","Website":null,"Facebook":"https:\/\/www.facebook.com\/FlowerEssenceLlcAndBlueBarnFarmMarket?ref=hl","Twitter":null,"Instagram":null,"Pinterest":null,"Youtube":null,"Blog":null,"Address":"4295 Moyer Road, Williamston, Michigan 48895","State":"Michigan","City":"Williamston","Street":"4295 Moyer Road","Zip":"48895","Longitude":"-84.200089","Latitude":"42.7082229","Dates":null,"Products":""},{"Type":"on-farm market","ModifyDate":"Aug 5th, 2014","Image":"default-onfarmmarket-4-3.jpg","ListingID":"700810","Name":"deBerry Shack","Description":null,"ContactName":"Dave Van Farowe","ContactEmail":"deberriesfarms@gmail.com","ContactPhone":"616-795-5100","Website":null,"Facebook":"www.facebook.com\/deBerryShack","Twitter":null,"Instagram":null,"Pinterest":null,"Youtube":null,"Blog":null,"Address":"14475 Quincy Street, Holland, Michigan 49424","State":"Michigan","City":"Holland","Street":"14475 Quincy Street","Zip":"49424","Longitude":"-86.139603","Latitude":"42.8411303","Dates":null,"Products":""},{"Type":"on-farm market","ModifyDate":"Aug 6th, 2014","Image":"default-onfarmmarket-4-3.jpg","ListingID":"700574","Name":"Riverbend Farms","Description":null,"ContactName":"Ryan Morgan","ContactEmail":"riverbend@i2k.com","ContactPhone":"269-214-8867","Website":"greatberries.net","Facebook":null,"Twitter":null,"Instagram":null,"Pinterest":null,"Youtube":null,"Blog":null,"Address":"44 72nd Street, South Haven, Michigan 49090","State":"Michigan","City":"South Haven","Street":"44 72nd Street","Zip":"49090","Longitude":"-86.246094","Latitude":"42.4254424","Dates":null,"Products":""},{"Type":"on-farm market","ModifyDate":"Dec 16th, 2014","Image":"default-onfarmmarket-4-3.jpg","ListingID":"701181","Name":"Klackle Orchards","Description":null,"ContactName":"Natalie Klackle","ContactEmail":"apples@klackleorchards.net","ContactPhone":"616-754-8632","Website":"www.klackleorchards.com","Facebook":"www.facebook.com\/klackleorchards","Twitter":"www.twitter.com\/klackleorchards","Instagram":null,"Pinterest":null,"Youtube":null,"Blog":"www.klackleorchards.com\/blog\/","Address":"11466 W Carson City Rd., Greenville, Michigan 48838","State":"Michigan","City":"Greenville","Street":"11466 W Carson City Rd.","Zip":"48838","Longitude":"-85.297866","Latitude":"43.177077","Dates":null,"Products":""},{"Type":"on-farm market","ModifyDate":"Feb 12th, 2015","Image":"default-onfarmmarket-4-3.jpg","ListingID":"701209","Name":"Honor Box Produce by Crawford Farms","Description":null,"ContactName":"Joe Crawford","ContactEmail":"joecrawfordonline@gmail.com","ContactPhone":"989-284-8251","Website":"http:\/\/www.MichiganFarmFreshProduce.com","Facebook":"https:\/\/www.facebook.com\/MichiganFarmMarket","Twitter":null,"Instagram":null,"Pinterest":null,"Youtube":null,"Blog":null,"Address":", Clare, Michigan 48617","State":"Michigan","City":"Clare","Street":null,"Zip":"48617","Longitude":"-84.768971","Latitude":"43.851510","Dates":null,"Products":""},{"Type":"on-farm market","ModifyDate":"Feb 14th, 2016","Image":"default-onfarmmarket-4-3.jpg","ListingID":"701317","Name":"Wasem Fruit Farm, LLC","Description":null,"ContactName":"Bruce Upston","ContactEmail":"wasem@wasemfruitfarm.com","ContactPhone":"7344822342","Website":"www.wasemfruitfarm.com","Facebook":"www.facebook.com\/pages\/Wasem-Fruit-Farm\/255034514021","Twitter":null,"Instagram":null,"Pinterest":null,"Youtube":null,"Blog":null,"Address":"6580 Judd Rd, Milan, Michigan 48160","State":"Michigan","City":"Milan","Street":"6580 Judd Rd","Zip":"48160","Longitude":"-83.626685","Latitude":"42.140496","Dates":null,"Products":""},{"Type":"on-farm market","ModifyDate":"Feb 19th, 2022","Image":"default-onfarmmarket-4-3.jpg","ListingID":"701637","Name":"Berry Brothers Retail","Description":null,"ContactName":"Heidi Keister","ContactEmail":"heidi@walkerbb.com","ContactPhone":"269-657-3871","Website":"https:\/\/www.berrybrothersretail.com\/","Facebook":"https:\/\/www.facebook.com\/Berry-Brothers-Retail-105317065091600","Twitter":null,"Instagram":null,"Pinterest":null,"Youtube":null,"Blog":null,"Address":"37146 30th Street, Paw Paw, Michigan 49079","State":"Michigan","City":"Paw Paw","Street":"37146 30th Street","Zip":"49079","Longitude":"-85.892177","Latitude":"42.214235","Dates":null,"Products":""},{"Type":"on-farm market","ModifyDate":"Feb 25th, 2015","Image":"default-onfarmmarket-4-3.jpg","ListingID":"701217","Name":"Wells Orchards","Description":null,"ContactName":null,"ContactEmail":"wellsorchards@gmail.com","ContactPhone":"616 453-3927","Website":"www.wellsorchards.com","Facebook":"https:\/\/www.facebook.com\/pages\/Wells-Orchards\/122028811170560?ref=ts","Twitter":null,"Instagram":null,"Pinterest":null,"Youtube":null,"Blog":null,"Address":"O-8993 Kenowa Ave SW, Grand Rapids, Michigan 49534","State":"Michigan","City":"Grand Rapids","Street":"O-8993 Kenowa Ave SW","Zip":"49534","Longitude":"-85.783388","Latitude":"42.932177","Dates":null,"Products":""},{"Type":"on-farm market","ModifyDate":"Feb 5th, 2015","Image":"default-onfarmmarket-4-3.jpg","ListingID":"701205","Name":"Maia Organics","Description":null,"ContactName":"Phyllis Shilling","ContactEmail":"phyllisjshilling@gmail.com","ContactPhone":"616 255 5919","Website":null,"Facebook":null,"Twitter":null,"Instagram":null,"Pinterest":null,"Youtube":null,"Blog":null,"Address":", sidney, Michigan","State":"Michigan","City":"sidney","Street":null,"Zip":null,"Longitude":"-85.193087","Latitude":"43.257295","Dates":null,"Products":""},{"Type":"on-farm market","ModifyDate":"Feb 8th, 2021","Image":"default-onfarmmarket-4-3.jpg","ListingID":"701581","Name":"Peace Tree Parks","Description":null,"ContactName":"Eric Andrews","ContactEmail":"info@peacetreeparks.org","ContactPhone":"3132820135","Website":"www.PeaceTreeParks.org","Facebook":"https:\/\/www.facebook.com\/peacetreeparks\/","Twitter":null,"Instagram":null,"Pinterest":null,"Youtube":null,"Blog":null,"Address":"3409 E Vernor, Detroit, Michigan 48207","State":"Michigan","City":"Detroit","Street":"3409 E Vernor","Zip":"48207","Longitude":"-83.102237","Latitude":"42.383037","Dates":null,"Products":""},{"Type":"on-farm market","ModifyDate":"Jan 1st, 2015","Image":"default-onfarmmarket-4-3.jpg","ListingID":"701185","Name":"Goodrich Acres","Description":null,"ContactName":"R. Darlene Drwal","ContactEmail":"rddrwal@yahoo.com","ContactPhone":"810 429-2223","Website":null,"Facebook":null,"Twitter":null,"Instagram":null,"Pinterest":null,"Youtube":null,"Blog":null,"Address":"8416 Gale Rd, Goodrich, Michigan 48438","State":"Michigan","City":"Goodrich","Street":"8416 Gale Rd","Zip":"48438","Longitude":"-83.534492","Latitude":"42.906654","Dates":null,"Products":""},{"Type":"on-farm market","ModifyDate":"Jan 28th, 2015","Image":"default-onfarmmarket-4-3.jpg","ListingID":"701199","Name":"Creswick Farms","Description":null,"ContactName":"Andrea & Nathan Creswick","ContactEmail":"contactus@creswickfarms.com","ContactPhone":"616\/837-9226","Website":"www.CreswickFarms.com","Facebook":"https:\/\/www.facebook.com\/CreswickFarms","Twitter":null,"Instagram":null,"Pinterest":null,"Youtube":null,"Blog":null,"Address":"6500 Rollenhagen Rd, Ravenna, Michigan 49451","State":"Michigan","City":"Ravenna","Street":"6500 Rollenhagen Rd","Zip":"49451","Longitude":"-85.994367","Latitude":"43.134669","Dates":null,"Products":""},{"Type":"on-farm market","ModifyDate":"Jan 30th, 2017","Image":"default-onfarmmarket-4-3.jpg","ListingID":"701385","Name":"English Orchards & Family Farm","Description":null,"ContactName":"Jamess English","ContactEmail":"teacher99_2000@yahoo.com","ContactPhone":"989-858-0972","Website":null,"Facebook":null,"Twitter":null,"Instagram":null,"Pinterest":null,"Youtube":null,"Blog":null,"Address":"302 Thumb Lake Rd, Vanderbilt, Michigan 49795","State":"Michigan","City":"Vanderbilt","Street":"302 Thumb Lake Rd","Zip":"49795","Longitude":"-84.680748","Latitude":"45.186933","Dates":null,"Products":""},{"Type":"on-farm market","ModifyDate":"Jan 31st, 2017","Image":"default-onfarmmarket-4-3.jpg","ListingID":"701387","Name":"Salad Central","Description":null,"ContactName":"Mark Schoonover","ContactEmail":"bearcats7@sbcglobal.net","ContactPhone":"6163752693","Website":null,"Facebook":"Salad Central","Twitter":null,"Instagram":null,"Pinterest":null,"Youtube":null,"Blog":null,"Address":"4763 Baldwin St, Hudsonville, Michigan 49426","State":"Michigan","City":"Hudsonville","Street":"4763 Baldwin St","Zip":"49426","Longitude":"-85.900775","Latitude":"42.907060","Dates":null,"Products":""},{"Type":"on-farm market","ModifyDate":"Jan 8th, 2020","Image":"default-onfarmmarket-4-3.jpg","ListingID":"701497","Name":"Frontier Farms","Description":null,"ContactName":"Laurie Hunter","ContactEmail":"michiganfrontierfarms@hotmail.com","ContactPhone":"970-729-6252","Website":"michiganfrontierfarms.com","Facebook":null,"Twitter":null,"Instagram":null,"Pinterest":null,"Youtube":null,"Blog":null,"Address":"2073 S M 65, Whittemore, Michigan 48770","State":"Michigan","City":"Whittemore","Street":"2073 S M 65","Zip":"48770","Longitude":"-83.802520","Latitude":"44.216309","Dates":null,"Products":""},{"Type":"on-farm market","ModifyDate":"Jul 12th, 2015","Image":"default-onfarmmarket-4-3.jpg","ListingID":"701283","Name":"Beery Farms of Michigan LLC","Description":null,"ContactName":"Maynard Beery","ContactEmail":"beeryfarm@aol.com","ContactPhone":"517-676-4686","Website":null,"Facebook":null,"Twitter":null,"Instagram":null,"Pinterest":null,"Youtube":null,"Blog":null,"Address":"849 N. Aurelius Road, Mason, Michigan 48854","State":"Michigan","City":"Mason","Street":"849 N. Aurelius Road","Zip":"48854","Longitude":"-84.526718","Latitude":"42.6017140","Dates":null,"Products":""},{"Type":"on-farm market","ModifyDate":"Jul 26th, 2014","Image":"default-onfarmmarket-4-3.jpg","ListingID":"700334","Name":"K's Acres - A North Sand Lake Fruit and Berry Farm","Description":null,"ContactName":"Tom","ContactEmail":"Hllsdltom@aol.com","ContactPhone":"517-437-7054","Website":"K\\'s Acres@facebook.com","Facebook":"https:\/\/www.facebook.com\/pages\/Ks-Acres-Orchard-A-North-Sand-lake-Fruit-and-Berry-farm\/147653817831","Twitter":null,"Instagram":null,"Pinterest":null,"Youtube":null,"Blog":null,"Address":"4680 Fitzpatrick Rd, Hillsdale, Michigan 49242","State":"Michigan","City":"Hillsdale","Street":"4680 Fitzpatrick Rd","Zip":"49242","Longitude":"-84.701342","Latitude":"41.944006","Dates":null,"Products":""},{"Type":"on-farm market","ModifyDate":"Jul 26th, 2014","Image":"default-onfarmmarket-4-3.jpg","ListingID":"700378","Name":"Coveyou Scenic Farm Market","Description":null,"ContactName":"David Coveyou","ContactEmail":"coveyoufarm@gmail.com","ContactPhone":"231-348-1278","Website":"coveyouscenicfarm.com","Facebook":"https:\/\/www.facebook.com\/pages\/Coveyou-Scenic-Farm-Market\/362874771540","Twitter":null,"Instagram":null,"Pinterest":null,"Youtube":null,"Blog":null,"Address":"4160 US131 South, Petoskey, Michigan 49770","State":"Michigan","City":"Petoskey","Street":"4160 US131 South","Zip":"49770","Longitude":"-84.966729","Latitude":"45.317777","Dates":null,"Products":""},{"Type":"on-farm market","ModifyDate":"Jul 26th, 2014","Image":"default-onfarmmarket-4-3.jpg","ListingID":"700498","Name":"Black Star Farms","Description":null,"ContactName":"Donald Coe","ContactEmail":"dcoe@blackstarfarms.com","ContactPhone":"231-944-1297q","Website":"www.blackstarfarms.com","Facebook":null,"Twitter":null,"Instagram":null,"Pinterest":null,"Youtube":null,"Blog":null,"Address":"10844 E Revold Road, Suttons Bay, Michigan 49682","State":"Michigan","City":"Suttons Bay","Street":"10844 E Revold Road","Zip":"49682","Longitude":"-85.637741","Latitude":"44.940501","Dates":null,"Products":""},{"Type":"on-farm market","ModifyDate":"Jul 27th, 2014","Image":"default-onfarmmarket-4-3.jpg","ListingID":"700039","Name":"Shady Side Farm","Description":null,"ContactName":"Mike Bronkema","ContactEmail":"shadysidefarmmichigan@gmail.com","ContactPhone":"616-786-3827","Website":"http:\/\/www.shadysidefarm.com","Facebook":"https:\/\/www.facebook.com\/shadysidefarm","Twitter":null,"Instagram":null,"Pinterest":null,"Youtube":null,"Blog":"http:\/\/www.shadysidefarm.blogspot.com","Address":"13275 Blair Street, Holland, Michigan 49424","State":"Michigan","City":"Holland","Street":"13275 Blair Street","Zip":"49424","Longitude":"-86.111787","Latitude":"42.892902","Dates":null,"Products":""},{"Type":"on-farm market","ModifyDate":"Jul 27th, 2014","Image":"default-onfarmmarket-4-3.jpg","ListingID":"700064","Name":"Phillips Orchards & Cider Mill","Description":null,"ContactName":"Brian Phillips","ContactEmail":"brian.phillips@phillipsorchards.com","ContactPhone":"989-682-4430","Website":"www.phillipsorchards.com","Facebook":"https:\/\/www.facebook.com\/PhillipsOrchards","Twitter":"https:\/\/twitter.com\/phillipsorchard","Instagram":null,"Pinterest":null,"Youtube":null,"Blog":null,"Address":"1174 W Gratiot County Line Rd, Saint Johns, Michigan 48879","State":"Michigan","City":"Saint Johns","Street":"1174 W Gratiot County Line Rd","Zip":"48879","Longitude":"-84.622316","Latitude":"43.117405","Dates":null,"Products":""},{"Type":"on-farm market","ModifyDate":"Jul 27th, 2014","Image":"default-onfarmmarket-4-3.jpg","ListingID":"700088","Name":"Origins Hobby Farm","Description":null,"ContactName":"Kathleen Nestell","ContactEmail":"Kathy@originshobbyfarm.com","ContactPhone":"616-717-8651","Website":"Www.orriginshobbyfarm.com","Facebook":"https:\/\/www.facebook.com\/originshobbyfarm","Twitter":"https:\/\/www.twitter.com\/originshf","Instagram":null,"Pinterest":null,"Youtube":null,"Blog":"www.originshobbyfarm.com\/blog.html","Address":"6110 Robertson Rd, Middleville, Michigan 49333","State":"Michigan","City":"Middleville","Street":"6110 Robertson Rd","Zip":"49333","Longitude":"-85.427445","Latitude":"42.7417363","Dates":null,"Products":""},{"Type":"on-farm market","ModifyDate":"Jul 27th, 2014","Image":"default-onfarmmarket-4-3.jpg","ListingID":"700136","Name":"Good Land Growers","Description":null,"ContactName":"Gail Rivera","ContactEmail":"glg@goodlandgrowers.com","ContactPhone":"616-947-0038","Website":"Http:\/\/www.goodlandgrowers.com","Facebook":"https:\/\/www.facebook.com\/GoodLandGrowers","Twitter":null,"Instagram":null,"Pinterest":null,"Youtube":null,"Blog":null,"Address":"11901 South Greenville Rd, Greenville, Michigan 48838","State":"Michigan","City":"Greenville","Street":"11901 South Greenville Rd","Zip":"48838","Longitude":"-85.263034","Latitude":"43.1209267","Dates":null,"Products":""},{"Type":"on-farm market","ModifyDate":"Jul 27th, 2014","Image":"default-onfarmmarket-4-3.jpg","ListingID":"700362","Name":"Maria & David Huff Farm Products","Description":null,"ContactName":"Maria Huff","ContactEmail":"farm_fresh_produced@yahoo.com","ContactPhone":"2488429252","Website":null,"Facebook":"https:\/\/m.facebook.com\/profile.php?id=222802057812310&ref=bookmark","Twitter":null,"Instagram":null,"Pinterest":null,"Youtube":null,"Blog":null,"Address":"1460 W Wardlow Rd, Highland, Michigan 48357","State":"Michigan","City":"Highland","Street":"1460 W Wardlow Rd","Zip":"48357","Longitude":"-83.635653","Latitude":"42.6555660","Dates":null,"Products":""},{"Type":"on-farm market","ModifyDate":"Jul 27th, 2014","Image":"default-onfarmmarket-4-3.jpg","ListingID":"700364","Name":"Evergreen Lane Farm & Creamery","Description":null,"ContactName":"Catherine Halinski","ContactEmail":"evergreenlanefarm@gmail.com","ContactPhone":"269-543-9900","Website":"www.evergreenlanefarm.com","Facebook":"www.Facebook.com\/EvergreenLaneArtisanCheese","Twitter":null,"Instagram":null,"Pinterest":null,"Youtube":null,"Blog":null,"Address":"1824 66th St., Fennville, Michigan 49408","State":"Michigan","City":"Fennville","Street":"1824 66th St.","Zip":"49408","Longitude":"-86.189254","Latitude":"42.5511441","Dates":null,"Products":""},{"Type":"on-farm market","ModifyDate":"Jul 27th, 2014","Image":"default-onfarmmarket-4-3.jpg","ListingID":"700455","Name":"Adams Farms","Description":null,"ContactName":"Bill Adams","ContactEmail":"toquin1@myway.com","ContactPhone":"269 214 0873","Website":"www.facebook.com\/Adams.Blueberry.Farms","Facebook":"https:\/\/www.facebook.com\/Adams.Blueberry.Farms","Twitter":null,"Instagram":null,"Pinterest":null,"Youtube":null,"Blog":null,"Address":"69676 Cr376 (40th Ave), Hartford, Michigan 49057","State":"Michigan","City":"Hartford","Street":"69676 Cr376 (40th Ave)","Zip":"49057","Longitude":"-86.220746","Latitude":"42.257492","Dates":null,"Products":""},{"Type":"on-farm market","ModifyDate":"Jul 27th, 2014","Image":"default-onfarmmarket-4-3.jpg","ListingID":"700599","Name":"Peacock Road Family Farm","Description":null,"ContactName":"Ed and Diana Carpenter","ContactEmail":"info@peacockrff.com","ContactPhone":"517-651-9193","Website":"www.peacockrff.com","Facebook":"www.facebook.com\/peacockroadtreefarm","Twitter":null,"Instagram":null,"Pinterest":null,"Youtube":null,"Blog":null,"Address":"11854 Peacock Road, Laingsburg, Michigan 48848","State":"Michigan","City":"Laingsburg","Street":"11854 Peacock Road","Zip":"48848","Longitude":"-84.369377","Latitude":"42.844666","Dates":null,"Products":""},{"Type":"on-farm market","ModifyDate":"Jul 27th, 2014","Image":"default-onfarmmarket-4-3.jpg","ListingID":"700718","Name":"Ives Organics","Description":null,"ContactName":"Corey Ives","ContactEmail":"ivesorganics@gmail.com","ContactPhone":"2484698347","Website":null,"Facebook":"www.Facebook.com\/IvesOrganics","Twitter":null,"Instagram":null,"Pinterest":null,"Youtube":null,"Blog":null,"Address":"2060 Bladwin Road, Lapeer, Michigan 48446","State":"Michigan","City":"Lapeer","Street":"2060 Bladwin Road","Zip":"48446","Longitude":"-83.340607","Latitude":"42.997927","Dates":null,"Products":""},{"Type":"on-farm market","ModifyDate":"Jul 28th, 2014","Image":"default-onfarmmarket-4-3.jpg","ListingID":"700003","Name":"Witamy Farm","Description":null,"ContactName":"Xania Payne","ContactEmail":"benandxania@witamyfarm.com","ContactPhone":"734-734-0611","Website":"www.witamyfarm.com","Facebook":"https:\/\/www.facebook.com\/witamy.farm","Twitter":null,"Instagram":null,"Pinterest":null,"Youtube":null,"Blog":null,"Address":"3230 Portage Rd N, Grass Lake, Michigan 49240","State":"Michigan","City":"Grass Lake","Street":"3230 Portage Rd N","Zip":"49240","Longitude":"-84.275871","Latitude":"42.282429","Dates":null,"Products":""},{"Type":"on-farm market","ModifyDate":"Jul 28th, 2014","Image":"default-onfarmmarket-4-3.jpg","ListingID":"700072","Name":"Schwalliers Country Basket","Description":null,"ContactName":"Justin Kolarik","ContactEmail":"apples@schwalliers.com","ContactPhone":"616-785-9896","Website":null,"Facebook":"https:\/\/www.facebook.com\/pages\/Schwalliers-Country-Basket\/57481257124","Twitter":null,"Instagram":null,"Pinterest":null,"Youtube":null,"Blog":null,"Address":"1185 9 Mile Rd. NW, Sparta, Michigan 49345","State":"Michigan","City":"Sparta","Street":"1185 9 Mile Rd. NW","Zip":"49345","Longitude":"-85.697411","Latitude":"43.101815","Dates":null,"Products":""},{"Type":"on-farm market","ModifyDate":"Jul 28th, 2014","Image":"default-onfarmmarket-4-3.jpg","ListingID":"700218","Name":"Swallowtail Farm","Description":null,"ContactName":"Anne Rauscher","ContactEmail":"swallowtailfarm@gmail.com","ContactPhone":"517-980-6634","Website":"http:\/\/www.swallowtailfarm.net\/","Facebook":"https:\/\/www.facebook.com\/pages\/Swallowtail-Farm\/299185864935?ref_type=bookmark","Twitter":null,"Instagram":null,"Pinterest":null,"Youtube":null,"Blog":"http:\/\/swallowtailfarm.blogspot.com\/","Address":"1633 Hagadorn Rd, Mason, Michigan 48854","State":"Michigan","City":"Mason","Street":"1633 Hagadorn Rd","Zip":"48854","Longitude":"-84.458512","Latitude":"42.6305369","Dates":null,"Products":""},{"Type":"on-farm market","ModifyDate":"Jul 28th, 2014","Image":"default-onfarmmarket-4-3.jpg","ListingID":"700611","Name":"Satterlee Small Fruits","Description":null,"ContactName":"David Satterlee","ContactEmail":"oliversam@frontier.com","ContactPhone":"231-861-2755","Website":null,"Facebook":null,"Twitter":null,"Instagram":null,"Pinterest":null,"Youtube":null,"Blog":null,"Address":"3056 West Buchanan, Shelby, Michigan 49455","State":"Michigan","City":"Shelby","Street":"3056 West Buchanan","Zip":"49455","Longitude":"-86.354240","Latitude":"43.6310020","Dates":null,"Products":""},{"Type":"on-farm market","ModifyDate":"Jul 28th, 2014","Image":"default-onfarmmarket-4-3.jpg","ListingID":"700701","Name":"Kastanu Farm","Description":null,"ContactName":"artur losse","ContactEmail":"kastanufarm@aol.com","ContactPhone":"231 264 6055","Website":"kastanufarm@aol.com","Facebook":null,"Twitter":null,"Instagram":null,"Pinterest":null,"Youtube":null,"Blog":null,"Address":"4781 Powell Road, Kewadin, Michigan 49648","State":"Michigan","City":"Kewadin","Street":"4781 Powell Road","Zip":"49648","Longitude":"-85.332570","Latitude":"44.961640","Dates":null,"Products":""},{"Type":"on-farm market","ModifyDate":"Jul 30th, 2014","Image":"default-onfarmmarket-4-3.jpg","ListingID":"700000","Name":"Zatkovich Pastures, LLC","Description":null,"ContactName":"Daniel Zatkovich","ContactEmail":"dan@zatkovichpastures.com","ContactPhone":"517-851-4352","Website":"http:\/\/www.zatkovichpastures.com","Facebook":"https:\/\/www.facebook.com\/ZatkovichPasturesLLC","Twitter":null,"Instagram":null,"Pinterest":null,"Youtube":null,"Blog":null,"Address":"17050 Kane Rd, Stockbridge, Michigan 49285","State":"Michigan","City":"Stockbridge","Street":"17050 Kane Rd","Zip":"49285","Longitude":"-84.143136","Latitude":"42.4932460","Dates":null,"Products":""},{"Type":"on-farm market","ModifyDate":"Jul 30th, 2014","Image":"default-onfarmmarket-4-3.jpg","ListingID":"700067","Name":"Brass Ring Beef","Description":null,"ContactName":"David Parks","ContactEmail":"dparks@parkscompanies.biz","ContactPhone":"248-765-7844","Website":"www.parksshowcattle.com","Facebook":"https:\/\/www.facebook.com\/brassringbeef","Twitter":null,"Instagram":null,"Pinterest":null,"Youtube":null,"Blog":null,"Address":"2883 Wilder Road, Metamora, Michigan 48083","State":"Michigan","City":"Metamora","Street":"2883 Wilder Road","Zip":"48083","Longitude":"-83.241356","Latitude":"42.9761288","Dates":null,"Products":""},{"Type":"on-farm market","ModifyDate":"Jul 30th, 2014","Image":"default-onfarmmarket-4-3.jpg","ListingID":"700118","Name":"Kaminski Farms Meats","Description":null,"ContactName":"Linda Kaminski","ContactEmail":"dlkfarm@sbcglobal.net","ContactPhone":"269-756-7457","Website":"www.kaminskifarmsmeats.com","Facebook":"https:\/\/www.facebook.com\/KaminskiFarmsMeatsKaminski","Twitter":null,"Instagram":null,"Pinterest":null,"Youtube":null,"Blog":null,"Address":"16682 Schwark Rd, Three Oaks, Michigan 49128","State":"Michigan","City":"Three Oaks","Street":"16682 Schwark Rd","Zip":"49128","Longitude":"-86.629591","Latitude":"41.8138326","Dates":null,"Products":""},{"Type":"on-farm market","ModifyDate":"Jul 30th, 2014","Image":"default-onfarmmarket-4-3.jpg","ListingID":"700226","Name":"Spartan Country Meats","Description":null,"ContactName":"Christine Miller","ContactEmail":"spartancountrymeats@gmail.com","ContactPhone":"517-375-6337","Website":"www.spartancountrymeats.com","Facebook":"https:\/\/www.facebook.com\/pages\/Spartan-Country-Meats\/213932578620907?sk=timeline&ref=page_internal","Twitter":"https:\/\/www.twitter.com\/spartancntrymts","Instagram":null,"Pinterest":null,"Youtube":null,"Blog":null,"Address":"4039 Dennis Rd., Webberville, Michigan 48892","State":"Michigan","City":"Webberville","Street":"4039 Dennis Rd.","Zip":"48892","Longitude":"-84.201761","Latitude":"42.616054","Dates":null,"Products":""},{"Type":"on-farm market","ModifyDate":"Jul 30th, 2014","Image":"default-onfarmmarket-4-3.jpg","ListingID":"700345","Name":"Graham's Organics","Description":null,"ContactName":"James Graham","ContactEmail":"grahamsorganics@att.net","ContactPhone":"989-433-5900","Website":"grahamsorganics.com","Facebook":null,"Twitter":null,"Instagram":null,"Pinterest":null,"Youtube":null,"Blog":null,"Address":"3654 E. Weidman Rd., Rosebush, Michigan 48878","State":"Michigan","City":"Rosebush","Street":"3654 E. Weidman Rd.","Zip":"48878","Longitude":"-84.773415","Latitude":"43.683767","Dates":null,"Products":""},{"Type":"on-farm market","ModifyDate":"Jul 30th, 2014","Image":"default-onfarmmarket-4-3.jpg","ListingID":"700556","Name":"Michigan Flower Farm","Description":null,"ContactName":"Renee\\' Walter","ContactEmail":"service@michiganflowerfarm.com","ContactPhone":"248-390-7266","Website":"http:\/\/michiganflowerfarm.com\/flowers\/index.php?main_page=","Facebook":null,"Twitter":null,"Instagram":null,"Pinterest":null,"Youtube":null,"Blog":null,"Address":"22460 Garfield Road, Northville, Michigan 48167","State":"Michigan","City":"Northville","Street":"22460 Garfield Road","Zip":"48167","Longitude":"-83.531816","Latitude":"42.4511380","Dates":null,"Products":""},{"Type":"on-farm market","ModifyDate":"Jul 30th, 2014","Image":"default-onfarmmarket-4-3.jpg","ListingID":"700577","Name":"Oceana Winery & Vineyard","Description":null,"ContactName":"Renae Goralski","ContactEmail":"Renae@OceanaWinery.com","ContactPhone":"231-343-0038","Website":"www.oceanawinery.com","Facebook":"https:\/\/www.facebook.com\/pages\/Oceana-Winery-Vineyard\/180943698619727","Twitter":null,"Instagram":null,"Pinterest":null,"Youtube":null,"Blog":null,"Address":"4980 South 52nd Avenue, New Era, Michigan 49446","State":"Michigan","City":"New Era","Street":"4980 South 52nd Avenue","Zip":"49446","Longitude":"-86.427501","Latitude":"43.5553953","Dates":null,"Products":""},{"Type":"on-farm market","ModifyDate":"Jul 30th, 2014","Image":"default-onfarmmarket-4-3.jpg","ListingID":"700669","Name":"Brenskes Blueberries","Description":null,"ContactName":null,"ContactEmail":"mbrenske@yahoo.com","ContactPhone":"989-928-7887 \/ 989-2","Website":null,"Facebook":"https:\/\/www.facebook.com\/pages\/Brenskes-Blueberry-Farm\/386802954774918?sk=timeline","Twitter":null,"Instagram":null,"Pinterest":null,"Youtube":null,"Blog":null,"Address":"17505 Roosevelt Rd, Hemlock, Michigan 48626","State":"Michigan","City":"Hemlock","Street":"17505 Roosevelt Rd","Zip":"48626","Longitude":"-84.259970","Latitude":"43.361975","Dates":null,"Products":""},{"Type":"on-farm market","ModifyDate":"Jul 30th, 2014","Image":"default-onfarmmarket-4-3.jpg","ListingID":"700767","Name":"Westview Farm","Description":null,"ContactName":null,"ContactEmail":"gwestview@aol.com","ContactPhone":"269-668-3603","Website":null,"Facebook":null,"Twitter":null,"Instagram":null,"Pinterest":null,"Youtube":null,"Blog":null,"Address":"60636 County Road 652, Mattawan, Michigan 49071","State":"Michigan","City":"Mattawan","Street":"60636 County Road 652","Zip":"49071","Longitude":"-85.784927","Latitude":"42.198224","Dates":null,"Products":""},{"Type":"on-farm market","ModifyDate":"Jul 31st, 2014","Image":"default-onfarmmarket-4-3.jpg","ListingID":"700020","Name":"Lavender Hill Farm of Niles, MI LLC","Description":null,"ContactName":"Martha Wilczynski","ContactEmail":"info@thelavenderhill.com","ContactPhone":"269-684-0123","Website":"www.thelavenderhill.com","Facebook":"https:\/\/www.facebook.com\/thelavenderhill","Twitter":null,"Instagram":null,"Pinterest":null,"Youtube":null,"Blog":null,"Address":"1219 Morris Dr. (lower level, rear), Niles, Michigan 49120","State":"Michigan","City":"Niles","Street":"1219 Morris Dr. (lower level, rear)","Zip":"49120","Longitude":"-86.301255","Latitude":"41.839746","Dates":null,"Products":""},{"Type":"on-farm market","ModifyDate":"Jul 31st, 2014","Image":"default-onfarmmarket-4-3.jpg","ListingID":"700785","Name":"Frank Farms","Description":null,"ContactName":"Joy Moore","ContactEmail":"farmgirljoy@hotmail.com","ContactPhone":"269-461-4125","Website":"www.frankfarms.com","Facebook":"https:\/\/www.facebook.com\/pages\/Frank-Farms\/321419985624","Twitter":null,"Instagram":null,"Pinterest":null,"Youtube":null,"Blog":null,"Address":"8249 Deans Hill Road, Berrien Center, Michigan 49102","State":"Michigan","City":"Berrien Center","Street":"8249 Deans Hill Road","Zip":"49102","Longitude":"-86.258689","Latitude":"41.957279","Dates":null,"Products":""},{"Type":"on-farm market","ModifyDate":"Jul 5th, 2016","Image":"default-onfarmmarket-4-3.jpg","ListingID":"701224","Name":"Michigan Garlic Farm","Description":null,"ContactName":"Les & Donna Abel","ContactEmail":"abelsgarlic@gmail.com","ContactPhone":"810-923-7604","Website":"www.michigangarlicfarm.com","Facebook":"michigan garlic","Twitter":null,"Instagram":null,"Pinterest":null,"Youtube":null,"Blog":null,"Address":"1048 Sarah Dr., Pinckney, Michigan 48169","State":"Michigan","City":"Pinckney","Street":"1048 Sarah Dr.","Zip":"48169","Longitude":"-83.920852","Latitude":"42.4257150","Dates":null,"Products":""},{"Type":"on-farm market","ModifyDate":"Jun 15th, 2017","Image":"default-onfarmmarket-4-3.jpg","ListingID":"701410","Name":"Fruit Acres Farm Market & U-Pick","Description":null,"ContactName":"Annette Bjorge","ContactEmail":"fruitacres@iserv.net","ContactPhone":"269-468-3668","Website":"fruitacresfarms.com","Facebook":"https:\/\/www.facebook.com\/fruitacres\/","Twitter":null,"Instagram":null,"Pinterest":null,"Youtube":null,"Blog":null,"Address":"3452 Friday Rd., Coloma, Michigan 49038","State":"Michigan","City":"Coloma","Street":"3452 Friday Rd.","Zip":"49038","Longitude":"-86.306406","Latitude":"42.1744010","Dates":null,"Products":""},{"Type":"on-farm market","ModifyDate":"Jun 22nd, 2021","Image":"default-onfarmmarket-4-3.jpg","ListingID":"701603","Name":"Frontiere Farm House","Description":null,"ContactName":"Nicole Goetz","ContactEmail":"frontierefarmhouse@gmail.com","ContactPhone":"2698306508","Website":"frontierefarm.house","Facebook":"facebook.com\/frontierefarmhouse","Twitter":null,"Instagram":null,"Pinterest":null,"Youtube":null,"Blog":"frontierefarm.house","Address":"11211 22 Mile Rd, Marshall, Michigan 49068","State":"Michigan","City":"Marshall","Street":"11211 22 Mile Rd","Zip":"49068","Longitude":"-84.869149","Latitude":"42.234523","Dates":null,"Products":""},{"Type":"on-farm market","ModifyDate":"Mar 13th, 2015","Image":"default-onfarmmarket-4-3.jpg","ListingID":"700354","Name":"Fruit Ridge Hayrides LLC","Description":null,"ContactName":"Nancy Briggs","ContactEmail":"fruitridgehayrides@msn.com","ContactPhone":"616-887-5052","Website":"www.fruitridgehayrides.com","Facebook":"https:\/\/www.facebook.com\/fruitridge.hayrides","Twitter":null,"Instagram":null,"Pinterest":null,"Youtube":null,"Blog":null,"Address":"11966 Fruit Ridge Ave., Kent City, Michigan 49330","State":"Michigan","City":"Kent City","Street":"11966 Fruit Ridge Ave.","Zip":"49330","Longitude":"-85.769231","Latitude":"43.183267","Dates":null,"Products":""},{"Type":"on-farm market","ModifyDate":"Mar 19th, 2015","Image":"default-onfarmmarket-4-3.jpg","ListingID":"700268","Name":"Destiny Farm- FarmStand","Description":null,"ContactName":"Joni Lickey","ContactEmail":"Mlickey105@aol.com","ContactPhone":"248-789-5384","Website":null,"Facebook":null,"Twitter":null,"Instagram":null,"Pinterest":null,"Youtube":null,"Blog":null,"Address":"13078 Windy Hollow, Brighton Township, Michigan 48380","State":"Michigan","City":"Brighton Township","Street":"13078 Windy Hollow","Zip":"48380","Longitude":"-83.691015","Latitude":"42.533793","Dates":null,"Products":""},{"Type":"on-farm market","ModifyDate":"Mar 23rd, 2015","Image":"default-onfarmmarket-4-3.jpg","ListingID":"700015","Name":"Two Sparrows Farm LLC","Description":null,"ContactName":"Daniel and Whitney Belprez","ContactEmail":"info@twosparrowsfarm.com","ContactPhone":"517-214-7447","Website":"https:\/\/twosparrowsfarm.wordpress.com\/","Facebook":"https:\/\/www.facebook.com\/TwoSparrowsFarm","Twitter":null,"Instagram":null,"Pinterest":null,"Youtube":null,"Blog":null,"Address":"9436 Peck Lake Rd., Lowell, Michigan 49331","State":"Michigan","City":"Lowell","Street":"9436 Peck Lake Rd.","Zip":"49331","Longitude":"-85.261964","Latitude":"42.900684","Dates":null,"Products":""},{"Type":"on-farm market","ModifyDate":"Mar 23rd, 2015","Image":"default-onfarmmarket-4-3.jpg","ListingID":"700549","Name":"Blueberry Lane Farms","Description":null,"ContactName":"Alicia Cummings","ContactEmail":"blueberrylanefarms@hotmail.com","ContactPhone":"810-793-4590","Website":"www.blueberrylanefarms.com","Facebook":"Blueberry Lane Farms","Twitter":null,"Instagram":null,"Pinterest":null,"Youtube":null,"Blog":null,"Address":"13240 Blueberry Lane, Otter Lake, Michigan 48464","State":"Michigan","City":"Otter Lake","Street":"13240 Blueberry Lane","Zip":"48464","Longitude":"-83.470335","Latitude":"43.1983610","Dates":null,"Products":""},{"Type":"on-farm market","ModifyDate":"Mar 23rd, 2015","Image":"default-onfarmmarket-4-3.jpg","ListingID":"700825","Name":"Immerfrost Farm","Description":null,"ContactName":"David Eagleton","ContactEmail":"immerfrost.farm@gmail.com","ContactPhone":"9207868088","Website":"ImmerfrostFarm.com","Facebook":"http:\/\/goo.gl\/qlvwg","Twitter":"https:\/\/www.twitter.com\/ImmerfrostFarm","Instagram":null,"Pinterest":null,"Youtube":null,"Blog":null,"Address":"N8536 Pelkey Rd K 3, Stephenson, Michigan 49887","State":"Michigan","City":"Stephenson","Street":"N8536 Pelkey Rd K 3","Zip":"49887","Longitude":"-87.547894","Latitude":"45.421889","Dates":null,"Products":""},{"Type":"on-farm market","ModifyDate":"Mar 28th, 2015","Image":"default-onfarmmarket-4-3.jpg","ListingID":"700774","Name":"Green Oak Farmers and Community Market","Description":null,"ContactName":"Joe Otis","ContactEmail":"greenoakmarket@gmail.com","ContactPhone":"313-590-1960","Website":"www.facebook.com\/GreenOakMarket","Facebook":"www.facebook.com\/GreenOakMarket","Twitter":null,"Instagram":null,"Pinterest":null,"Youtube":null,"Blog":null,"Address":"11299 Grand River Avenue, Brighton, Michigan 48116","State":"Michigan","City":"Brighton","Street":"11299 Grand River Avenue","Zip":"48116","Longitude":"-83.727164","Latitude":"42.5159990","Dates":null,"Products":""},{"Type":"on-farm market","ModifyDate":"Mar 8th, 2017","Image":"default-onfarmmarket-4-3.jpg","ListingID":"701395","Name":"Grange Fruit Farm","Description":null,"ContactName":"Robert Versluis","ContactEmail":"rbv97@aol.com","ContactPhone":"616-862-5408","Website":"grangefruit.com","Facebook":"Grange Fruit Farm","Twitter":null,"Instagram":null,"Pinterest":null,"Youtube":null,"Blog":null,"Address":"10724 Grange Ave NE, Rockford, Michigan 49341","State":"Michigan","City":"Rockford","Street":"10724 Grange Ave NE","Zip":"49341","Longitude":"-85.625363","Latitude":"43.159966","Dates":null,"Products":""},{"Type":"on-farm market","ModifyDate":"May 18th, 2015","Image":"default-onfarmmarket-4-3.jpg","ListingID":"701260","Name":"Peckham Farms","Description":null,"ContactName":"David Allen","ContactEmail":"dallen@peckham.org","ContactPhone":"5173164102","Website":"http:\/\/www.peckham.org\/Business-Operations\/Peckham-Farms.aspx\/","Facebook":"https:\/\/www.facebook.com\/Peckham.Farms","Twitter":null,"Instagram":null,"Pinterest":null,"Youtube":null,"Blog":null,"Address":"5408 W. Grand River Rd., Lansing, Michigan 48906","State":"Michigan","City":"Lansing","Street":"5408 W. Grand River Rd.","Zip":"48906","Longitude":"-84.628209","Latitude":"42.777257","Dates":null,"Products":""},{"Type":"on-farm market","ModifyDate":"May 24th, 2016","Image":"default-onfarmmarket-4-3.jpg","ListingID":"701338","Name":"Kitipi Farm, llc","Description":null,"ContactName":"Erin Swystun Kitipi","ContactEmail":"kitipifarm@gmail.com","ContactPhone":"269.491.9232","Website":null,"Facebook":"Kitipi Farm, llc","Twitter":null,"Instagram":null,"Pinterest":null,"Youtube":null,"Blog":null,"Address":"130 Hastings Ct, Bangor , Michigan 49013","State":"Michigan","City":"Bangor","Street":"130 Hastings Ct","Zip":"49013","Longitude":"-86.106671","Latitude":"42.321930","Dates":null,"Products":""},{"Type":"on-farm market","ModifyDate":"May 2nd, 2017","Image":"default-onfarmmarket-4-3.jpg","ListingID":"701406","Name":"Speaker Lone Oak Orchard","Description":null,"ContactName":"Darlene Dambacher","ContactEmail":"speakerorchard@frontier.com","ContactPhone":"810 387-21210","Website":"speakerorchard.com","Facebook":"Speaker orchard","Twitter":null,"Instagram":null,"Pinterest":null,"Youtube":null,"Blog":null,"Address":"7353 Brockway Rd., Melvin, Michigan 48454","State":"Michigan","City":"Melvin","Street":"7353 Brockway Rd.","Zip":"48454","Longitude":"-82.801607","Latitude":"43.207260","Dates":null,"Products":""},{"Type":"on-farm market","ModifyDate":"Nov 14th, 2014","Image":"default-onfarmmarket-4-3.jpg","ListingID":"701170","Name":"L& L Bull","Description":null,"ContactName":"L&L Bull-  Lynn Bull","ContactEmail":"applemom7@yahoo.com","ContactPhone":"616 675-4288","Website":"llbull","Facebook":"L&LBull","Twitter":null,"Instagram":null,"Pinterest":null,"Youtube":null,"Blog":null,"Address":"16530 Hall Rd, Casnovia, Michigan 49318","State":"Michigan","City":"Casnovia","Street":"16530 Hall Rd","Zip":"49318","Longitude":"-85.836698","Latitude":"43.2494138","Dates":null,"Products":""},{"Type":"on-farm market","ModifyDate":"Nov 19th, 2014","Image":"default-onfarmmarket-4-3.jpg","ListingID":"701172","Name":"Hanulcik Farm Market","Description":null,"ContactName":"Carol Hanulcik","ContactEmail":"hanulcikfarm@gmail.com","ContactPhone":"616-527-3630","Website":"www.farm-grown.com","Facebook":null,"Twitter":null,"Instagram":null,"Pinterest":null,"Youtube":null,"Blog":null,"Address":"1425 N. State Rd. (M-66) at the corner of Dildine, Ionia, Michigan 48846","State":"Michigan","City":"Ionia","Street":"1425 N. State Rd. (M-66) at the corner of Dildine","Zip":"48846","Longitude":"-85.075274","Latitude":"43.008938","Dates":null,"Products":""},{"Type":"on-farm market","ModifyDate":"Oct 16th, 2014","Image":"default-onfarmmarket-4-3.jpg","ListingID":"701142","Name":"Happy Buddha Farm, LLC","Description":null,"ContactName":"Happy Buddha Farm","ContactEmail":"braman.marty@gmail.com","ContactPhone":"616-460-6825","Website":"www.happybuddhafarm.com","Facebook":"facebook.com\/happybuddhafarm","Twitter":null,"Instagram":null,"Pinterest":null,"Youtube":null,"Blog":null,"Address":"10423 Vergennes St, Lowell, Michigan 49331","State":"Michigan","City":"Lowell","Street":"10423 Vergennes St","Zip":"49331","Longitude":"-85.410060","Latitude":"42.958307","Dates":null,"Products":""},{"Type":"on-farm market","ModifyDate":"Oct 18th, 2014","Image":"default-onfarmmarket-4-3.jpg","ListingID":"701145","Name":"Coon's Berry Farm","Description":null,"ContactName":"Jerry and Yulia Coon","ContactEmail":"coonsberryfarm@hotmail.com","ContactPhone":"989-948-0773","Website":"www.coonsberryfarm.com","Facebook":null,"Twitter":null,"Instagram":null,"Pinterest":null,"Youtube":null,"Blog":null,"Address":"2724 N Lewis Rd, Coleman, Michigan 48618","State":"Michigan","City":"Coleman","Street":"2724 N Lewis Rd","Zip":"48618","Longitude":"-84.566845","Latitude":"43.690128","Dates":null,"Products":""},{"Type":"on-farm market","ModifyDate":"Oct 1st, 2014","Image":"default-onfarmmarket-4-3.jpg","ListingID":"700760","Name":"Christofferson Farms","Description":null,"ContactName":"carole christofferson","ContactEmail":"hattrickred@gmail.com","ContactPhone":"231-845-5831","Website":null,"Facebook":null,"Twitter":null,"Instagram":null,"Pinterest":null,"Youtube":null,"Blog":null,"Address":"3441 South Morton Road, Ludington, Michigan 49431","State":"Michigan","City":"Ludington","Street":"3441 South Morton Road","Zip":"49431","Longitude":"-86.358937","Latitude":"43.891499","Dates":null,"Products":""},{"Type":"on-farm market","ModifyDate":"Sep 10th, 2014","Image":"default-onfarmmarket-4-3.jpg","ListingID":"700376","Name":"Greener Grass Farms","Description":null,"ContactName":"Dan Marsh","ContactEmail":"dan@marshbrothersonline.com","ContactPhone":"517-425-7049","Website":"www.greenergrassfarms.com","Facebook":null,"Twitter":null,"Instagram":null,"Pinterest":null,"Youtube":null,"Blog":null,"Address":"9800 Youngs Rd., Quincy, Michigan 49082","State":"Michigan","City":"Quincy","Street":"9800 Youngs Rd.","Zip":"49082","Longitude":"-84.804553","Latitude":"41.9123800","Dates":null,"Products":""},{"Type":"on-farm market","ModifyDate":"Sep 11th, 2014","Image":"default-onfarmmarket-4-3.jpg","ListingID":"701055","Name":"The Blue Barn","Description":null,"ContactName":"Andrew Smith","ContactEmail":"ads26andrew@gmail.com","ContactPhone":"269-781-4523","Website":"http:\/\/www.thebluebarninmarshall.com\/","Facebook":null,"Twitter":null,"Instagram":null,"Pinterest":null,"Youtube":null,"Blog":null,"Address":"16147 US HWY 27 N, Marshall, Michigan 49068","State":"Michigan","City":"Marshall","Street":"16147 US HWY 27 N","Zip":"49068","Longitude":"-84.964657","Latitude":"42.307229","Dates":null,"Products":""},{"Type":"on-farm market","ModifyDate":"Sep 12th, 2014","Image":"default-onfarmmarket-4-3.jpg","ListingID":"701058","Name":"S&C Nelson Farm","Description":null,"ContactName":"Steve or Caton Nelson","ContactEmail":"nelsons7@msu.edu","ContactPhone":"9062655684","Website":null,"Facebook":null,"Twitter":null,"Instagram":null,"Pinterest":null,"Youtube":null,"Blog":null,"Address":"301 Nelson Road, Iron River, Michigan 49935","State":"Michigan","City":"Iron River","Street":"301 Nelson Road","Zip":"49935","Longitude":"-88.533402","Latitude":"46.0944389","Dates":null,"Products":""},{"Type":"on-farm market","ModifyDate":"Sep 16th, 2014","Image":"default-onfarmmarket-4-3.jpg","ListingID":"700635","Name":"A.W. Overhiser Orchards","Description":null,"ContactName":"Allan Overhiser","ContactEmail":"awo@i2k.com","ContactPhone":"616-836-3298","Website":"www.overhiserorchards.com","Facebook":"www.facebook.com\/OverhiserOrchards","Twitter":null,"Instagram":null,"Pinterest":null,"Youtube":null,"Blog":null,"Address":"6405 109th Avenue, South Haven, Michigan 49090","State":"Michigan","City":"South Haven","Street":"6405 109th Avenue","Zip":"49090","Longitude":"-86.169217","Latitude":"42.483804","Dates":null,"Products":""},{"Type":"on-farm market","ModifyDate":"Sep 18th, 2014","Image":"default-onfarmmarket-4-3.jpg","ListingID":"700609","Name":"Orchard Beach Farm","Description":null,"ContactName":"Philip Muir","ContactEmail":"orchardbeachfarm@dmcibb.net","ContactPhone":"517-639-4609","Website":"www.farmermaps.com","Facebook":null,"Twitter":null,"Instagram":null,"Pinterest":null,"Youtube":null,"Blog":null,"Address":"130 Orchard Trail, Quincy, Michigan 49082","State":"Michigan","City":"Quincy","Street":"130 Orchard Trail","Zip":"49082","Longitude":"-84.912234","Latitude":"41.890472","Dates":null,"Products":""},{"Type":"on-farm market","ModifyDate":"Sep 3rd, 2014","Image":"default-onfarmmarket-4-3.jpg","ListingID":"701014","Name":"BP Farms","Description":null,"ContactName":"Bill Picken","ContactEmail":"bpfarmsllc@gmail.com","ContactPhone":"734-529-2032","Website":null,"Facebook":"http:\/\/www.facebook.com\/BPFarmsLLC\/","Twitter":null,"Instagram":null,"Pinterest":null,"Youtube":null,"Blog":null,"Address":"6300 Rea Rd, Dundee, Michigan 48131","State":"Michigan","City":"Dundee","Street":"6300 Rea Rd","Zip":"48131","Longitude":"-83.722228","Latitude":"41.986419","Dates":null,"Products":""},{"Type":"on-farm market","ModifyDate":"Sep 6th, 2017","Image":"default-onfarmmarket-4-3.jpg","ListingID":"701428","Name":"Swoish Farms","Description":null,"ContactName":"Gary Swoish","ContactEmail":"swoishfarmsllc@yahoo.com","ContactPhone":"8106884019","Website":null,"Facebook":"https:\/\/www.facebook.com\/swoishfarms\/","Twitter":null,"Instagram":null,"Pinterest":null,"Youtube":null,"Blog":null,"Address":"4867 Swoish Road, North Branch, Michigan 48461","State":"Michigan","City":"North Branch","Street":"4867 Swoish Road","Zip":"48461","Longitude":"-83.160217","Latitude":"43.1868314","Dates":null,"Products":""},{"Type":"on-farm market","ModifyDate":"Sep 9th, 2016","Image":"default-onfarmmarket-4-3.jpg","ListingID":"701369","Name":"Borderline Farm","Description":null,"ContactName":"Norm Allen","ContactEmail":"borderline.farm@hotmail.com","ContactPhone":"269-506-3012","Website":"http:\/\/borderline.farm","Facebook":"https:\/\/www.facebook.com\/BorderlineFarm.MI","Twitter":null,"Instagram":null,"Pinterest":null,"Youtube":null,"Blog":null,"Address":"71269 Bauman Rd, Sturgis , Michigan 49091","State":"Michigan","City":"Sturgis","Street":"71269 Bauman Rd","Zip":"49091","Longitude":"-85.337939","Latitude":"41.7610830","Dates":null,"Products":""}]