[{"Type":"on-farm market","ModifyDate":"Aug 3rd, 2016","Image":"default-onfarmmarket-4-3.jpg","ListingID":"701240","Name":"Silver Springs Custom Gardens On-Farm Green-Market","Description":null,"ContactName":"Ray and Virginia Johnson","ContactEmail":"customgardens@att.net","ContactPhone":"775-577-2069","Website":null,"Facebook":"https:\/\/www.facebook.com\/pages\/Custom-Gardens-Organic-Farm\/125190910916903","Twitter":null,"Instagram":null,"Pinterest":null,"Youtube":null,"Blog":null,"Address":"3701 Elm Street, Silver Springs, Nevada 89429","State":"Nevada","City":"Silver Springs","Street":"3701 Elm Street","Zip":"89429","Longitude":"-119.23122","Latitude":"39.394724","Dates":null,"Products":""},{"Type":"on-farm market","ModifyDate":"Jan 4th, 2015","Image":"default-onfarmmarket-4-3.jpg","ListingID":"701186","Name":"k-t ranch","Description":null,"ContactName":"kalvan kaldor","ContactEmail":"k-tranch@hotmail.com","ContactPhone":"775-842-0082","Website":"k-tranch@hotmail.com","Facebook":null,"Twitter":null,"Instagram":null,"Pinterest":null,"Youtube":null,"Blog":null,"Address":"2090 fox st., silver springs, Nevada 89429","State":"Nevada","City":"silver springs","Street":"2090 fox st.","Zip":"89429","Longitude":"-119.21055","Latitude":"39.308329","Dates":null,"Products":""},{"Type":"on-farm market","ModifyDate":"Jul 28th, 2014","Image":"default-onfarmmarket-4-3.jpg","ListingID":"700673","Name":"Gilcrease Orchard Foundation","Description":null,"ContactName":"Mark Ruben","ContactEmail":"mark@thegilcreaseorchard.org","ContactPhone":"702-409-0655","Website":"www.thegilcreaseorchard.org","Facebook":null,"Twitter":null,"Instagram":null,"Pinterest":null,"Youtube":null,"Blog":null,"Address":"7800 N. Tenaya Way, Las Vegas, Nevada 89131","State":"Nevada","City":"Las Vegas","Street":"7800 N. Tenaya Way","Zip":"89131","Longitude":"-115.25052","Latitude":"36.301528","Dates":null,"Products":""},{"Type":"on-farm market","ModifyDate":"Jul 30th, 2014","Image":"default-onfarmmarket-4-3.jpg","ListingID":"700608","Name":"Cowboy Trail Farm Indoor Farm Stand","Description":null,"ContactName":"Marilyn Yamamoto","ContactEmail":"organicedibles@gmail.com","ContactPhone":"702-604-3165","Website":"www.cowboytrailfarms.com","Facebook":"www.facebook.com\/pages\/Cowboy-Trail-Farms","Twitter":null,"Instagram":null,"Pinterest":null,"Youtube":null,"Blog":null,"Address":"6550 Cowboy Trail, Las Vegas, Nevada 89131","State":"Nevada","City":"Las Vegas","Street":"6550 Cowboy Trail","Zip":"89131","Longitude":"-115.22238","Latitude":"36.2807076","Dates":null,"Products":""},{"Type":"on-farm market","ModifyDate":"Mar 24th, 2015","Image":"default-onfarmmarket-4-3.jpg","ListingID":"700940","Name":"Iron Mountain Nursery & Farm__On-Farm Farmers Market","Description":null,"ContactName":"Ronald Trunk","ContactEmail":"nvus@usa.com","ContactPhone":"775-690-4245","Website":"https:\/\/www.imnandf.com","Facebook":"https:\/\/www.facebook.com\/ironmountainnurseryandfarm","Twitter":null,"Instagram":null,"Pinterest":null,"Youtube":null,"Blog":null,"Address":"7575 Iron Mountain Blvd., Stagecoach, Nevada 89429","State":"Nevada","City":"Stagecoach","Street":"7575 Iron Mountain Blvd.","Zip":"89429","Longitude":"-119.45120","Latitude":"39.3377180","Dates":null,"Products":""}]