[{"Type":"on-farm market","ModifyDate":"Aug 25th, 2014","Image":"default-onfarmmarket-4-3.jpg","ListingID":"700925","Name":"Real-Ranch LLC","Description":null,"ContactName":"Shari Morrison","ContactEmail":"paulshari@real-ranch.com","ContactPhone":"580-777-4799","Website":"real-ranch.com","Facebook":"https:\/\/www.facebook.com\/realranch","Twitter":null,"Instagram":null,"Pinterest":null,"Youtube":null,"Blog":null,"Address":"11714 CR 1690, Roff, Oklahoma 74865","State":"Oklahoma","City":"Roff","Street":"11714 CR 1690","Zip":"74865","Longitude":"-96.745575","Latitude":"34.564565","Dates":null,"Products":""},{"Type":"on-farm market","ModifyDate":"Aug 26th, 2014","Image":"default-onfarmmarket-4-3.jpg","ListingID":"700950","Name":"ZaKK Farms; Home of OKBelties","Description":null,"ContactName":"Jason & Linda Fly","ContactEmail":"okbelties@gmail.com","ContactPhone":"(405)-432-8758","Website":"okbelties.weebly.com","Facebook":null,"Twitter":null,"Instagram":null,"Pinterest":null,"Youtube":null,"Blog":null,"Address":"32757 Hwy 9, Pink , Oklahoma 74873","State":"Oklahoma","City":"Pink","Street":"32757 Hwy 9","Zip":"74873","Longitude":"-97.074740","Latitude":"35.257996","Dates":null,"Products":""},{"Type":"on-farm market","ModifyDate":"Aug 28th, 2014","Image":"default-onfarmmarket-4-3.jpg","ListingID":"700976","Name":"Inslee Fish Farm","Description":null,"ContactName":"Donald Inslee","ContactEmail":"bassholeofoklahoma@hotmail.com","ContactPhone":"580-836-7150","Website":null,"Facebook":"https:\/\/www.facebook.com\/pages\/Inslee-Fish-Farm\/123937417683643","Twitter":null,"Instagram":null,"Pinterest":null,"Youtube":null,"Blog":null,"Address":"1400 Seeley Chapel Rd, Connerville, Oklahoma 74836","State":"Oklahoma","City":"Connerville","Street":"1400 Seeley Chapel Rd","Zip":"74836","Longitude":"-96.628693","Latitude":"34.460187","Dates":null,"Products":""},{"Type":"on-farm market","ModifyDate":"Aug 2nd, 2014","Image":"default-onfarmmarket-4-3.jpg","ListingID":"700797","Name":"Endicott Farms LLC","Description":null,"ContactName":"Betsy Endicott","ContactEmail":"endicottfarms@yahoo.com","ContactPhone":"918-344-4582","Website":"www.endicottfarms.com","Facebook":null,"Twitter":null,"Instagram":null,"Pinterest":null,"Youtube":null,"Blog":null,"Address":"211th Between Harvard & Lewis, Liberty-Mounds, Oklahoma 74047","State":"Oklahoma","City":"Liberty-Mounds","Street":"211th Between Harvard & Lewis","Zip":"74047","Longitude":"-95.961522","Latitude":"35.856606","Dates":null,"Products":""},{"Type":"on-farm market","ModifyDate":"Jul 21st, 2016","Image":"default-onfarmmarket-4-3.jpg","ListingID":"701364","Name":"Red Truck Farm","Description":null,"ContactName":"Susan Howell","ContactEmail":"redtruckfarm@hotmail.com","ContactPhone":"580-919-0967","Website":null,"Facebook":"https:\/\/www.facebook.com\/Red-Truck-Farm-1441855589413794\/?ref=bookmarks","Twitter":null,"Instagram":null,"Pinterest":null,"Youtube":null,"Blog":null,"Address":"16963 CR NS 227, Manitou, Oklahoma 73555","State":"Oklahoma","City":"Manitou","Street":"16963 CR NS 227","Zip":"73555","Longitude":"-98.933473","Latitude":"34.557891","Dates":null,"Products":""},{"Type":"on-farm market","ModifyDate":"Jul 26th, 2014","Image":"default-onfarmmarket-4-3.jpg","ListingID":"700559","Name":"Peach Crest Farm","Description":null,"ContactName":null,"ContactEmail":"sbergen1@cox.net","ContactPhone":"405-650-0804","Website":null,"Facebook":null,"Twitter":null,"Instagram":null,"Pinterest":null,"Youtube":null,"Blog":null,"Address":"10219 us hwy 177, Stratford, Oklahoma 74872","State":"Oklahoma","City":"Stratford","Street":"10219 us hwy 177","Zip":"74872","Longitude":"-96.966834","Latitude":"34.860704","Dates":null,"Products":""},{"Type":"on-farm market","ModifyDate":"Jul 26th, 2014","Image":"default-onfarmmarket-4-3.jpg","ListingID":"700793","Name":"Wild Things Farm","Description":null,"ContactName":"Catherine Greene","ContactEmail":"farmer@wildthingsfarm.com","ContactPhone":"918-626-4053","Website":"www.wildthingsfarm.com","Facebook":"www.facebook.com\/pages\/Wild-Things-Farm\/309163820790","Twitter":null,"Instagram":null,"Pinterest":null,"Youtube":null,"Blog":null,"Address":"700 Beaty Avenue, Pocola, Oklahoma 74902","State":"Oklahoma","City":"Pocola","Street":"700 Beaty Avenue","Zip":"74902","Longitude":"-94.446848","Latitude":"35.303899","Dates":null,"Products":""},{"Type":"on-farm market","ModifyDate":"Jul 27th, 2014","Image":"default-onfarmmarket-4-3.jpg","ListingID":"700649","Name":"Forbidden Fruits Farm","Description":null,"ContactName":"Alexis Kaiser","ContactEmail":"alexis.kaiser@gmail.com","ContactPhone":"4057577670","Website":"www.forbiddenfruitsfarm.com","Facebook":"www.facebook.com\/forbiddenfruitsfarm","Twitter":null,"Instagram":null,"Pinterest":null,"Youtube":null,"Blog":"forbiddenfruitsfarm.blogspot.com","Address":"23200 CR 1480, Cyril, Oklahoma 73029","State":"Oklahoma","City":"Cyril","Street":"23200 CR 1480","Zip":"73029","Longitude":"-98.215386","Latitude":"34.869930","Dates":null,"Products":""},{"Type":"on-farm market","ModifyDate":"Jul 28th, 2014","Image":"default-onfarmmarket-4-3.jpg","ListingID":"700460","Name":"Chisholm Trail Farm LLC","Description":null,"ContactName":"Tim Boehrer","ContactEmail":"tim@chisholmtrailfarm.com","ContactPhone":"405-850-2207","Website":"www.chisholmtrailfarm.com","Facebook":null,"Twitter":null,"Instagram":null,"Pinterest":null,"Youtube":null,"Blog":null,"Address":"1010 CS 2930, Tuttle, Oklahoma 73089","State":"Oklahoma","City":"Tuttle","Street":"1010 CS 2930","Zip":"73089","Longitude":"-97.777551","Latitude":"35.245987","Dates":null,"Products":""},{"Type":"on-farm market","ModifyDate":"Jul 29th, 2014","Image":"default-onfarmmarket-4-3.jpg","ListingID":"700544","Name":"Buffalo Creek Berry Farm","Description":null,"ContactName":"Bobby Sloan Jr.","ContactEmail":"bobby.sloan@yahoo.com","ContactPhone":"405-412-4515","Website":null,"Facebook":null,"Twitter":null,"Instagram":null,"Pinterest":null,"Youtube":null,"Blog":null,"Address":"9211 Sloan Rd, Mustang, Oklahoma 73064","State":"Oklahoma","City":"Mustang","Street":"9211 Sloan Rd","Zip":"73064","Longitude":"-97.681934","Latitude":"35.373981","Dates":null,"Products":""},{"Type":"on-farm market","ModifyDate":"Jul 29th, 2014","Image":"default-onfarmmarket-4-3.jpg","ListingID":"700798","Name":"SandStone Spring Vineyard","Description":null,"ContactName":"Bobby Sloan","ContactEmail":"bobby.sloan@yahoo.com","ContactPhone":"405-830-8067","Website":null,"Facebook":null,"Twitter":null,"Instagram":null,"Pinterest":null,"Youtube":null,"Blog":null,"Address":"9211 Sloan Rd., Mustang , Oklahoma 73064","State":"Oklahoma","City":"Mustang","Street":"9211 Sloan Rd.","Zip":"73064","Longitude":"-97.681907","Latitude":"35.374633","Dates":null,"Products":""},{"Type":"on-farm market","ModifyDate":"Jul 30th, 2014","Image":"default-onfarmmarket-4-3.jpg","ListingID":"700429","Name":"Wind Drift Orchards","Description":null,"ContactName":"Bill Spencer","ContactEmail":"winddriftorchards@gmail.com","ContactPhone":"(405) 454-6618 and (","Website":"www.winddriftorchards.com","Facebook":"https:\/\/www.facebook.com\/pages\/Wind-Drift-Orchards\/465391816870294","Twitter":null,"Instagram":null,"Pinterest":null,"Youtube":null,"Blog":null,"Address":"19400 Ne 63rd Street 18499 NE 50th Street, Harrah, Oklahoma 73045","State":"Oklahoma","City":"Harrah","Street":"19400 Ne 63rd Street 18499 NE 50th Street","Zip":"73045","Longitude":"-97.186475","Latitude":"35.535937","Dates":null,"Products":""},{"Type":"on-farm market","ModifyDate":"Mar 2nd, 2015","Image":"default-onfarmmarket-4-3.jpg","ListingID":"701211","Name":"Vision Farms","Description":null,"ContactName":"Vision Farms","ContactEmail":"Johnny8@cox.net","ContactPhone":"405-519-3996","Website":"http:\/\/vision-farms.org","Facebook":"https:\/\/www.facebook.com\/visionfarms","Twitter":null,"Instagram":null,"Pinterest":null,"Youtube":null,"Blog":null,"Address":"12th and Vilas, Guthrie , Oklahoma 73044","State":"Oklahoma","City":"Guthrie","Street":"12th and Vilas","Zip":"73044","Longitude":"-97.443558","Latitude":"35.875703","Dates":null,"Products":""},{"Type":"on-farm market","ModifyDate":"Mar 7th, 2017","Image":"default-onfarmmarket-4-3.jpg","ListingID":"701393","Name":"Woods & Waters Winery & Vineyards & Berry Farm","Description":null,"ContactName":"Alexis Kaiser","ContactEmail":"alexis@woodsandwaterswinery.com","ContactPhone":"405-757-7670","Website":"www.woodsandwaterswinery.com","Facebook":"Facebook.com\/woodsandwaters\/","Twitter":null,"Instagram":null,"Pinterest":null,"Youtube":null,"Blog":null,"Address":"17153 CR 1380, Anadarko, Oklahoma 73005","State":"Oklahoma","City":"Anadarko","Street":"17153 CR 1380","Zip":"73005","Longitude":"-98.326276","Latitude":"35.013603","Dates":null,"Products":""},{"Type":"on-farm market","ModifyDate":"May 7th, 2021","Image":"default-onfarmmarket-4-3.jpg","ListingID":"701599","Name":"800 Oaks Farm&Ranch","Description":null,"ContactName":"Regina Smith","ContactEmail":"our800oaksranch@hotmail.com","ContactPhone":"405-473-6580","Website":null,"Facebook":"https:\/\/www.facebook.com\/800-Oaks-Farm-Ranch-362168957769623\/?ref=py_c","Twitter":null,"Instagram":null,"Pinterest":null,"Youtube":null,"Blog":null,"Address":"53622 W 211th Road S, Depew, Oklahoma 74028","State":"Oklahoma","City":"Depew","Street":"53622 W 211th Road S","Zip":"74028","Longitude":"-96.591224","Latitude":"35.855424","Dates":null,"Products":""},{"Type":"on-farm market","ModifyDate":"Oct 1st, 2014","Image":"default-onfarmmarket-4-3.jpg","ListingID":"700435","Name":"Wild Rose Strawberry Farm","Description":null,"ContactName":null,"ContactEmail":"wildrosestrawberryfarm@gmail.com","ContactPhone":"918-785-2122","Website":"wild rose strawberry farm @g mail.com","Facebook":null,"Twitter":null,"Instagram":null,"Pinterest":null,"Youtube":null,"Blog":null,"Address":"7645 N 429 Road, Adair, Oklahoma 74330","State":"Oklahoma","City":"Adair","Street":"7645 N 429 Road","Zip":"74330","Longitude":"-95.368498","Latitude":"36.418079","Dates":null,"Products":""},{"Type":"on-farm market","ModifyDate":"Oct 6th, 2014","Image":"default-onfarmmarket-4-3.jpg","ListingID":"701119","Name":"Crispin Murray Grey Grass-Fed Beef","Description":null,"ContactName":null,"ContactEmail":"beef@crispin-grassfedbeef.com","ContactPhone":"580-661-1637","Website":"http:\/\/crispin-grassfedbeef.com","Facebook":null,"Twitter":null,"Instagram":null,"Pinterest":null,"Youtube":null,"Blog":null,"Address":"409 N 11th, Thomas, Oklahoma 73669","State":"Oklahoma","City":"Thomas","Street":"409 N 11th","Zip":"73669","Longitude":"-98.751283","Latitude":"35.747020","Dates":null,"Products":""},{"Type":"on-farm market","ModifyDate":"Sep 16th, 2014","Image":"default-onfarmmarket-4-3.jpg","ListingID":"700563","Name":"HoneyBear Ranch","Description":null,"ContactName":"Sandra Harris","ContactEmail":"sandy@honeybear-ranch.com","ContactPhone":"580-584-6022","Website":"www.honeybear-ranch.com","Facebook":"HoneyBear Ranch","Twitter":null,"Instagram":null,"Pinterest":null,"Youtube":null,"Blog":null,"Address":"897 Redwood Road, Broken Bow, Oklahoma 74728","State":"Oklahoma","City":"Broken Bow","Street":"897 Redwood Road","Zip":"74728","Longitude":"-94.774638","Latitude":"34.054489","Dates":null,"Products":""},{"Type":"on-farm market","ModifyDate":"Sep 17th, 2014","Image":"default-onfarmmarket-4-3.jpg","ListingID":"700499","Name":"Whispering Springs Greenhouse","Description":null,"ContactName":"david yates","ContactEmail":"davidyateswsg@gmail.com","ContactPhone":"405-863-1016","Website":null,"Facebook":null,"Twitter":null,"Instagram":null,"Pinterest":null,"Youtube":null,"Blog":null,"Address":"12647 SW 104th Street, Mustang, Oklahoma 73064","State":"Oklahoma","City":"Mustang","Street":"12647 SW 104th Street","Zip":"73064","Longitude":"-97.754910","Latitude":"35.363025","Dates":null,"Products":""},{"Type":"on-farm market","ModifyDate":"Sep 19th, 2014","Image":"default-onfarmmarket-4-3.jpg","ListingID":"700612","Name":"The Peppermint Dragon Herb and Oriental Gardens","Description":null,"ContactName":null,"ContactEmail":"okiedragon@yahoo.com","ContactPhone":"918-224-5337","Website":null,"Facebook":null,"Twitter":null,"Instagram":null,"Pinterest":null,"Youtube":null,"Blog":null,"Address":"7920 W 133 St So, Sapulpa, Oklahoma 74066","State":"Oklahoma","City":"Sapulpa","Street":"7920 W 133 St So","Zip":"74066","Longitude":"-96.080329","Latitude":"35.970830","Dates":null,"Products":""},{"Type":"on-farm market","ModifyDate":"Sep 9th, 2021","Image":"default-onfarmmarket-4-3.jpg","ListingID":"701614","Name":"West Point Beef and Cattle Company, LLC","Description":null,"ContactName":"SYLVIA K DEWITT","ContactEmail":"sylvia@westpointbeef.com","ContactPhone":"4057476262","Website":"https:\/\/westpointbeef.com\/","Facebook":"https:\/\/www.facebook.com\/westpointbeef","Twitter":null,"Instagram":null,"Pinterest":null,"Youtube":null,"Blog":null,"Address":"5900 N. West Point Road, Glencoe, Oklahoma 74032","State":"Oklahoma","City":"Glencoe","Street":"5900 N. West Point Road","Zip":"74032","Longitude":"-96.855802","Latitude":"36.183214","Dates":null,"Products":""}]