[{"Type":"on-farm market","ModifyDate":"Aug 13th, 2014","Image":"default-onfarmmarket-4-3.jpg","ListingID":"700033","Name":"StandingStone Farm\/Flatland Alpacas","Description":null,"ContactName":"LoriA","ContactEmail":"info@standingstonefainters.com","ContactPhone":"860-376-4658","Website":"https:\/\/www.standingstonefarm.com","Facebook":"https:\/\/www.facebook.com\/StandingStoneFainters","Twitter":null,"Instagram":null,"Pinterest":null,"Youtube":null,"Blog":null,"Address":"285 Sam Chikan Rd, Griswold, Connecticut 06351","State":"Connecticut","City":"Griswold","Street":"285 Sam Chikan Rd","Zip":"06351","Longitude":"-71.941041","Latitude":"41.5576601","Dates":null,"Products":""},{"Type":"on-farm market","ModifyDate":"Aug 13th, 2014","Image":"default-onfarmmarket-4-3.jpg","ListingID":"700790","Name":"Old Fitch Farm Vineyard","Description":null,"ContactName":"Warren strong","ContactEmail":"fitchclaremont@yahoo.com","ContactPhone":"860 8890260","Website":"Http:\/\/fitchclaremonthouse.com","Facebook":null,"Twitter":null,"Instagram":null,"Pinterest":null,"Youtube":null,"Blog":null,"Address":"83 Fitchville Road, Bozrah, Connecticut 06334","State":"Connecticut","City":"Bozrah","Street":"83 Fitchville Road","Zip":"06334","Longitude":"-72.138952","Latitude":"41.563339","Dates":null,"Products":""},{"Type":"on-farm market","ModifyDate":"Aug 15th, 2014","Image":"default-onfarmmarket-4-3.jpg","ListingID":"700598","Name":"Pell Farm","Description":null,"ContactName":"Tracy","ContactEmail":"Pellfarms@gmail.com","ContactPhone":"860-763-1643","Website":"www.pell-farms.com","Facebook":"https:\/\/www.facebook.com\/pages\/Pell-Farm\/1448216858744306","Twitter":"https:\/\/twitter.com\/PellFarm","Instagram":null,"Pinterest":null,"Youtube":null,"Blog":null,"Address":"96 Kibbe Grove Road, Somers , Connecticut 06071","State":"Connecticut","City":"Somers","Street":"96 Kibbe Grove Road","Zip":"06071","Longitude":"-72.459035","Latitude":"42.0281882","Dates":null,"Products":""},{"Type":"on-farm market","ModifyDate":"Aug 1st, 2014","Image":"default-onfarmmarket-4-3.jpg","ListingID":"700721","Name":"Walnut Ledge Farm, LLC","Description":null,"ContactName":"Joanna Kamis","ContactEmail":"info@walnutledgefarm.com","ContactPhone":"860-633-2286","Website":"www.walnutledgefarm.com","Facebook":"https:\/\/www.facebook.com\/pages\/Walnut-Ledge-Farm\/421246841298079","Twitter":null,"Instagram":null,"Pinterest":null,"Youtube":null,"Blog":null,"Address":"360 Matson Hill Road, South Glastonbury, Connecticut 06073","State":"Connecticut","City":"South Glastonbury","Street":"360 Matson Hill Road","Zip":"06073","Longitude":"-72.583278","Latitude":"41.6535280","Dates":null,"Products":""},{"Type":"on-farm market","ModifyDate":"Aug 26th, 2014","Image":"default-onfarmmarket-4-3.jpg","ListingID":"700332","Name":"Averill Farm","Description":null,"ContactName":"Susan Averill","ContactEmail":"info@averillfarm.com","ContactPhone":"860-868-2777","Website":"Www.averillfarm.com","Facebook":"https:\/\/www.facebook.com\/pages\/Averill-Farm\/159088404122324?ref=ts","Twitter":null,"Instagram":null,"Pinterest":null,"Youtube":null,"Blog":"N\/a","Address":"250 Calhoun St, Washington Depot, Connecticut 6794","State":"Connecticut","City":"Washington Depot","Street":"250 Calhoun St","Zip":"6794","Longitude":"-73.342029","Latitude":"41.664274","Dates":null,"Products":""},{"Type":"on-farm market","ModifyDate":"Aug 4th, 2014","Image":"default-onfarmmarket-4-3.jpg","ListingID":"700719","Name":"Buell's Orchard","Description":null,"ContactName":"Patty Sandness","ContactEmail":"information@buellsorchard.com","ContactPhone":"(860) 974-1150","Website":"www.buellsorchard.com","Facebook":"www.facebook.com\/pages\/Buells-Orchard\/132499357322","Twitter":"https:\/\/twitter.com\/BuellsOrchard","Instagram":null,"Pinterest":null,"Youtube":null,"Blog":null,"Address":"108 Crystal Pond Road, Eastford, Connecticut 06242","State":"Connecticut","City":"Eastford","Street":"108 Crystal Pond Road","Zip":"06242","Longitude":"-72.104312","Latitude":"41.917985","Dates":null,"Products":""},{"Type":"on-farm market","ModifyDate":"Dec 4th, 2014","Image":"default-onfarmmarket-4-3.jpg","ListingID":"701178","Name":"Pakulis Farm LLC","Description":null,"ContactName":"Sandra F Brodeur","ContactEmail":"sandy.brodeur@gmail.com","ContactPhone":"860-450-6744","Website":null,"Facebook":"https:\/\/www.facebook.com\/pakulis.farm","Twitter":null,"Instagram":null,"Pinterest":null,"Youtube":null,"Blog":null,"Address":"63 Creamery Brook Road, Brooklyn, Connecticut 06234","State":"Connecticut","City":"Brooklyn","Street":"63 Creamery Brook Road","Zip":"06234","Longitude":"-71.934901","Latitude":"41.772394","Dates":null,"Products":""},{"Type":"on-farm market","ModifyDate":"Jan 5th, 2015","Image":"default-onfarmmarket-4-3.jpg","ListingID":"701187","Name":"Blue Hills Orchard","Description":null,"ContactName":"Eric Henry","ContactEmail":"eric@bluehillsorchard.com","ContactPhone":"2032693189","Website":"bluehillsorchard.com","Facebook":"Blue Hills Orchard","Twitter":null,"Instagram":null,"Pinterest":null,"Youtube":null,"Blog":null,"Address":"141Blue Hills Rd., Wallingford, Connecticut 06492","State":"Connecticut","City":"Wallingford","Street":"141Blue Hills Rd.","Zip":"06492","Longitude":"-72.866826","Latitude":"41.4486597","Dates":null,"Products":""},{"Type":"on-farm market","ModifyDate":"Jul 20th, 2016","Image":"default-onfarmmarket-4-3.jpg","ListingID":"701362","Name":"White Stone Acres","Description":null,"ContactName":"Gina White","ContactEmail":"whitestoneacres@hotmail.com","ContactPhone":"8607104616","Website":"www.whitestoneacres.com","Facebook":"www.facebook.com\/whitestoneacres","Twitter":null,"Instagram":null,"Pinterest":null,"Youtube":null,"Blog":null,"Address":"113 South Rd, Winchester Center, Connecticut 06098","State":"Connecticut","City":"Winchester Center","Street":"113 South Rd","Zip":"06098","Longitude":"-73.131064","Latitude":"41.896949","Dates":null,"Products":""},{"Type":"on-farm market","ModifyDate":"Jul 26th, 2014","Image":"default-onfarmmarket-4-3.jpg","ListingID":"700253","Name":"Sepe Farm LLC","Description":null,"ContactName":"Peter Sepe","ContactEmail":"pasepe@juno.com","ContactPhone":"203-270-9507","Website":"www.sepefarm.com","Facebook":"https:\/\/www.facebook.com\/SepeFarm","Twitter":null,"Instagram":null,"Pinterest":null,"Youtube":null,"Blog":null,"Address":"83 Toddy Hill Road, Sandy Hook, Connecticut 06482","State":"Connecticut","City":"Sandy Hook","Street":"83 Toddy Hill Road","Zip":"06482","Longitude":"-73.258523","Latitude":"41.391519","Dates":null,"Products":""},{"Type":"on-farm market","ModifyDate":"Jul 26th, 2014","Image":"default-onfarmmarket-4-3.jpg","ListingID":"700475","Name":"Starberry Farm","Description":null,"ContactName":"Bob and Sally Futh","ContactEmail":"Starberry@snet.net","ContactPhone":"(860) 868-2863  Fax:","Website":null,"Facebook":null,"Twitter":null,"Instagram":null,"Pinterest":null,"Youtube":null,"Blog":null,"Address":"47 & 81 Kielwasser Road, Washington Depot, Connecticut 06794","State":"Connecticut","City":"Washington Depot","Street":"47 & 81 Kielwasser Road","Zip":"06794","Longitude":"-73.335148","Latitude":"41.664623","Dates":null,"Products":""},{"Type":"on-farm market","ModifyDate":"Jul 27th, 2014","Image":"default-onfarmmarket-4-3.jpg","ListingID":"700008","Name":"Whippoorwill Farm","Description":null,"ContactName":"Allen and Robin Cockerline","ContactEmail":"info@whippoorwillfarmct.com","ContactPhone":"860-435-2089","Website":"WhippoorwillFarmCT.com","Facebook":"https:\/\/www.facebook.com\/WhippoorwillFarm","Twitter":null,"Instagram":null,"Pinterest":null,"Youtube":null,"Blog":null,"Address":"189 Salmon Kill Rd, Salisbury, Connecticut 06039","State":"Connecticut","City":"Salisbury","Street":"189 Salmon Kill Rd","Zip":"06039","Longitude":"-73.401747","Latitude":"41.964324","Dates":null,"Products":""},{"Type":"on-farm market","ModifyDate":"Jul 27th, 2014","Image":"default-onfarmmarket-4-3.jpg","ListingID":"700780","Name":"Lost Acres Orchard","Description":null,"ContactName":null,"ContactEmail":"ginny@lostacres.com","ContactPhone":"(860) 653-6600","Website":"www.lostacres.com","Facebook":null,"Twitter":null,"Instagram":null,"Pinterest":null,"Youtube":null,"Blog":null,"Address":"130 Lost Acres Road, North Granby, Connecticut 6060","State":"Connecticut","City":"North Granby","Street":"130 Lost Acres Road","Zip":"6060","Longitude":"-72.861531","Latitude":"42.0095720","Dates":null,"Products":""},{"Type":"on-farm market","ModifyDate":"Jul 28th, 2014","Image":"default-onfarmmarket-4-3.jpg","ListingID":"700522","Name":"Cheney Family Farm","Description":null,"ContactName":"Cheney Family Farm","ContactEmail":"cheneyfamilyfarm@gmail.com","ContactPhone":"860-866-8355","Website":"www.cheneyfamilyfarm.com","Facebook":"https:\/\/www.facebook.com\/CheneyFamilyFarm?ref_type=bookmark","Twitter":null,"Instagram":null,"Pinterest":null,"Youtube":null,"Blog":null,"Address":"144 Mansfield Rd, Harwinton, Connecticut 06791","State":"Connecticut","City":"Harwinton","Street":"144 Mansfield Rd","Zip":"06791","Longitude":"-73.100964","Latitude":"41.745224","Dates":null,"Products":""},{"Type":"on-farm market","ModifyDate":"Jul 30th, 2014","Image":"default-onfarmmarket-4-3.jpg","ListingID":"700225","Name":"Staehly Farms","Description":null,"ContactName":"Christopher Staehly","ContactEmail":"staehlys@att.net","ContactPhone":"860-873-9774","Website":"http:\/\/www.staehlys.com\/","Facebook":"https:\/\/www.facebook.com\/Staehlys","Twitter":null,"Instagram":null,"Pinterest":null,"Youtube":null,"Blog":null,"Address":"278 Town Street, East Haddam, Connecticut 6423","State":"Connecticut","City":"East Haddam","Street":"278 Town Street","Zip":"6423","Longitude":"-72.432965","Latitude":"41.453149","Dates":null,"Products":""},{"Type":"on-farm market","ModifyDate":"Jul 6th, 2016","Image":"default-onfarmmarket-4-3.jpg","ListingID":"700687","Name":"The Village Farm","Description":null,"ContactName":"Lise goedewaagen","ContactEmail":"LGoed@aol.com","ContactPhone":"860 354-7008","Website":null,"Facebook":"The  Village Farm and World\\'s Best Wreaths","Twitter":null,"Instagram":null,"Pinterest":null,"Youtube":null,"Blog":null,"Address":"682 Kent Rd., Gaylordsville, Connecticut 06755","State":"Connecticut","City":"Gaylordsville","Street":"682 Kent Rd.","Zip":"06755","Longitude":"-73.483988","Latitude":"41.643795","Dates":null,"Products":""},{"Type":"on-farm market","ModifyDate":"Jun 10th, 2016","Image":"default-onfarmmarket-4-3.jpg","ListingID":"700727","Name":"Raspberry Knoll Farm LLC","Description":null,"ContactName":"Mary Concklin","ContactEmail":"mary@raspberryknoll.com","ContactPhone":"860-786-7486","Website":"www.raspberryknoll.com","Facebook":"www\/facebook.com\/raspberryknoll","Twitter":null,"Instagram":null,"Pinterest":null,"Youtube":null,"Blog":null,"Address":"163 North Windham Rd, North Windham, Connecticut 06256","State":"Connecticut","City":"North Windham","Street":"163 North Windham Rd","Zip":"06256","Longitude":"-72.166800","Latitude":"41.721441","Dates":null,"Products":""},{"Type":"on-farm market","ModifyDate":"Mar 23rd, 2015","Image":"default-onfarmmarket-4-3.jpg","ListingID":"700286","Name":"Laurel Ridge Grass Fed Beef","Description":null,"ContactName":"John Morosani","ContactEmail":"john@lrgfb.com","ContactPhone":"860-567-8122","Website":"www.lrgfb.com","Facebook":null,"Twitter":null,"Instagram":null,"Pinterest":null,"Youtube":null,"Blog":null,"Address":"66 Wigwam Road, Litchfield, Connecticut 6759","State":"Connecticut","City":"Litchfield","Street":"66 Wigwam Road","Zip":"6759","Longitude":"-73.134770","Latitude":"41.703911","Dates":null,"Products":""},{"Type":"on-farm market","ModifyDate":"Mar 24th, 2015","Image":"default-onfarmmarket-4-3.jpg","ListingID":"700584","Name":"Bishops Orchards location 1","Description":null,"ContactName":null,"ContactEmail":"pyoinfo@bishopsorchards.com","ContactPhone":"(203) 458-7425","Website":"www.bishopsorchards.com","Facebook":null,"Twitter":null,"Instagram":null,"Pinterest":null,"Youtube":null,"Blog":null,"Address":"1355 Boston Post Road, Guilford, Connecticut 06437","State":"Connecticut","City":"Guilford","Street":"1355 Boston Post Road","Zip":"06437","Longitude":"-72.694628","Latitude":"41.289406","Dates":null,"Products":""},{"Type":"on-farm market","ModifyDate":"Mar 30th, 2022","Image":"csa_200704_10242_20220330133407.png","ListingID":"701652","Name":"Howling Flats Farm","Description":"Howling Flats Farm is a small family farm in the NW Corner of Connecticut raising Certified Humane Grass fed Angus, pasture raised pork and lamb utilizing holistic management practices.","ContactName":"Kelley Babbin","ContactEmail":"howlingflatsfarm@gmail.com","ContactPhone":"860-379-8961","Website":"www.howlingflatsfarm.com","Facebook":"www.facebook.com\/howlingflatsfarm","Twitter":"","Instagram":"https:\/\/www.instagram.com\/howlingflatsfarmer\/","Pinterest":"","Youtube":"","Blog":"","Address":"19 Raymond Avenue, North Canaan, Connecticut 06018","State":"Connecticut","City":"North Canaan","Street":"19 Raymond Ave","Zip":"06018","Longitude":"-73.3552462","Latitude":"42.0103946","Dates":"Year-round","Products":"Poultry\/fowl meat and products"},{"Type":"on-farm market","ModifyDate":"Nov 30th, 2016","Image":"default-onfarmmarket-4-3.jpg","ListingID":"701375","Name":"Rose Orchards","Description":null,"ContactName":"Tyler Rose","ContactEmail":"roseorchardsfarm.com","ContactPhone":"203-488-7996","Website":"roseorchardsfarm.com","Facebook":"https:\/\/www.facebook.com\/roseorchardsfarm\/","Twitter":null,"Instagram":null,"Pinterest":null,"Youtube":null,"Blog":null,"Address":"33 Branford rd., North Branford, Connecticut 06471","State":"Connecticut","City":"North Branford","Street":"33 Branford rd.","Zip":"06471","Longitude":"-72.771086","Latitude":"41.3078192","Dates":null,"Products":""},{"Type":"on-farm market","ModifyDate":"Oct 15th, 2014","Image":"default-onfarmmarket-4-3.jpg","ListingID":"700157","Name":"Common Ground CSA","Description":null,"ContactName":"Jessica & Jeffrey","ContactEmail":"commongroundcsa@gmail.com","ContactPhone":"860-316-8368","Website":"www.commongroundcsa.com","Facebook":"https:\/\/www.facebook.com\/commongroundcsa","Twitter":null,"Instagram":null,"Pinterest":null,"Youtube":null,"Blog":null,"Address":"46 Lake Hayward Town Road, Colchester, Connecticut 06415","State":"Connecticut","City":"Colchester","Street":"46 Lake Hayward Town Road","Zip":"06415","Longitude":"-72.337980","Latitude":"41.519525","Dates":null,"Products":""},{"Type":"on-farm market","ModifyDate":"Oct 15th, 2014","Image":"default-onfarmmarket-4-3.jpg","ListingID":"701138","Name":"COLD SPRING FARM at Lake Hayward","Description":null,"ContactName":"Jessica & Jeffrey","ContactEmail":"coldspringfarm@icloud.com","ContactPhone":"860-316-8368","Website":null,"Facebook":null,"Twitter":null,"Instagram":null,"Pinterest":null,"Youtube":null,"Blog":null,"Address":", East Haddam, Connecticut 06423","State":"Connecticut","City":"East Haddam","Street":null,"Zip":"06423","Longitude":"-72.475776","Latitude":"41.5034351","Dates":null,"Products":""},{"Type":"on-farm market","ModifyDate":"Sep 14th, 2014","Image":"default-onfarmmarket-4-3.jpg","ListingID":"700494","Name":"Devon Point Farm","Description":null,"ContactName":"Patty Taylor","ContactEmail":"devonpointfarm@gmail.com","ContactPhone":"860-974-9004","Website":"http:\/\/www.devonpointfarm.com","Facebook":null,"Twitter":null,"Instagram":null,"Pinterest":null,"Youtube":null,"Blog":null,"Address":"54 Joy Road, Woodstock, Connecticut 6281","State":"Connecticut","City":"Woodstock","Street":"54 Joy Road","Zip":"6281","Longitude":"-71.986364","Latitude":"41.955761","Dates":null,"Products":""},{"Type":"on-farm market","ModifyDate":"Sep 16th, 2014","Image":"default-onfarmmarket-4-3.jpg","ListingID":"700683","Name":"Oak Haven Farm","Description":null,"ContactName":"ROBERT BRAUTIGAM","ContactEmail":"lmsmith@snet.net","ContactPhone":"(860) 456-3333","Website":"lmsmith@snet.net","Facebook":null,"Twitter":null,"Instagram":null,"Pinterest":null,"Youtube":null,"Blog":null,"Address":"113 Khourie Road, Scotland, Connecticut 06264","State":"Connecticut","City":"Scotland","Street":"113 Khourie Road","Zip":"06264","Longitude":"-72.077528","Latitude":"41.684190","Dates":null,"Products":""},{"Type":"on-farm market","ModifyDate":"Sep 23rd, 2014","Image":"default-onfarmmarket-4-3.jpg","ListingID":"701092","Name":"Holbrook Farm Market and Bakery","Description":null,"ContactName":"Jessica Wong","ContactEmail":"jwong1817@gmail.com","ContactPhone":"203-979-1817","Website":"http:\/\/holbrookfarm.net\/index.html","Facebook":"https:\/\/www.facebook.com\/pages\/Holbrook-Farm\/201052823263981?ref=br_tf","Twitter":null,"Instagram":null,"Pinterest":null,"Youtube":null,"Blog":null,"Address":"45 Turkey Plain RD, Bethel, Connecticut 06801","State":"Connecticut","City":"Bethel","Street":"45 Turkey Plain RD","Zip":"06801","Longitude":"-73.416749","Latitude":"41.3462840","Dates":null,"Products":""},{"Type":"on-farm market","ModifyDate":"Sep 27th, 2014","Image":"default-onfarmmarket-4-3.jpg","ListingID":"701103","Name":"Mike's Beehives LLC","Description":null,"ContactName":"Mike\\'s Beehives LLC","ContactEmail":"mikesbeehives@gmail.com","ContactPhone":"2036482942","Website":"www.mikesbeehives.com","Facebook":"Mike\\'s Beehives LLC","Twitter":"Mike\\'s  Beehives","Instagram":null,"Pinterest":null,"Youtube":null,"Blog":"www.mikesbeehives.com","Address":"94 Mallory Rd, Roxbury, Connecticut 06783","State":"Connecticut","City":"Roxbury","Street":"94 Mallory Rd","Zip":"06783","Longitude":"-73.291478","Latitude":"41.516591","Dates":null,"Products":""},{"Type":"on-farm market","ModifyDate":"Sep 30th, 2014","Image":"default-onfarmmarket-4-3.jpg","ListingID":"700222","Name":"Stone Bridge Farm Alpacas","Description":null,"ContactName":"Denise Curran","ContactEmail":"stonebridgealpacas@ct.metrocast.net","ContactPhone":"860-376-5027","Website":"http:\/\/www.stonebridgealpacas.com\/","Facebook":"https:\/\/www.facebook.com\/stonebridgealpacas","Twitter":null,"Instagram":null,"Pinterest":null,"Youtube":null,"Blog":null,"Address":"116 Crary Rd., Griswold, Connecticut 06351","State":"Connecticut","City":"Griswold","Street":"116 Crary Rd.","Zip":"06351","Longitude":"-71.950160","Latitude":"41.568413","Dates":null,"Products":""}]