[{"Type":"on-farm market","ModifyDate":"Apr 14th, 2022","Image":"onfarmmarket_700899_13144_20220414121248.png","ListingID":"700899","Name":"Skelly's Farm Market","Description":"Skelly\\'s Farm Market is open from June-Oct with homegrown strawberries in June, sweet corn, melons, tomatoes, and other summer produce in July-Aug, Skelly\\'s Sunflower Experience in late July lasting two weeks, and lots of fall fun including pumpkins, two awesome corn mazes, Choose-Your-Farm-Adventure wagons rides, and more. Plus, during all of our seasons visit our bakery with homemade donuts and more, our huge gift shop selling rustic decor, and our fantastic free playground.\n\nPlus, visit our 8 remote roadside stands for produce in July-Aug, an see us at the Saturday Janesville Farmers Market.","ContactName":"","ContactEmail":"","ContactPhone":"608-757-1200","Website":"www.skellysfarmmarket.com","Facebook":"www.facebook.com\/skellysfarmmarket","Twitter":"https:\/\/twitter.com\/skellysfarm","Instagram":"https:\/\/instagram.com\/skellysfarm","Pinterest":"https:\/\/www.pinterest.com\/skellysfarm","Youtube":"","Blog":"","Address":"2713 Hayner Road, Janesville, Wisconsin 53548","State":"Wisconsin","City":"Janesville","Street":"2713 Hayner Road","Zip":"53548","Longitude":"-89.080485","Latitude":"42.641113","Dates":null,"Products":""},{"Type":"on-farm market","ModifyDate":"Apr 17th, 2019","Image":"default-onfarmmarket-4-3.jpg","ListingID":"701478","Name":"Valhalla Hills LLC","Description":null,"ContactName":"Geoff Briggs","ContactEmail":"valhallahillsfarm@gmail.com","ContactPhone":"608-322-7550","Website":null,"Facebook":null,"Twitter":null,"Instagram":null,"Pinterest":null,"Youtube":null,"Blog":null,"Address":"74 County Road F, Blanchardville, Wisconsin 53516","State":"Wisconsin","City":"Blanchardville","Street":"74 County Road F","Zip":"53516","Longitude":"-89.865292","Latitude":"42.817160","Dates":null,"Products":""},{"Type":"on-farm market","ModifyDate":"Apr 22nd, 2015","Image":"default-onfarmmarket-4-3.jpg","ListingID":"700979","Name":"Scotch and Soda Acres","Description":null,"ContactName":"greg","ContactEmail":"gregsz2001@yahoo.com","ContactPhone":"715-302-2311","Website":null,"Facebook":null,"Twitter":null,"Instagram":null,"Pinterest":null,"Youtube":null,"Blog":null,"Address":"4958 thomas hill rd, edgar, Wisconsin 54426","State":"Wisconsin","City":"edgar","Street":"4958 thomas hill rd","Zip":"54426","Longitude":"-89.949112","Latitude":"44.920106","Dates":null,"Products":""},{"Type":"on-farm market","ModifyDate":"Apr 4th, 2016","Image":"default-onfarmmarket-4-3.jpg","ListingID":"701323","Name":"Schott Farm","Description":null,"ContactName":"Labecca Schott","ContactEmail":"labecca.johnson@me.com","ContactPhone":"507-495-4352","Website":"http:\/\/schottfarm.com\/","Facebook":null,"Twitter":null,"Instagram":null,"Pinterest":null,"Youtube":null,"Blog":null,"Address":"711 Railroad Avenue, Viroqua, Wisconsin 54665","State":"Wisconsin","City":"Viroqua","Street":"711 Railroad Avenue","Zip":"54665","Longitude":"-90.878455","Latitude":"43.5619804","Dates":null,"Products":""},{"Type":"on-farm market","ModifyDate":"Aug 13th, 2014","Image":"default-onfarmmarket-4-3.jpg","ListingID":"700737","Name":"Elegant Farmer","Description":null,"ContactName":null,"ContactEmail":"info@elegantfarmer.com","ContactPhone":"262-363-6770","Website":null,"Facebook":null,"Twitter":null,"Instagram":null,"Pinterest":null,"Youtube":null,"Blog":null,"Address":"1545 Main Street, Mukwonago, Wisconsin 53149","State":"Wisconsin","City":"Mukwonago","Street":"1545 Main Street","Zip":"53149","Longitude":"-88.3444","Latitude":"42.841521","Dates":null,"Products":""},{"Type":"on-farm market","ModifyDate":"Aug 24th, 2014","Image":"default-onfarmmarket-4-3.jpg","ListingID":"700909","Name":"Field to Fork Farm and Market","Description":null,"ContactName":"Peter Bakke","ContactEmail":"fieldtoforkfarms@wi.rr.com","ContactPhone":"2625248263","Website":"www.fieldtoforkfarms.com","Facebook":"https:\/\/www.facebook.com\/pages\/Field-To-Fork-Farms\/444165995616374?ref=hl","Twitter":null,"Instagram":null,"Pinterest":null,"Youtube":null,"Blog":null,"Address":"1500 S Springdale Road, Waukesha, Wisconsin 53186","State":"Wisconsin","City":"Waukesha","Street":"1500 S Springdale Road","Zip":"53186","Longitude":"-88.185068","Latitude":"43.0159300","Dates":null,"Products":""},{"Type":"on-farm market","ModifyDate":"Aug 25th, 2014","Image":"default-onfarmmarket-4-3.jpg","ListingID":"700932","Name":"Rushing Waters Fisheries, LLC","Description":null,"ContactName":"Peter J. Fritsch","ContactEmail":"peterf@rushingwaters.net","ContactPhone":"262-495-2089","Website":"www.rushingwaters.net","Facebook":null,"Twitter":null,"Instagram":null,"Pinterest":null,"Youtube":null,"Blog":null,"Address":"N301 County Rd. H \/ PO Box H, Palmyra, Wisconsin 53156","State":"Wisconsin","City":"Palmyra","Street":"N301 County Rd. H \/ PO Box H","Zip":"53156","Longitude":"-88.609618","Latitude":"42.854952","Dates":null,"Products":""},{"Type":"on-farm market","ModifyDate":"Aug 26th, 2014","Image":"default-onfarmmarket-4-3.jpg","ListingID":"700304","Name":"Sassy Cow Creamery","Description":null,"ContactName":"Kara Kasten","ContactEmail":"info@sassycowcreamery.com","ContactPhone":"608-837-7766","Website":"www.sassycowcreamery.com","Facebook":"https:\/\/www.facebook.com\/pages\/Sassy-Cow-Creamery\/53518889031","Twitter":null,"Instagram":null,"Pinterest":null,"Youtube":null,"Blog":null,"Address":"W4192 Bristol Rd, Columbus, Wisconsin 53925","State":"Wisconsin","City":"Columbus","Street":"W4192 Bristol Rd","Zip":"53925","Longitude":"-89.211417","Latitude":"43.282549","Dates":null,"Products":""},{"Type":"on-farm market","ModifyDate":"Aug 26th, 2014","Image":"default-onfarmmarket-4-3.jpg","ListingID":"700547","Name":"Blue Ridge Growers Orchard Nursery","Description":null,"ContactName":"Jill Barthen Berke","ContactEmail":"blueridge@baldwin-telecom.net","ContactPhone":"715 425 8289","Website":"www.facebook.com\/WIFarmFreshAtlas","Facebook":"https:\/\/www.facebook.com\/WIFarmFreshAtlas","Twitter":null,"Instagram":null,"Pinterest":null,"Youtube":null,"Blog":null,"Address":"246 Carlson Lane, River Falls, Wisconsin 54022","State":"Wisconsin","City":"River Falls","Street":"246 Carlson Lane","Zip":"54022","Longitude":"-92.709957","Latitude":"44.895888","Dates":null,"Products":""},{"Type":"on-farm market","ModifyDate":"Aug 26th, 2014","Image":"default-onfarmmarket-4-3.jpg","ListingID":"700615","Name":"Oakridge Farms","Description":null,"ContactName":"Jodi Schultz","ContactEmail":"oakridgeberries@gmail.com","ContactPhone":"920-725-1541","Website":"http:\/\/oakridgeberries.com\/","Facebook":"https:\/\/www.facebook.com\/pages\/Oakridge-Farms\/80596262554","Twitter":"https:\/\/twitter.com\/oakridgeberries","Instagram":null,"Pinterest":null,"Youtube":null,"Blog":"http:\/\/oakridgeberries.com\/blog","Address":"125 County Road CB, Neenah, Wisconsin 54956","State":"Wisconsin","City":"Neenah","Street":"125 County Road CB","Zip":"54956","Longitude":"-88.504904","Latitude":"44.179237","Dates":null,"Products":""},{"Type":"on-farm market","ModifyDate":"Aug 26th, 2014","Image":"default-onfarmmarket-4-3.jpg","ListingID":"700943","Name":"The Gardens @ Michael Fields","Description":null,"ContactName":"Christine Welcher","ContactEmail":"thegardens@michaelfields.org","ContactPhone":"262-642-3303 ext 127","Website":"www.michaelfields.org","Facebook":"www.facebook.com\/MichaelFieldsAgriculturalInstitute","Twitter":"twitter.com\/MichaelFieldsAg","Instagram":null,"Pinterest":null,"Youtube":null,"Blog":null,"Address":"W2493 Cty Rd ES, East Troy, Wisconsin 53120","State":"Wisconsin","City":"East Troy","Street":"W2493 Cty Rd ES","Zip":"53120","Longitude":"-88.424892","Latitude":"42.7825894","Dates":null,"Products":""},{"Type":"on-farm market","ModifyDate":"Aug 28th, 2014","Image":"default-onfarmmarket-4-3.jpg","ListingID":"700109","Name":"Lotis Alpacas","Description":null,"ContactName":"Lori Dvorak","ContactEmail":"lotis12@g2a.net","ContactPhone":"715-325-5605","Website":"www.lotisalpacas.com","Facebook":"https:\/\/www.facebook.com\/lotisalpacas?ref=ts&fref=ts","Twitter":null,"Instagram":null,"Pinterest":null,"Youtube":null,"Blog":null,"Address":"704 Hillcrest Avenue, Nekoosa, Wisconsin 54457","State":"Wisconsin","City":"Nekoosa","Street":"704 Hillcrest Avenue","Zip":"54457","Longitude":"-89.853047","Latitude":"44.2665210","Dates":null,"Products":""},{"Type":"on-farm market","ModifyDate":"Aug 28th, 2014","Image":"default-onfarmmarket-4-3.jpg","ListingID":"700973","Name":"Blue Gentian Farm","Description":null,"ContactName":"Darryle Powers","ContactEmail":"darryle@frontiernet.net","ContactPhone":"715-781-8169","Website":null,"Facebook":null,"Twitter":"https:\/\/www.twitter.com\/bgfarmboy","Instagram":null,"Pinterest":null,"Youtube":null,"Blog":null,"Address":"1990 Hwy 46, New Richmond, Wisconsin 54017","State":"Wisconsin","City":"New Richmond","Street":"1990 Hwy 46","Zip":"54017","Longitude":"-92.384113","Latitude":"45.1486124","Dates":null,"Products":""},{"Type":"on-farm market","ModifyDate":"Aug 28th, 2014","Image":"default-onfarmmarket-4-3.jpg","ListingID":"700977","Name":"Adoni Arces Family Farm LLC","Description":null,"ContactName":"Adoni Acres Family Farm","ContactEmail":"bmoschel@mwt.net","ContactPhone":"608-452-2930","Website":null,"Facebook":null,"Twitter":null,"Instagram":null,"Pinterest":null,"Youtube":null,"Blog":null,"Address":"S387 Korthals Ln. , Chaseburg, Wisconsin 45621","State":"Wisconsin","City":"Chaseburg","Street":"S387 Korthals Ln.","Zip":"45621","Longitude":"-91.110271","Latitude":"43.7134959","Dates":null,"Products":""},{"Type":"on-farm market","ModifyDate":"Aug 29th, 2014","Image":"default-onfarmmarket-4-3.jpg","ListingID":"700982","Name":"Sternitzky Specialty Foods LLC \/ DBA The Maple Dude","Description":null,"ContactName":"Tim","ContactEmail":"tim@themapledude.com","ContactPhone":"7155713329","Website":"www.themapledude.com","Facebook":"https:\/\/www.facebook.com\/pages\/The-Maple-Dude\/582639041784552","Twitter":"https:\/\/www.twitter.com\/themapledude.com","Instagram":null,"Pinterest":null,"Youtube":null,"Blog":null,"Address":"W1417 US HWY 10, Granton, Wisconsin 54436","State":"Wisconsin","City":"Granton","Street":"W1417 US HWY 10","Zip":"54436","Longitude":"-90.383979","Latitude":"44.582582","Dates":null,"Products":""},{"Type":"on-farm market","ModifyDate":"Aug 31st, 2014","Image":"default-onfarmmarket-4-3.jpg","ListingID":"700675","Name":"Maple Ridge Orchard","Description":null,"ContactName":"Domingo Rodriguez","ContactEmail":"mapleridgeorchard@me.com","ContactPhone":"608-654-5151","Website":"www.mapleridgeorchard.com","Facebook":"https:\/\/www.facebook.com\/pages\/Maple-Ridge-Orchard\/346451842039608","Twitter":null,"Instagram":null,"Pinterest":null,"Youtube":null,"Blog":null,"Address":"6675 Maple Ave, Cashton, Wisconsin 54619","State":"Wisconsin","City":"Cashton","Street":"6675 Maple Ave","Zip":"54619","Longitude":"-90.859717","Latitude":"43.7993250","Dates":null,"Products":""},{"Type":"on-farm market","ModifyDate":"Aug 31st, 2014","Image":"default-onfarmmarket-4-3.jpg","ListingID":"700997","Name":"Sweet Wisconsin Honey Farm","Description":null,"ContactName":"Shawn & Kerrie Bahr","ContactEmail":"Bahrtrap@centurytel.net","ContactPhone":"608-635-3876","Website":null,"Facebook":null,"Twitter":null,"Instagram":null,"Pinterest":null,"Youtube":null,"Blog":null,"Address":"N4249 HWY 51, Poynette, Wisconsin 53955","State":"Wisconsin","City":"Poynette","Street":"N4249 HWY 51","Zip":"53955","Longitude":"-89.402007","Latitude":"43.426767","Dates":null,"Products":""},{"Type":"on-farm market","ModifyDate":"Aug 4th, 2014","Image":"default-onfarmmarket-4-3.jpg","ListingID":"700627","Name":"Apple Valley Orchard LLC","Description":null,"ContactName":"Bev Van ELzen","ContactEmail":"bev@applevalleyllc.com","ContactPhone":"920-336-0667","Website":"AppleValleyLLC.com","Facebook":"https:\/\/www.facebook.com\/pages\/Apple-Valley-Orchard\/117313941615608","Twitter":null,"Instagram":null,"Pinterest":null,"Youtube":null,"Blog":null,"Address":"1670 Mar-El Road, DePere, Wisconsin 54115","State":"Wisconsin","City":"DePere","Street":"1670 Mar-El Road","Zip":"54115","Longitude":"-88.092893","Latitude":"44.378637","Dates":null,"Products":""},{"Type":"on-farm market","ModifyDate":"Aug 6th, 2020","Image":"default-onfarmmarket-4-3.jpg","ListingID":"701545","Name":"Observatory Hill Farm LLC","Description":null,"ContactName":"Cindy and Mark Mackenzie","ContactEmail":"shepherd@observatoryhillfarm.com","ContactPhone":"608-424-1581","Website":"http:\/\/observatoryhillfarm.com\/","Facebook":null,"Twitter":null,"Instagram":null,"Pinterest":null,"Youtube":null,"Blog":null,"Address":"1017 Observatory Hill Rd., Belleville, Wisconsin 53508","State":"Wisconsin","City":"Belleville","Street":"1017 Observatory Hill Rd.","Zip":"53508","Longitude":"-89.559045","Latitude":"42.909700","Dates":null,"Products":""},{"Type":"on-farm market","ModifyDate":"Aug 9th, 2014","Image":"default-onfarmmarket-4-3.jpg","ListingID":"700211","Name":"Out to Pasture Beef","Description":null,"ContactName":"Vic and Mary Price","ContactEmail":"theprices@outtopasturebeef.com","ContactPhone":"715-877-3129","Website":"www.outtopasturebeef.com","Facebook":null,"Twitter":null,"Instagram":null,"Pinterest":null,"Youtube":null,"Blog":null,"Address":"E13240 E Hillsdale Dr, Fall Creek, Wisconsin 54742","State":"Wisconsin","City":"Fall Creek","Street":"E13240 E Hillsdale Dr","Zip":"54742","Longitude":"-91.261903","Latitude":"44.690853","Dates":null,"Products":""},{"Type":"on-farm market","ModifyDate":"Dec 17th, 2015","Image":"default-onfarmmarket-4-3.jpg","ListingID":"701308","Name":"Behnkes Grass Fed Beef & Pasture Pork","Description":null,"ContactName":"Dale Behnke","ContactEmail":"info@behnkefarms.com","ContactPhone":"920-829-5196","Website":null,"Facebook":"https:\/\/www.facebook.com\/Behnkes-Grass-Fed-Beef-And-Pasture-Pork-250614411763880\/?fref=ts&ref=br_tf","Twitter":null,"Instagram":null,"Pinterest":null,"Youtube":null,"Blog":null,"Address":"4420 Behnke rd, lena , Wisconsin 54139","State":"Wisconsin","City":"lena","Street":"4420 Behnke rd","Zip":"54139","Longitude":"-87.980007","Latitude":"44.999195","Dates":null,"Products":""},{"Type":"on-farm market","ModifyDate":"Dec 1st, 2014","Image":"default-onfarmmarket-4-3.jpg","ListingID":"700297","Name":"West Star Organics","Description":null,"ContactName":"Randy Kohn","ContactEmail":"information@weststarorganics.com","ContactPhone":"608-347-4346","Website":"www.weststarfarm.com","Facebook":"https:\/\/www.facebook.com\/pages\/West-Star-Organics\/77210898093?ref=hl","Twitter":"https:\/\/twitter.com\/WestStarFarm","Instagram":null,"Pinterest":null,"Youtube":null,"Blog":null,"Address":"2555 West Star Rd, Cottage Grove, Wisconsin 53527","State":"Wisconsin","City":"Cottage Grove","Street":"2555 West Star Rd","Zip":"53527","Longitude":"-89.202571","Latitude":"43.013389","Dates":null,"Products":""},{"Type":"on-farm market","ModifyDate":"Dec 1st, 2016","Image":"default-onfarmmarket-4-3.jpg","ListingID":"701376","Name":"Timber Coulee Outfitters","Description":null,"ContactName":"Charles Burke","ContactEmail":"cburke@nwtf.net","ContactPhone":"6086343886","Website":null,"Facebook":null,"Twitter":null,"Instagram":null,"Pinterest":null,"Youtube":null,"Blog":null,"Address":"E7624 County Road P, Westby, Wisconsin 54667","State":"Wisconsin","City":"Westby","Street":"E7624 County Road P","Zip":"54667","Longitude":"-90.870672","Latitude":"43.707198","Dates":null,"Products":""},{"Type":"on-farm market","ModifyDate":"Dec 28th, 2015","Image":"default-onfarmmarket-4-3.jpg","ListingID":"701309","Name":"Sugar Hill Sugar Bush LLC","Description":null,"ContactName":"Arlo Schlund","ContactEmail":"syrup@sugarhillsugarbush.com","ContactPhone":"715-842-1017","Website":"www.sugarhillsugarbush.com","Facebook":"www.facebook.com\/Sugarhillsugarbush","Twitter":null,"Instagram":null,"Pinterest":null,"Youtube":null,"Blog":null,"Address":"10108 Sugar Hill Lane, Wausau , Wisconsin 54403","State":"Wisconsin","City":"Wausau","Street":"10108 Sugar Hill Lane","Zip":"54403","Longitude":"-89.496442","Latitude":"44.982007","Dates":null,"Products":""},{"Type":"on-farm market","ModifyDate":"Feb 17th, 2015","Image":"default-onfarmmarket-4-3.jpg","ListingID":"701210","Name":"Borner Farm Project","Description":null,"ContactName":"Diane Webster","ContactEmail":"bornerfarmproject@gmail.com","ContactPhone":"651-235-4906","Website":"bornerfarmproject.com","Facebook":"Borner Farm Project","Twitter":null,"Instagram":null,"Pinterest":null,"Youtube":null,"Blog":null,"Address":"1266 Walnut St, Prescott , Wisconsin 54021","State":"Wisconsin","City":"Prescott","Street":"1266 Walnut St","Zip":"54021","Longitude":"-92.789672","Latitude":"44.751793","Dates":null,"Products":""},{"Type":"on-farm market","ModifyDate":"Jan 19th, 2022","Image":"default-onfarmmarket-4-3.jpg","ListingID":"701629","Name":"Backyard Acres at Flying Tractor Farm","Description":null,"ContactName":"Miranda Hottenroth","ContactEmail":"mylocalfamilyfarmer@gmail.com","ContactPhone":"9202434200","Website":"www.backyardacres.com","Facebook":"https:\/\/www.facebook.com\/BackyardAcres101","Twitter":null,"Instagram":null,"Pinterest":null,"Youtube":null,"Blog":null,"Address":"5324 Whitefish Bay Rd, Sturgeon Bay, Wisconsin 54235","State":"Wisconsin","City":"Sturgeon Bay","Street":"5324 Whitefish Bay Rd","Zip":"54235","Longitude":"-87.323842","Latitude":"44.907745","Dates":null,"Products":""},{"Type":"on-farm market","ModifyDate":"Jul 10th, 2021","Image":"default-onfarmmarket-4-3.jpg","ListingID":"701605","Name":"Holly Hill Ranch","Description":null,"ContactName":"Eleanor Mocker","ContactEmail":"Hollyhillranch@yahoo.com","ContactPhone":"715-412-0477","Website":null,"Facebook":null,"Twitter":null,"Instagram":null,"Pinterest":null,"Youtube":null,"Blog":null,"Address":", Almond , Wisconsin 54909","State":"Wisconsin","City":"Almond","Street":null,"Zip":"54909","Longitude":"-89.339866","Latitude":"44.331018","Dates":null,"Products":""},{"Type":"on-farm market","ModifyDate":"Jul 12th, 2016","Image":"default-onfarmmarket-4-3.jpg","ListingID":"701354","Name":"Meyer's Farm Market","Description":null,"ContactName":"Bryan Meyer","ContactEmail":"info@meyersfarmmarket.com","ContactPhone":"608-754-0247","Website":"www.meyersfarmmarket.com","Facebook":"www.facebook.com\/meyersfarmmarket","Twitter":null,"Instagram":null,"Pinterest":null,"Youtube":null,"Blog":null,"Address":"1329 E M-H Townline Road, Milton , Wisconsin 53563","State":"Wisconsin","City":"Milton","Street":"1329 E M-H Townline Road","Zip":"53563","Longitude":"-89.007693","Latitude":"42.7604481","Dates":null,"Products":""},{"Type":"on-farm market","ModifyDate":"Jul 1st, 2020","Image":"default-onfarmmarket-4-3.jpg","ListingID":"701533","Name":"Spring Creek Meats","Description":null,"ContactName":"Hannah Clark","ContactEmail":"springcreekmeatsandmore@gmail.com","ContactPhone":"715-214-5220","Website":"https:\/\/www.springcreekmeats.com\/","Facebook":"https:\/\/m.facebook.com\/SpringCreekMeats\/?tsid=0.7024591669409054&source=result","Twitter":null,"Instagram":null,"Pinterest":null,"Youtube":null,"Blog":"https:\/\/www.springcreekmeats.com\/blog","Address":"21010 County Highway R, Jim Falls, Wisconsin 54748","State":"Wisconsin","City":"Jim Falls","Street":"21010 County Highway R","Zip":"54748","Longitude":"-91.253864","Latitude":"45.135569","Dates":null,"Products":""},{"Type":"on-farm market","ModifyDate":"Jul 26th, 2014","Image":"default-onfarmmarket-4-3.jpg","ListingID":"700013","Name":"Under A Rock Farm, LLC","Description":null,"ContactName":"Farmer Chris","ContactEmail":"farmerchris@underarockfarm.com","ContactPhone":"608-639-0069","Website":"www.underarockfarm.com","Facebook":"https:\/\/www.facebook.com\/UnderARockFarm","Twitter":"https:\/\/www.twitter.com\/underarockfarm","Instagram":null,"Pinterest":null,"Youtube":null,"Blog":null,"Address":"E14214 County Road D, La Farge, Wisconsin 54639","State":"Wisconsin","City":"La Farge","Street":"E14214 County Road D","Zip":"54639","Longitude":"-90.545937","Latitude":"43.561362","Dates":null,"Products":""},{"Type":"on-farm market","ModifyDate":"Jul 26th, 2014","Image":"default-onfarmmarket-4-3.jpg","ListingID":"700089","Name":"Old Homestead Orchard","Description":null,"ContactName":"Carolyn Drought","ContactEmail":"info@oldhomesteadorchard.com","ContactPhone":"262-895-6747","Website":null,"Facebook":"https:\/\/www.facebook.com\/orchardstore","Twitter":null,"Instagram":null,"Pinterest":null,"Youtube":null,"Blog":null,"Address":"7814 Raynor Ave, Franksville, Wisconsin 53126","State":"Wisconsin","City":"Franksville","Street":"7814 Raynor Ave","Zip":"53126","Longitude":"-88.070998","Latitude":"42.828252","Dates":null,"Products":""},{"Type":"on-farm market","ModifyDate":"Jul 26th, 2014","Image":"default-onfarmmarket-4-3.jpg","ListingID":"700099","Name":"Meuer Farm, LLC","Description":null,"ContactName":"David Meuer","ContactEmail":"meuerfarm@gmail.com","ContactPhone":"920-418-2676","Website":"www.meuerfarm.com","Facebook":"https:\/\/www.facebook.com\/MeuerFarm,LLC","Twitter":null,"Instagram":null,"Pinterest":null,"Youtube":null,"Blog":null,"Address":"N2564  Highway 151, Chilton, Wisconsin 53014","State":"Wisconsin","City":"Chilton","Street":"N2564  Highway 151","Zip":"53014","Longitude":"-88.304602","Latitude":"43.981162","Dates":null,"Products":""},{"Type":"on-farm market","ModifyDate":"Jul 26th, 2014","Image":"default-onfarmmarket-4-3.jpg","ListingID":"700342","Name":"Wick Place Candles and Farm","Description":null,"ContactName":"Cheryl Miracle","ContactEmail":"gumbyhorn@gmail.com","ContactPhone":"414-708-4057","Website":"wickplacefarm.com","Facebook":null,"Twitter":null,"Instagram":null,"Pinterest":null,"Youtube":null,"Blog":null,"Address":"1907 43RD ST, CALEDONIA, Wisconsin 53108","State":"Wisconsin","City":"CALEDONIA","Street":"1907 43RD ST","Zip":"53108","Longitude":"-87.972992","Latitude":"42.8112760","Dates":null,"Products":""},{"Type":"on-farm market","ModifyDate":"Jul 26th, 2014","Image":"default-onfarmmarket-4-3.jpg","ListingID":"700365","Name":"Armstrong Apples LLC","Description":null,"ContactName":"Lisa Klein","ContactEmail":"eklein523@aol.com","ContactPhone":"920-477-3007","Website":"Armstrongapples.com","Facebook":"https:\/\/www.facebook.com\/pages\/Armstrong-Apples-Orchard-and-Winery\/103621803066115","Twitter":null,"Instagram":null,"Pinterest":null,"Youtube":null,"Blog":null,"Address":"W853 County Road B, Campbellsport, Wisconsin 53010","State":"Wisconsin","City":"Campbellsport","Street":"W853 County Road B","Zip":"53010","Longitude":"-88.199707","Latitude":"43.707108","Dates":null,"Products":""},{"Type":"on-farm market","ModifyDate":"Jul 26th, 2014","Image":"default-onfarmmarket-4-3.jpg","ListingID":"700450","Name":"Turners Fresh Market & Greenhouse","Description":null,"ContactName":"Tara Turner","ContactEmail":"turners@turnersfreshmarket.com","ContactPhone":"715-258-3355","Website":"www.turnersfreshmarket.com","Facebook":null,"Twitter":null,"Instagram":null,"Pinterest":null,"Youtube":null,"Blog":null,"Address":"E208 State Highway 54, Waupaca, Wisconsin 54981","State":"Wisconsin","City":"Waupaca","Street":"E208 State Highway 54","Zip":"54981","Longitude":"-89.184127","Latitude":"44.352231","Dates":null,"Products":""},{"Type":"on-farm market","ModifyDate":"Jul 26th, 2014","Image":"default-onfarmmarket-4-3.jpg","ListingID":"700679","Name":"Macs Berry Farm","Description":null,"ContactName":"Brian McIlquham","ContactEmail":"mac555_98@yahoo.com","ContactPhone":"715-568-5526","Website":null,"Facebook":"https:\/\/www.facebook.com\/pages\/Macs-Berry-Farm-Bloomer-Wisconsin\/128131573868102","Twitter":null,"Instagram":null,"Pinterest":null,"Youtube":null,"Blog":null,"Address":"10439 130th Avenue, Bloomer, Wisconsin 54724","State":"Wisconsin","City":"Bloomer","Street":"10439 130th Avenue","Zip":"54724","Longitude":"-91.462292","Latitude":"45.025737","Dates":null,"Products":""},{"Type":"on-farm market","ModifyDate":"Jul 26th, 2014","Image":"default-onfarmmarket-4-3.jpg","ListingID":"700769","Name":"Grampa Glenns Organic Strawberries Glennenn Farm","Description":null,"ContactName":"Nenn Stuve","ContactEmail":"gstuve@centurytel.net","ContactPhone":"715-964-8663","Website":"www.grampaglennsorganicstrawberries.com","Facebook":"https:\/\/www.facebook.com\/GrampaGlennsCertifiedOrganicStrawberries","Twitter":null,"Instagram":null,"Pinterest":null,"Youtube":null,"Blog":null,"Address":"W11280 County Road B, Humbird, Wisconsin 54746","State":"Wisconsin","City":"Humbird","Street":"W11280 County Road B","Zip":"54746","Longitude":"-90.884823","Latitude":"44.528060","Dates":null,"Products":""},{"Type":"on-farm market","ModifyDate":"Jul 27th, 2014","Image":"default-onfarmmarket-4-3.jpg","ListingID":"700155","Name":"Copper Kettle Farm LLC","Description":null,"ContactName":"Greg Kosmeder","ContactEmail":"info@copperKfarm.com","ContactPhone":"262-538-1189","Website":"http:\/\/www.copperkfarm.com","Facebook":"https:\/\/www.facebook.com\/CopperKettleFarm","Twitter":"https:\/\/www.twitter.com\/copperkfarm","Instagram":null,"Pinterest":null,"Youtube":null,"Blog":null,"Address":"5576 County Road Q, Colgate, Wisconsin 53017","State":"Wisconsin","City":"Colgate","Street":"5576 County Road Q","Zip":"53017","Longitude":"-88.313434","Latitude":"43.1930480","Dates":null,"Products":""},{"Type":"on-farm market","ModifyDate":"Jul 27th, 2014","Image":"default-onfarmmarket-4-3.jpg","ListingID":"700244","Name":"Porter's Patch","Description":null,"ContactName":"Troy Porter","ContactEmail":"porterspatch@hotmail.com","ContactPhone":"715-758-8162","Website":"www.PortersPatch.com","Facebook":"https:\/\/www.facebook.com\/porterspatch.navarino?fref=ts","Twitter":"Porters Patch","Instagram":null,"Pinterest":null,"Youtube":null,"Blog":null,"Address":"W4314 State Hwy 156, Bonduel, Wisconsin 54107","State":"Wisconsin","City":"Bonduel","Street":"W4314 State Hwy 156","Zip":"54107","Longitude":"-88.457553","Latitude":"44.6115636","Dates":null,"Products":""},{"Type":"on-farm market","ModifyDate":"Jul 27th, 2014","Image":"default-onfarmmarket-4-3.jpg","ListingID":"700247","Name":"Pinnacle Pastures","Description":null,"ContactName":"Cody Fulwider","ContactEmail":"pinnaclepastures@gmail.com","ContactPhone":"920-539-0789","Website":"pinnaclepastures,com","Facebook":"https:\/\/www.facebook.com\/pinnacle.pastures?fref=ts","Twitter":null,"Instagram":null,"Pinterest":null,"Youtube":null,"Blog":null,"Address":"W11780 County Road KK, Ripon, Wisconsin 54971","State":"Wisconsin","City":"Ripon","Street":"W11780 County Road KK","Zip":"54971","Longitude":"-88.749112","Latitude":"43.807534","Dates":null,"Products":""},{"Type":"on-farm market","ModifyDate":"Jul 27th, 2014","Image":"default-onfarmmarket-4-3.jpg","ListingID":"700336","Name":"Highland Valley Farm Inc.","Description":null,"ContactName":"The Dale Family","ContactEmail":"highlandvalleyfarm@gmail.com","ContactPhone":"715-779-5446","Website":"http:\/\/www.bayfieldblues.com\/index.html","Facebook":"https:\/\/www.facebook.com\/pages\/Highland-Valley-Farm\/117845948235187","Twitter":null,"Instagram":null,"Pinterest":null,"Youtube":null,"Blog":null,"Address":"87080 Valley Rd, Bayfield, Wisconsin 54814","State":"Wisconsin","City":"Bayfield","Street":"87080 Valley Rd","Zip":"54814","Longitude":"-90.867633","Latitude":"46.832896","Dates":null,"Products":""},{"Type":"on-farm market","ModifyDate":"Jul 27th, 2014","Image":"default-onfarmmarket-4-3.jpg","ListingID":"700353","Name":"Appleberry Farm LLC","Description":null,"ContactName":"David Wildes","ContactEmail":"fun@theappleberryfarm.com","ContactPhone":"608-798-2780","Website":"theappleberryfarm.com","Facebook":"upickappleberryfarm.com","Twitter":null,"Instagram":null,"Pinterest":null,"Youtube":null,"Blog":null,"Address":"8079 Maurer Road, Cross Plains, Wisconsin 53528","State":"Wisconsin","City":"Cross Plains","Street":"8079 Maurer Road","Zip":"53528","Longitude":"-89.615938","Latitude":"43.0421176","Dates":null,"Products":""},{"Type":"on-farm market","ModifyDate":"Jul 27th, 2014","Image":"default-onfarmmarket-4-3.jpg","ListingID":"700418","Name":"Altenburg's Country Gardens LLC","Description":null,"ContactName":"Harold Altenburg","ContactEmail":"altenburgs@tznet.com","ContactPhone":"715-421-2943","Website":"http:\/\/www.altenburgsfarm.com\/","Facebook":"https:\/\/www.facebook.com\/altenburgsfarm","Twitter":null,"Instagram":null,"Pinterest":null,"Youtube":null,"Blog":null,"Address":"7020 Plover Rd (Hwy. 54 E), Wisconsin Rapids, Wisconsin 54494","State":"Wisconsin","City":"Wisconsin Rapids","Street":"7020 Plover Rd (Hwy. 54 E)","Zip":"54494","Longitude":"-89.738168","Latitude":"44.419143","Dates":null,"Products":""},{"Type":"on-farm market","ModifyDate":"Jul 27th, 2014","Image":"default-onfarmmarket-4-3.jpg","ListingID":"700456","Name":"Toms Raspberries","Description":null,"ContactName":"tom sawyer","ContactEmail":"tomsawyer300@yahoo.com","ContactPhone":"608-370-2024","Website":"sites.google.com\/site\/tomsraspberries\/","Facebook":"https:\/\/www.facebook.com\/pages\/Toms-Raspberries\/597930213559027","Twitter":null,"Instagram":null,"Pinterest":null,"Youtube":null,"Blog":null,"Address":"W13702 highway 60, Prairie Du Sac, Wisconsin 53578","State":"Wisconsin","City":"Prairie Du Sac","Street":"W13702 highway 60","Zip":"53578","Longitude":"-89.680302","Latitude":"43.307907","Dates":null,"Products":""},{"Type":"on-farm market","ModifyDate":"Jul 27th, 2014","Image":"default-onfarmmarket-4-3.jpg","ListingID":"700550","Name":"Blueberry Haven LLC","Description":null,"ContactName":"RAMONA JARVAIS","ContactEmail":"blueberryhaven@frontiernet.net","ContactPhone":"715-823-4091","Website":"BLUEBERRYHAVEN.NET","Facebook":null,"Twitter":null,"Instagram":null,"Pinterest":null,"Youtube":null,"Blog":null,"Address":"W9967 County  Road XX, Bear Creek, Wisconsin 54922","State":"Wisconsin","City":"Bear Creek","Street":"W9967 County  Road XX","Zip":"54922","Longitude":"-88.690996","Latitude":"44.5884040","Dates":null,"Products":""},{"Type":"on-farm market","ModifyDate":"Jul 27th, 2014","Image":"default-onfarmmarket-4-3.jpg","ListingID":"700644","Name":"Heritage Orchard LLC","Description":null,"ContactName":"Vern Gasch","ContactEmail":"appleannie4@hotmail.com","ContactPhone":"920-849-2158","Website":"www.heritageorchard.net","Facebook":null,"Twitter":null,"Instagram":null,"Pinterest":null,"Youtube":null,"Blog":null,"Address":"N 2963 Lakeshore Dr, Chilton, Wisconsin 53014","State":"Wisconsin","City":"Chilton","Street":"N 2963 Lakeshore Dr","Zip":"53014","Longitude":"-88.311825","Latitude":"43.995193","Dates":null,"Products":""},{"Type":"on-farm market","ModifyDate":"Jul 27th, 2014","Image":"default-onfarmmarket-4-3.jpg","ListingID":"700763","Name":"Harried U-Pick-Umm Farm LLC.","Description":null,"ContactName":"matt","ContactEmail":"harriedupickummfarm@gmail.com","ContactPhone":"(608) 774-2936","Website":"www.facebook.com\/pages\/Harried-U-Pick-Umm-Farm\/142386852440308","Facebook":null,"Twitter":null,"Instagram":null,"Pinterest":null,"Youtube":null,"Blog":null,"Address":"173 County Road N, Edgerton, Wisconsin 53534","State":"Wisconsin","City":"Edgerton","Street":"173 County Road N","Zip":"53534","Longitude":"-89.140436","Latitude":"42.861329","Dates":null,"Products":""},{"Type":"on-farm market","ModifyDate":"Jul 28th, 2014","Image":"default-onfarmmarket-4-3.jpg","ListingID":"700406","Name":"Bashaw Valley Farm & Greenhouse","Description":null,"ContactName":"Steve Degner","ContactEmail":"bashawvalley@gmail.com","ContactPhone":"715-468-2591","Website":"bashawvalley@gmail.com","Facebook":null,"Twitter":null,"Instagram":null,"Pinterest":null,"Youtube":null,"Blog":null,"Address":"W7402 Fox Trail Rd., Shell Lake, Wisconsin 54871","State":"Wisconsin","City":"Shell Lake","Street":"W7402 Fox Trail Rd.","Zip":"54871","Longitude":"-91.913566","Latitude":"45.764247","Dates":null,"Products":""},{"Type":"on-farm market","ModifyDate":"Jul 30th, 2014","Image":"default-onfarmmarket-4-3.jpg","ListingID":"700198","Name":"Windy Fleece Farm","Description":null,"ContactName":"Steve Elliott & Anna Landmark","ContactEmail":"windyfleecefarm@gmail.com","ContactPhone":"608-862-3834","Website":"www.windyfleecefarm.com","Facebook":"www.facebook.com\/windyfleecefarm","Twitter":null,"Instagram":null,"Pinterest":null,"Youtube":null,"Blog":null,"Address":"W1237 Brooklyn Albany Rd, Albany, Wisconsin 53502","State":"Wisconsin","City":"Albany","Street":"W1237 Brooklyn Albany Rd","Zip":"53502","Longitude":"-89.425043","Latitude":"42.769865","Dates":null,"Products":""},{"Type":"on-farm market","ModifyDate":"Jul 31st, 2014","Image":"default-onfarmmarket-4-3.jpg","ListingID":"700215","Name":"Bull Brook Keep","Description":null,"ContactName":"Sylvia Burgos Toftness","ContactEmail":"sylvia@bullbrookkeep.com","ContactPhone":"651-238-8525","Website":"http:\/\/www.bullbrookkeep.com","Facebook":"http:\/\/www.facebook.com\/BullBrookKeep","Twitter":"twitter.com\/BronxToBarn","Instagram":null,"Pinterest":null,"Youtube":null,"Blog":"http:\/\/www.bronxtobarn.com","Address":"765 50th Avenue, Clear Lake, Wisconsin 54005","State":"Wisconsin","City":"Clear Lake","Street":"765 50th Avenue","Zip":"54005","Longitude":"-92.320228","Latitude":"45.2822048","Dates":null,"Products":""},{"Type":"on-farm market","ModifyDate":"Jul 31st, 2014","Image":"default-onfarmmarket-4-3.jpg","ListingID":"700361","Name":"Good Earth Farms","Description":null,"ContactName":"Michael Hansen","ContactEmail":"farmer@goodearthfarms.com","ContactPhone":"715-652-3520","Website":"www.goodearthfarms.com","Facebook":"https:\/\/www.facebook.com\/pages\/Good-Earth-Farms\/176806359091394","Twitter":null,"Instagram":null,"Pinterest":null,"Youtube":null,"Blog":null,"Address":"10431 Mayflower Road, Milladore, Wisconsin 54454","State":"Wisconsin","City":"Milladore","Street":"10431 Mayflower Road","Zip":"54454","Longitude":"-89.908833","Latitude":"44.6255150","Dates":null,"Products":""},{"Type":"on-farm market","ModifyDate":"Jul 31st, 2014","Image":"default-onfarmmarket-4-3.jpg","ListingID":"700370","Name":"Dorothy's Grange LLC","Description":null,"ContactName":"April Prusia","ContactEmail":"dorothys.grange@gmail.com","ContactPhone":"608-444-1102","Website":"dorothysgrange.com","Facebook":null,"Twitter":null,"Instagram":null,"Pinterest":null,"Youtube":null,"Blog":null,"Address":"W8707 Sawmill Rd, Blanchardville, Wisconsin 53516","State":"Wisconsin","City":"Blanchardville","Street":"W8707 Sawmill Rd","Zip":"53516","Longitude":"-89.791541","Latitude":"42.7899850","Dates":null,"Products":""},{"Type":"on-farm market","ModifyDate":"Jul 31st, 2015","Image":"default-onfarmmarket-4-3.jpg","ListingID":"701290","Name":"Kipp Farms and Country Market LLC","Description":null,"ContactName":"Christine Kipp","ContactEmail":"kippfarms@yahoo.com","ContactPhone":"262-510-6581","Website":"www.kippfarms.com","Facebook":"https:\/\/www.facebook.com\/pages\/Kipp-Farms-Country-Market-LLC\/274280116083169?fref=ts","Twitter":null,"Instagram":null,"Pinterest":null,"Youtube":null,"Blog":null,"Address":"w329s5402 county rd E, North Prairie, Wisconsin 53153","State":"Wisconsin","City":"North Prairie","Street":"w329s5402 county rd E","Zip":"53153","Longitude":"-88.404992","Latitude":"42.945864","Dates":null,"Products":""},{"Type":"on-farm market","ModifyDate":"Jun 4th, 2022","Image":"onfarmmarket_700736_13299_20220604133541.png","ListingID":"700736","Name":"Glenna Farms Country Store & Sugarhouse","Description":null,"ContactName":"Rick Glenna","ContactEmail":"info@glennafarms.com","ContactPhone":"800-310-5050","Website":"http:\/\/glennafarms.com\/","Facebook":"https:\/\/www.facebook.com\/pages\/Glenna-Farms\/52322147733?ref=hl","Twitter":"https:\/\/twitter.com\/GlennaFarms1","Instagram":null,"Pinterest":null,"Youtube":null,"Blog":null,"Address":"1333 - 120th Street, Amery, Wisconsin 54001","State":"Wisconsin","City":"Amery","Street":"1333 - 120th Street","Zip":"54001","Longitude":"-92.408597","Latitude":"45.397467","Dates":"May to December","Products":"Fresh vegetables, Canned or preserved fruits\/vegetables, Coffee\/tea, Crafts\/woodworking items, Dairy products., Maple products, Wine, spirits, beer, hard cider"},{"Type":"on-farm market","ModifyDate":"Mar 19th, 2015","Image":"default-onfarmmarket-4-3.jpg","ListingID":"701113","Name":"Holyland Berries Farm","Description":null,"ContactName":"Kris Wells","ContactEmail":"holylandberries@yahoo.com","ContactPhone":"414-313-4023","Website":null,"Facebook":"https:\/\/www.facebook.com\/HolylandBerries","Twitter":null,"Instagram":null,"Pinterest":null,"Youtube":null,"Blog":null,"Address":"N9488 Rte G, St. Cloud, Wisconsin 53079","State":"Wisconsin","City":"St. Cloud","Street":"N9488 Rte G","Zip":"53079","Longitude":"-88.205826","Latitude":"43.8853530","Dates":null,"Products":""},{"Type":"on-farm market","ModifyDate":"Mar 23rd, 2015","Image":"default-onfarmmarket-4-3.jpg","ListingID":"700445","Name":"Pike Hole Family Farm","Description":null,"ContactName":"Valerie Burke","ContactEmail":"val@pikeholefarm.com","ContactPhone":"715-554-1034","Website":"www.pikeholefarm.com","Facebook":"Brad Burke","Twitter":null,"Instagram":null,"Pinterest":null,"Youtube":null,"Blog":null,"Address":"359 130th Street, Amery, Wisconsin 54001","State":"Wisconsin","City":"Amery","Street":"359 130th Street","Zip":"54001","Longitude":"-92.427783","Latitude":"45.259556","Dates":null,"Products":""},{"Type":"on-farm market","ModifyDate":"Mar 24th, 2015","Image":"default-onfarmmarket-4-3.jpg","ListingID":"701229","Name":"Busy Barns Adventure Farm LLC","Description":null,"ContactName":"Mary & Gary Telfer","ContactEmail":"info@busybarnsfarm.com","ContactPhone":"920-691-6742","Website":"https:\/\/www.busybarnsfarm.com","Facebook":"https:\/\/www.facebook.com\/busybarnsfarm","Twitter":"https:\/\/twitter.com\/busybarnsfarm","Instagram":null,"Pinterest":null,"Youtube":null,"Blog":null,"Address":"W7675 US Hwy 12, Fort Atkinson, Wisconsin 53538","State":"Wisconsin","City":"Fort Atkinson","Street":"W7675 US Hwy 12","Zip":"53538","Longitude":"-88.912620","Latitude":"42.968651","Dates":null,"Products":""},{"Type":"on-farm market","ModifyDate":"Nov 29th, 2015","Image":"default-onfarmmarket-4-3.jpg","ListingID":"701306","Name":"Star Orchard, LLC","Description":null,"ContactName":"Darrell Haen","ContactEmail":"starorchardllc@gmail.com","ContactPhone":"920-759-9294","Website":"http:\/\/www.starorchard.com\/","Facebook":"http:\/\/www.facebook.com\/starorchardllc","Twitter":null,"Instagram":null,"Pinterest":null,"Youtube":null,"Blog":null,"Address":"253 County Road CE, Kaukauna, Wisconsin 54130","State":"Wisconsin","City":"Kaukauna","Street":"253 County Road CE","Zip":"54130","Longitude":"-88.188747","Latitude":"44.2494042","Dates":null,"Products":""},{"Type":"on-farm market","ModifyDate":"Oct 1st, 2014","Image":"default-onfarmmarket-4-3.jpg","ListingID":"701114","Name":"Golden Hills Buffalo Farm","Description":null,"ContactName":"Noel Filla","ContactEmail":"goldenhillsbuffalo@gmail.com","ContactPhone":"7155972517","Website":null,"Facebook":null,"Twitter":null,"Instagram":null,"Pinterest":null,"Youtube":null,"Blog":null,"Address":"N44867 County Road E, Osseo, Wisconsin 54758","State":"Wisconsin","City":"Osseo","Street":"N44867 County Road E","Zip":"54758","Longitude":"-91.251407","Latitude":"44.4903959","Dates":null,"Products":""},{"Type":"on-farm market","ModifyDate":"Oct 2nd, 2020","Image":"default-onfarmmarket-4-3.jpg","ListingID":"701560","Name":"Rockin Highlands","Description":null,"ContactName":"Greg & Irina Reynolds","ContactEmail":"RockinHighlands@GMail.com","ContactPhone":"608-341-7577","Website":"https:\/\/RockinHighlands.com\/","Facebook":null,"Twitter":null,"Instagram":null,"Pinterest":null,"Youtube":null,"Blog":null,"Address":"3088 Survey Road, Dodgeville, Wisconsin 53533","State":"Wisconsin","City":"Dodgeville","Street":"3088 Survey Road","Zip":"53533","Longitude":"-90.173814","Latitude":"42.965061","Dates":null,"Products":""},{"Type":"on-farm market","ModifyDate":"Sep 10th, 2014","Image":"default-onfarmmarket-4-3.jpg","ListingID":"701050","Name":"Futility Farms LLC","Description":null,"ContactName":"Beverly Thompson","ContactEmail":"FutilityFarms@hotmail.com","ContactPhone":"715-550-5720","Website":"http:\/\/www.futilityfarms.com\/","Facebook":"Futility Farms","Twitter":null,"Instagram":null,"Pinterest":null,"Youtube":null,"Blog":null,"Address":"N5100 Webster Lane, Gilman, Wisconsin 54433","State":"Wisconsin","City":"Gilman","Street":"N5100 Webster Lane","Zip":"54433","Longitude":"-90.795837","Latitude":"45.216076","Dates":null,"Products":""},{"Type":"on-farm market","ModifyDate":"Sep 10th, 2014","Image":"default-onfarmmarket-4-3.jpg","ListingID":"701052","Name":"Cowsmo, Inc.","Description":null,"ContactName":"John Rosenow","ContactEmail":"jrosenow@mwt.net","ContactPhone":"608-626-2571","Website":"www.cowsmocompost.com","Facebook":null,"Twitter":null,"Instagram":null,"Pinterest":null,"Youtube":null,"Blog":null,"Address":"S1843 County Road U, Cochrane, Wisconsin 54622","State":"Wisconsin","City":"Cochrane","Street":"S1843 County Road U","Zip":"54622","Longitude":"-91.683419","Latitude":"44.328264","Dates":null,"Products":""},{"Type":"on-farm market","ModifyDate":"Sep 12th, 2014","Image":"default-onfarmmarket-4-3.jpg","ListingID":"701064","Name":"Northfork Ranch","Description":null,"ContactName":"Patty Dujardin","ContactEmail":"northforkranch@centurytel.net","ContactPhone":"715-634-3252","Website":null,"Facebook":null,"Twitter":null,"Instagram":null,"Pinterest":null,"Youtube":null,"Blog":null,"Address":"15455 W Kadlec Road, Hayward, Wisconsin 54843","State":"Wisconsin","City":"Hayward","Street":"15455 W Kadlec Road","Zip":"54843","Longitude":"-91.467657","Latitude":"45.983106","Dates":null,"Products":""},{"Type":"on-farm market","ModifyDate":"Sep 14th, 2016","Image":"default-onfarmmarket-4-3.jpg","ListingID":"701371","Name":"The Garlic Underground","Description":null,"ContactName":"glenn borucki","ContactEmail":"gborucki@wi.rr.com","ContactPhone":"4145502341","Website":"http:\/www.thegarlicunderground.com","Facebook":"https:\/\/www.facebook.com\/garlicug","Twitter":null,"Instagram":null,"Pinterest":null,"Youtube":null,"Blog":null,"Address":"w383n9009 mill st, Oconomowoc , Wisconsin 53066","State":"Wisconsin","City":"Oconomowoc","Street":"w383n9009 mill st","Zip":"53066","Longitude":"-88.505108","Latitude":"43.1831070","Dates":null,"Products":""},{"Type":"on-farm market","ModifyDate":"Sep 16th, 2014","Image":"default-onfarmmarket-4-3.jpg","ListingID":"700195","Name":"Yorkshire Rose Farm","Description":null,"ContactName":"Carole Pine","ContactEmail":"yorkshirerosefarm@gmail.com","ContactPhone":"608-469-0790","Website":null,"Facebook":null,"Twitter":null,"Instagram":null,"Pinterest":null,"Youtube":null,"Blog":null,"Address":"W5416 King Road, Rio, Wisconsin 53960","State":"Wisconsin","City":"Rio","Street":"W5416 King Road","Zip":"53960","Longitude":"-89.271833","Latitude":"43.3996300","Dates":null,"Products":""},{"Type":"on-farm market","ModifyDate":"Sep 16th, 2014","Image":"default-onfarmmarket-4-3.jpg","ListingID":"700309","Name":"Offbeat Acres","Description":null,"ContactName":"Erin Egan","ContactEmail":"info@offbeatacres.com","ContactPhone":"608-219-6369","Website":"www.offbeatacres.com","Facebook":"https:\/\/www.facebook.com\/OffbeatAcresAlpacas","Twitter":"https:\/\/twitter.com\/OffbeatAcres","Instagram":null,"Pinterest":null,"Youtube":null,"Blog":null,"Address":"5453 Pierceville Road, Cottage Grove, Wisconsin 53527","State":"Wisconsin","City":"Cottage Grove","Street":"5453 Pierceville Road","Zip":"53527","Longitude":"-89.154417","Latitude":"43.1471750","Dates":null,"Products":""},{"Type":"on-farm market","ModifyDate":"Sep 17th, 2014","Image":"default-onfarmmarket-4-3.jpg","ListingID":"701081","Name":"Englewood Grass-Fed Beef","Description":null,"ContactName":"Kristi Agnew","ContactEmail":"englewoodgrassfedbeef@gmail.com","ContactPhone":"920-382-4469","Website":null,"Facebook":"https:\/\/www.facebook.com\/pages\/Englewood-Grass-fed-Beef\/102825246458689","Twitter":null,"Instagram":null,"Pinterest":null,"Youtube":null,"Blog":null,"Address":"W1414 County Rd. Z, Fall River, Wisconsin 53932","State":"Wisconsin","City":"Fall River","Street":"W1414 County Rd. Z","Zip":"53932","Longitude":"-89.068339","Latitude":"43.428831","Dates":null,"Products":""},{"Type":"on-farm market","ModifyDate":"Sep 18th, 2014","Image":"default-onfarmmarket-4-3.jpg","ListingID":"701087","Name":"Deep Rooted","Description":null,"ContactName":"Tiffany Cade","ContactEmail":"info@deeprootedgreenhouses.com","ContactPhone":"608-386-6177","Website":"http:\/\/www.deeprootedorganics.com\/","Facebook":"https:\/\/www.facebook.com\/DeepRootedWestby","Twitter":null,"Instagram":null,"Pinterest":null,"Youtube":null,"Blog":"http:\/\/deeprootedfarm.blogspot.com\/","Address":"E8975 E. Ridge Road, Westby, Wisconsin 54667","State":"Wisconsin","City":"Westby","Street":"E8975 E. Ridge Road","Zip":"54667","Longitude":"-90.805682","Latitude":"43.653914","Dates":null,"Products":""},{"Type":"on-farm market","ModifyDate":"Sep 21st, 2014","Image":"default-onfarmmarket-4-3.jpg","ListingID":"701090","Name":"Seibel's Organic Meats, LLC","Description":null,"ContactName":"Chuck Seibel","ContactEmail":"seibelsorganic@gmail.com","ContactPhone":"715-568-2587","Website":"https:\/\/sites.google.com\/site\/seibelsorganic\/","Facebook":"https:\/\/www.facebook.com\/pages\/Seibels-Organic-Meats-LLC\/102229873169639","Twitter":null,"Instagram":null,"Pinterest":null,"Youtube":null,"Blog":null,"Address":"10494 157th ave, Bloomer, Wisconsin 54724","State":"Wisconsin","City":"Bloomer","Street":"10494 157th ave","Zip":"54724","Longitude":"-91.461033","Latitude":"45.0691110","Dates":null,"Products":""},{"Type":"on-farm market","ModifyDate":"Sep 23rd, 2014","Image":"default-onfarmmarket-4-3.jpg","ListingID":"701080","Name":"Pittsview Farm Elk","Description":null,"ContactName":null,"ContactEmail":"info@pittsviewfarmelk.com","ContactPhone":null,"Website":"http:\/\/pittsviewfarmelk.com\/","Facebook":"https:\/\/www.facebook.com\/pittsvillefarmelk","Twitter":null,"Instagram":null,"Pinterest":null,"Youtube":null,"Blog":null,"Address":"4891 state hwy. 80, Pittsville, Wisconsin","State":"Wisconsin","City":"Pittsville","Street":"4891 state hwy. 80","Zip":null,"Longitude":"-90.125247","Latitude":"44.4239469","Dates":null,"Products":""},{"Type":"on-farm market","ModifyDate":"Sep 3rd, 2014","Image":"default-onfarmmarket-4-3.jpg","ListingID":"701012","Name":"ElevenM Ranch","Description":null,"ContactName":"Sandy Mahoney","ContactEmail":"elevenmranch@gmail.com","ContactPhone":"715-787-3529","Website":"elevenmranch.com","Facebook":"https:\/\/www.facebook.com\/elevenmranch","Twitter":null,"Instagram":null,"Pinterest":null,"Youtube":null,"Blog":null,"Address":"W12426 Paiser Ln, Leopolis, Wisconsin 54948","State":"Wisconsin","City":"Leopolis","Street":"W12426 Paiser Ln","Zip":"54948","Longitude":"-88.873415","Latitude":"44.778915","Dates":null,"Products":""},{"Type":"on-farm market","ModifyDate":"Sep 4th, 2014","Image":"default-onfarmmarket-4-3.jpg","ListingID":"701019","Name":"Golden Bear Farm","Description":null,"ContactName":"Golden Bear Farm","ContactEmail":"goldenbearfarm@gmail.com","ContactPhone":"9203330005","Website":"www.goldenbearfarm.com","Facebook":"Golden Bear Farm","Twitter":null,"Instagram":null,"Pinterest":null,"Youtube":null,"Blog":null,"Address":"15115 Lax Chapel Rd., Kiel, Wisconsin 53042","State":"Wisconsin","City":"Kiel","Street":"15115 Lax Chapel Rd.","Zip":"53042","Longitude":"-87.981956","Latitude":"43.914557","Dates":null,"Products":""}]